$GTRIP,00e6f662
$GPRMC,,V,,,,,,,,,,N*AA
$GSENS, 0.127, 0.044,-0.965
$GSENS, 0.136, 0.037,-1.016
$GSENS, 0.123, 0.058,-0.957
$GSENS, 0.128, 0.041,-0.986
$GSENS, 0.119, 0.052,-0.963
$GPRMC,,V,,,,,,,,,,N*AA
$GSENS, 0.127, 0.037,-0.975
$GSENS, 0.123, 0.037,-0.965
$GSENS, 0.121, 0.042,-0.969
$GSENS, 0.130, 0.041,-0.971
$GSENS, 0.127, 0.050,-0.959
$GPRMC,,V,,,,,,,,,,N*AA
$GSENS, 0.130, 0.042,-0.973
$GSENS, 0.119, 0.052,-0.959
$GSENS, 0.125, 0.046,-0.965
$GSENS, 0.119, 0.050,-0.967
$GSENS, 0.121, 0.052,-0.971
$GPRMC,,V,,,,,,,,,,N*AA
$GSENS, 0.125, 0.046,-0.961
$GSENS, 0.128, 0.042,-0.967
$GSENS, 0.127, 0.046,-0.973
$GSENS, 0.128, 0.046,-0.965
$GSENS, 0.119, 0.050,-0.965
$GPRMC,,V,,,,,,,,,,N*AA
$GSENS, 0.119, 0.058,-0.969
$GSENS, 0.125, 0.056,-0.957
$GSENS, 0.125, 0.046,-0.967
$GSENS, 0.123, 0.050,-0.965
$GSENS, 0.128, 0.041,-0.975
$GPRMC,,V,,,,,,,,,,N*AA
$GSENS, 0.128, 0.046,-0.965
$GSENS, 0.125, 0.044,-0.965
$GSENS, 0.113, 0.048,-0.965
$GSENS, 0.121, 0.046,-0.963
$GSENS, 0.117, 0.056,-0.961
$GPRMC,,V,,,,,,,,,,N*AA
$GSENS, 0.121, 0.050,-0.967
$GSENS, 0.125, 0.039,-0.969
$GSENS, 0.125, 0.048,-0.963
$GSENS, 0.119, 0.041,-0.973
$GSENS, 0.123, 0.044,-0.961
$GPRMC,,V,,,,,,,,,,N*AA
$GSENS, 0.123, 0.042,-0.975
$GSENS, 0.125, 0.041,-0.973
$GSENS, 0.125, 0.050,-0.967
$GSENS, 0.123, 0.054,-0.959
$GSENS, 0.121, 0.052,-0.967
$GPRMC,,V,,,,,,,,,,N*AA
$GSENS, 0.123, 0.039,-0.965
$GSENS, 0.123, 0.048,-0.963
$GSENS, 0.115, 0.054,-0.959
$GSENS, 0.127, 0.046,-0.961
$GSENS, 0.130, 0.039,-0.975
$GPRMC,,V,,,,,,,,,,N*AA
$GSENS, 0.132, 0.039,-0.957
$GSENS, 0.127, 0.041,-0.969
$GSENS, 0.127, 0.042,-0.967
$GSENS, 0.121, 0.054,-0.959
$GSENS, 0.123, 0.042,-0.969
$GPRMC,,V,,,,,,,,,,N*AA
$GSENS, 0.119, 0.058,-0.963
$GSENS, 0.121, 0.052,-0.967
$GSENS, 0.134, 0.042,-0.961
$GSENS, 0.121, 0.050,-0.961
$GSENS, 0.123, 0.048,-0.963
$GPRMC,,V,,,,,,,,,,N*AA
$GSENS, 0.119, 0.044,-0.967
$GSENS, 0.125, 0.037,-0.963
$GSENS, 0.121, 0.046,-0.957
$GSENS, 0.127, 0.039,-0.969
$GSENS, 0.127, 0.039,-0.959
$GPRMC,,V,,,,,,,,,,N*AA
$GSENS, 0.119, 0.046,-0.965
$GSENS, 0.128, 0.042,-0.969
$GSENS, 0.121, 0.046,-0.967
$GSENS, 0.121, 0.050,-0.959
$GSENS, 0.117, 0.050,-0.959
$GPRMC,,V,,,,,,,,,,N*AA
$GSENS, 0.123, 0.048,-0.957
$GSENS, 0.123, 0.044,-0.965
$GSENS, 0.127, 0.054,-0.959
$GSENS, 0.121, 0.046,-0.965
$GSENS, 0.119, 0.041,-0.963
$GPRMC,,V,,,,,,,,,,N*AA
$GSENS, 0.125, 0.052,-0.961
$GSENS, 0.121, 0.050,-0.967
$GSENS, 0.117, 0.050,-0.965
$GSENS, 0.121, 0.041,-0.969
$GSENS, 0.121, 0.056,-0.959
$GPRMC,,V,,,,,,,,,,N*AA
$GSENS, 0.123, 0.046,-0.969
$GSENS, 0.121, 0.042,-0.963
$GSENS, 0.125, 0.048,-0.969
$GSENS, 0.127, 0.058,-0.967
$GSENS, 0.119, 0.048,-0.965
$GPRMC,,V,,,,,,,,,,N*AA
$GSENS, 0.121, 0.046,-0.967
$GSENS, 0.123, 0.050,-0.963
$GSENS, 0.121, 0.054,-0.963
$GSENS, 0.123, 0.048,-0.969
$GSENS, 0.117, 0.052,-0.965
$GPRMC,,V,,,,,,,,,,N*AA
$GSENS, 0.119, 0.054,-0.967
$GSENS, 0.121, 0.044,-0.967
$GSENS, 0.117, 0.046,-0.961
$GSENS, 0.119, 0.052,-0.965
$GSENS, 0.125, 0.042,-0.961
$GPRMC,,V,,,,,,,,,,N*AA
$GSENS, 0.121, 0.058,-0.959
$GSENS, 0.125, 0.044,-0.965
$GSENS, 0.121, 0.042,-0.957
$GSENS, 0.121, 0.050,-0.971
$GSENS, 0.125, 0.050,-0.969
$GPRMC,,V,,,,,,,,,,N*AA
$GSENS, 0.123, 0.048,-0.965
$GSENS, 0.121, 0.048,-0.965
$GSENS, 0.119, 0.050,-0.963
$GSENS, 0.117, 0.056,-0.961
$GSENS, 0.121, 0.044,-0.967
$GPRMC,,V,,,,,,,,,,N*AA
$GSENS, 0.127, 0.041,-0.971
$GSENS, 0.115, 0.052,-0.959
$GSENS, 0.123, 0.041,-0.959
$GSENS, 0.123, 0.044,-0.963
$GSENS, 0.123, 0.050,-0.967
$GPRMC,,V,,,,,,,,,,N*AA
$GSENS, 0.123, 0.042,-0.965
$GSENS, 0.121, 0.052,-0.963
$GSENS, 0.119, 0.052,-0.965
$GSENS, 0.125, 0.041,-0.961
$GSENS, 0.125, 0.052,-0.959
$GPRMC,,V,,,,,,,,,,N*AA
$GSENS, 0.127, 0.039,-0.971
$GSENS, 0.115, 0.056,-0.961
$GSENS, 0.125, 0.048,-0.969
$GSENS, 0.121, 0.052,-0.959
$GSENS, 0.121, 0.050,-0.961
$GPRMC,,V,,,,,,,,,,N*AA
$GSENS, 0.121, 0.044,-0.959
$GSENS, 0.125, 0.052,-0.963
$GSENS, 0.121, 0.042,-0.967
$GSENS, 0.130, 0.031,-0.955
$GSENS, 0.125, 0.054,-0.963
$GPRMC,,V,,,,,,,,,,N*AA
$GSENS, 0.123, 0.048,-0.961
$GSENS, 0.119, 0.042,-0.967
$GSENS, 0.119, 0.050,-0.961
$GSENS, 0.121, 0.050,-0.967
$GSENS, 0.125, 0.041,-0.963
$GPRMC,,V,,,,,,,,,,N*AA
$GSENS, 0.121, 0.042,-0.961
$GSENS, 0.123, 0.042,-0.965
$GSENS, 0.125, 0.048,-0.961
$GSENS, 0.125, 0.044,-0.961
$GSENS, 0.132, 0.042,-0.967
$GPRMC,,V,,,,,,,,,,N*AA
$GSENS, 0.125, 0.050,-0.963
$GSENS, 0.127, 0.056,-0.969
$GSENS, 0.128, 0.046,-0.965
$GSENS, 0.130, 0.046,-0.980
$GSENS, 0.119, 0.052,-0.963
$GPRMC,,V,,,,,,,,,,N*AA
$GSENS, 0.127, 0.042,-0.961
$GSENS, 0.121, 0.052,-0.963
$GSENS, 0.123, 0.048,-0.965
$GSENS, 0.130, 0.037,-0.959
$GSENS, 0.125, 0.050,-0.959
$GPRMC,,V,,,,,,,,,,N*AA
$GSENS, 0.123, 0.052,-0.963
$GSENS, 0.128, 0.044,-0.961
$GSENS, 0.119, 0.048,-0.961
$GSENS, 0.117, 0.050,-0.959
$GSENS, 0.128, 0.054,-0.969
$GPRMC,,V,,,,,,,,,,N*AA
$GSENS, 0.130, 0.039,-0.963
$GSENS, 0.125, 0.052,-0.967
$GSENS, 0.125, 0.044,-0.967
$GSENS, 0.125, 0.050,-0.959
$GSENS, 0.127, 0.050,-0.965
$GPRMC,,V,,,,,,,,,,N*AA
$GSENS, 0.127, 0.048,-0.965
$GSENS, 0.130, 0.042,-0.967
$GSENS, 0.128, 0.042,-0.969
$GSENS, 0.127, 0.052,-0.965
$GSENS, 0.123, 0.048,-0.963
$GPRMC,,V,,,,,,,,,,N*AA
$GSENS, 0.125, 0.033,-0.969
$GSENS, 0.128, 0.046,-0.963
$GSENS, 0.125, 0.044,-0.969
$GSENS, 0.128, 0.046,-0.965
$GSENS, 0.127, 0.042,-0.967
$GPRMC,,V,,,,,,,,,,N*AA
$GSENS, 0.119, 0.050,-0.961
$GSENS, 0.125, 0.046,-0.971
$GSENS, 0.130, 0.050,-0.969
$GSENS, 0.128, 0.048,-0.967
$GSENS, 0.125, 0.048,-0.961
$GPRMC,,V,,,,,,,,,,N*AA
$GSENS, 0.127, 0.039,-0.969
$GSENS, 0.119, 0.054,-0.961
$GSENS, 0.127, 0.052,-0.963
$GSENS, 0.125, 0.044,-0.965
$GSENS, 0.119, 0.048,-0.961
$GPRMC,,V,,,,,,,,,,N*AA
$GSENS, 0.119, 0.042,-0.965
$GSENS, 0.130, 0.052,-0.969
$GSENS, 0.123, 0.041,-0.961
$GSENS, 0.125, 0.044,-0.961
$GSENS, 0.128, 0.044,-0.973
$GPRMC,,V,,,,,,,,,,N*AA
$GSENS, 0.134, 0.031,-0.969
$GSENS, 0.123, 0.042,-0.973
$GSENS, 0.127, 0.044,-0.973
$GSENS, 0.125, 0.050,-0.969
$GSENS, 0.121, 0.042,-0.971
$GPRMC,,V,,,,,,,,,,N*AA
$GSENS, 0.128, 0.048,-0.973
$GSENS, 0.123, 0.052,-0.967
$GSENS, 0.123, 0.044,-0.973
$GSENS, 0.119, 0.041,-0.975
$GSENS, 0.123, 0.052,-0.961
$GPRMC,,V,,,,,,,,,,N*AA
$GSENS, 0.125, 0.048,-0.961
$GSENS, 0.128, 0.044,-0.965
$GSENS, 0.121, 0.054,-0.963
$GSENS, 0.125, 0.048,-0.965
$GSENS, 0.119, 0.052,-0.965
$GPRMC,,V,,,,,,,,,,N*AA
$GSENS, 0.121, 0.046,-0.963
$GSENS, 0.125, 0.052,-0.963
$GSENS, 0.128, 0.048,-0.967
$GSENS, 0.117, 0.056,-0.967
$GSENS, 0.123, 0.050,-0.963
$GPRMC,,V,,,,,,,,,,N*AA
$GSENS, 0.125, 0.050,-0.973
$GSENS, 0.123, 0.048,-0.963
$GSENS, 0.123, 0.046,-0.969
$GSENS, 0.119, 0.048,-0.955
$GSENS, 0.127, 0.048,-0.965
$GPRMC,,V,,,,,,,,,,N*AA
$GSENS, 0.125, 0.044,-0.971
$GSENS, 0.125, 0.052,-0.961
$GSENS, 0.123, 0.044,-0.971
$GSENS, 0.121, 0.044,-0.973
$GSENS, 0.123, 0.048,-0.961
$GPRMC,,V,,,,,,,,,,N*AA
$GSENS, 0.125, 0.042,-0.971
$GSENS, 0.123, 0.050,-0.969
$GSENS, 0.125, 0.046,-0.965
$GSENS, 0.121, 0.048,-0.975
$GSENS, 0.119, 0.054,-0.965
$GPRMC,,V,,,,,,,,,,N*AA
$GSENS, 0.130, 0.054,-0.961
$GSENS, 0.123, 0.042,-0.967
$GSENS, 0.121, 0.054,-0.967
$GSENS, 0.130, 0.044,-0.969
$GSENS, 0.127, 0.046,-0.978
$GPRMC,,V,,,,,,,,,,N*AA
$GSENS, 0.123, 0.050,-0.967
$GSENS, 0.130, 0.050,-0.959
$GSENS, 0.117, 0.050,-0.967
$GSENS, 0.117, 0.052,-0.963
$GSENS, 0.128, 0.054,-0.961
$GPRMC,,V,,,,,,,,,,N*AA
$GSENS, 0.123, 0.052,-0.965
$GSENS, 0.128, 0.044,-0.973
$GSENS, 0.119, 0.046,-0.961
$GSENS, 0.123, 0.039,-0.975
$GSENS, 0.123, 0.044,-0.971
$GPRMC,,V,,,,,,,,,,N*AA
$GSENS, 0.125, 0.048,-0.963
$GSENS, 0.123, 0.048,-0.967
$GSENS, 0.117, 0.056,-0.961
$GSENS, 0.125, 0.041,-0.967
$GSENS, 0.127, 0.054,-0.967
$GPRMC,,V,,,,,,,,,,N*AA
$GSENS, 0.125, 0.048,-0.965
$GSENS, 0.117, 0.042,-0.965
$GSENS, 0.123, 0.046,-0.963
$GSENS, 0.117, 0.042,-0.961
$GSENS, 0.127, 0.039,-0.969
$GPRMC,,V,,,,,,,,,,N*AA
$GSENS, 0.125, 0.037,-0.963
$GSENS, 0.121, 0.042,-0.963
$GSENS, 0.121, 0.044,-0.969
$GSENS, 0.130, 0.035,-0.969
$GSENS, 0.127, 0.048,-0.959
$GPRMC,,V,,,,,,,,,,N*AA
$GSENS, 0.121, 0.052,-0.965
$GSENS, 0.115, 0.058,-0.959
$GSENS, 0.123, 0.044,-0.965
$GSENS, 0.121, 0.052,-0.955
$GSENS, 0.123, 0.048,-0.969
$GPRMC,,V,,,,,,,,,,N*AA
$GSENS, 0.123, 0.041,-0.961
$GSENS, 0.127, 0.044,-0.965
$GSENS, 0.121, 0.052,-0.969
$GSENS, 0.123, 0.054,-0.961
$GSENS, 0.123, 0.042,-0.967
$GPRMC,,V,,,,,,,,,,N*AA
$GSENS, 0.127, 0.046,-0.961
$GSENS, 0.123, 0.048,-0.961
$GSENS, 0.123, 0.044,-0.967
$GSENS, 0.123, 0.052,-0.967
$GSENS, 0.125, 0.048,-0.961
$GPRMC,,V,,,,,,,,,,N*AA
$GSENS, 0.123, 0.048,-0.955
$GSENS, 0.123, 0.050,-0.963
$GSENS, 0.127, 0.052,-0.965
$GSENS, 0.127, 0.041,-0.963
$GSENS, 0.123, 0.050,-0.957
$GPRMC,,V,,,,,,,,,,N*AA
$GSENS, 0.117, 0.050,-0.955
$GSENS, 0.121, 0.052,-0.957
$GSENS, 0.117, 0.042,-0.961
$GSENS, 0.119, 0.050,-0.963
$GSENS, 0.125, 0.052,-0.961
$GPRMC,,V,,,,,,,,,,N*AA
$GSENS, 0.121, 0.042,-0.963
$GSENS, 0.121, 0.048,-0.965
$GSENS, 0.121, 0.041,-0.961
$GSENS, 0.123, 0.046,-0.961
$GSENS, 0.127, 0.046,-0.965
$GPRMC,,V,,,,,,,,,,N*AA
$GSENS, 0.119, 0.044,-0.965
$GSENS, 0.121, 0.050,-0.959
$GSENS, 0.123, 0.048,-0.959
$GSENS, 0.125, 0.044,-0.965
$GSENS, 0.119, 0.044,-0.965
$GPRMC,,V,,,,,,,,,,N*AA
$GSENS, 0.125, 0.044,-0.959
$GSENS, 0.125, 0.046,-0.963
$GSENS, 0.125, 0.050,-0.955
$GSENS, 0.125, 0.046,-0.963
$GSENS, 0.125, 0.046,-0.967
$GPRMC,,V,,,,,,,,,,N*AA
$GSENS, 0.125, 0.048,-0.965
$GSENS, 0.125, 0.046,-0.959
$GSENS, 0.117, 0.052,-0.957
$GSENS, 0.123, 0.048,-0.965
$GSENS, 0.128, 0.041,-0.969
$GPRMC,,V,,,,,,,,,,N*AA
$GSENS, 0.125, 0.048,-0.963
$GSENS, 0.121, 0.048,-0.961
$GSENS, 0.119, 0.048,-0.971
$GSENS, 0.121, 0.044,-0.963
$GSENS, 0.121, 0.046,-0.963
$GPRMC,,V,,,,,,,,,,N*AA
$GSENS, 0.125, 0.041,-0.967
$GSENS, 0.128, 0.044,-0.967
$GSENS, 0.125, 0.048,-0.963
$GSENS, 0.119, 0.050,-0.967
$GSENS, 0.121, 0.044,-0.967
$GPRMC,063745.00,A,3540.30340,N,13921.77473,E,0.000,,221116,,,A*7A
$GPGGA,063745.00,3540.30340,N,13921.77473,E,1,08,1.38,188.7,M,38.9,M,,*57
$GPGSA,A,3,20,15,13,05,193,24,21,18,,,,,2.28,1.38,1.82*3D
$GPGSV,4,1,13,02,04,166,,04,40,048,33,05,46,111,30,13,59,028,29*7F
$GPGSV,4,2,13,15,64,312,26,18,14,307,27,20,73,329,25,21,33,300,24*7D
$GPGSV,4,3,13,24,38,204,21,28,14,069,,29,01,238,,30,10,040,*71
$GPGSV,4,4,13,193,83,174,23*78
$GSENS, 0.123, 0.041,-0.967
$GSENS, 0.125, 0.050,-0.971
$GSENS, 0.119, 0.054,-0.959
$GSENS, 0.121, 0.046,-0.963
$GSENS, 0.115, 0.054,-0.965
$GPRMC,063746.00,A,3540.30340,N,13921.77473,E,0.000,,221116,,,A*79
$GPGGA,063746.00,3540.30340,N,13921.77473,E,1,08,1.38,188.7,M,38.9,M,,*54
$GPGSV,4,1,13,02,04,166,,04,40,048,33,05,46,111,31,13,59,028,29*7E
$GPGSV,4,2,13,15,64,312,26,18,14,307,27,20,73,329,25,21,33,300,24*7D
$GPGSV,4,3,13,24,38,204,20,28,14,069,,29,01,238,,30,10,040,*70
$GPGSV,4,4,13,193,83,174,23*78
$GSENS, 0.125, 0.044,-0.967
$GSENS, 0.121, 0.041,-0.965
$GSENS, 0.123, 0.044,-0.963
$GSENS, 0.127, 0.046,-0.969
$GSENS, 0.127, 0.041,-0.959
$GPRMC,063746.00,A,3540.30340,N,13921.77473,E,0.000,,221116,,,A*79
$GPGGA,063746.00,3540.30340,N,13921.77473,E,1,08,1.38,188.7,M,38.9,M,,*54
$GPGSV,4,1,13,02,04,166,,04,40,048,33,05,46,111,31,13,59,028,29*7E
$GPGSV,4,2,13,15,64,312,26,18,14,307,27,20,73,329,25,21,33,300,24*7D
$GPGSV,4,3,13,24,38,204,20,28,14,069,,29,01,238,,30,10,040,*70
$GPGSV,4,4,13,193,83,174,23*78
$GSENS, 0.127, 0.044,-0.971
$GSENS, 0.119, 0.050,-0.965
$GSENS, 0.125, 0.048,-0.967
$GSENS, 0.121, 0.046,-0.963
$GSENS, 0.119, 0.052,-0.969
$GPRMC,063747.00,A,3540.30340,N,13921.77473,E,0.000,,221116,,,A*78
$GPGGA,063747.00,3540.30340,N,13921.77473,E,1,08,1.38,188.7,M,38.9,M,,*55
$GPGSV,4,1,13,02,04,166,,04,40,048,33,05,46,111,31,13,59,028,29*7E
$GPGSV,4,2,13,15,64,312,26,18,14,307,27,20,73,329,25,21,33,300,24*7D
$GPGSV,4,3,13,24,38,204,20,28,14,069,,29,01,238,,30,10,040,*70
$GPGSV,4,4,13,193,83,174,23*78
$GSENS, 0.123, 0.052,-0.971
$GSENS, 0.125, 0.044,-0.959
$GSENS, 0.125, 0.048,-0.973
$GSENS, 0.125, 0.054,-0.969
$GSENS, 0.127, 0.039,-0.967
$GPRMC,063747.00,A,3540.30340,N,13921.77473,E,0.000,,221116,,,A*78
$GPGGA,063747.00,3540.30340,N,13921.77473,E,1,08,1.38,188.7,M,38.9,M,,*55
$GPGSV,4,1,13,02,04,166,,04,40,048,33,05,46,111,31,13,59,028,29*7E
$GPGSV,4,2,13,15,64,312,26,18,14,307,27,20,73,329,25,21,33,300,24*7D
$GPGSV,4,3,13,24,38,204,20,28,14,069,,29,01,238,,30,10,040,*70
$GPGSV,4,4,13,193,83,174,23*78
$GSENS, 0.127, 0.041,-0.973
$GSENS, 0.125, 0.048,-0.965
$GSENS, 0.117, 0.054,-0.955
$GSENS, 0.123, 0.042,-0.967
$GSENS, 0.130, 0.037,-0.977
$GPRMC,063748.00,A,3540.30340,N,13921.77473,E,0.000,,221116,,,A*77
$GPGGA,063748.00,3540.30340,N,13921.77473,E,1,08,1.38,188.7,M,38.9,M,,*5A
$GPGSV,4,1,13,02,04,166,,04,40,048,30,05,46,111,30,13,59,028,29*7C
$GPGSV,4,2,13,15,64,312,26,18,14,307,27,20,73,329,25,21,33,300,24*7D
$GPGSV,4,3,13,24,38,204,20,28,14,069,,29,01,238,,30,10,040,*70
$GPGSV,4,4,13,193,83,174,23*78
$GSENS, 0.121, 0.046,-0.967
$GSENS, 0.119, 0.041,-0.963
$GSENS, 0.123, 0.041,-0.973
$GSENS, 0.123, 0.052,-0.969
$GSENS, 0.128, 0.048,-0.961
$GPRMC,063748.00,A,3540.30340,N,13921.77473,E,0.000,,221116,,,A*77
$GPGGA,063748.00,3540.30340,N,13921.77473,E,1,08,1.38,188.7,M,38.9,M,,*5A
$GPGSV,4,1,13,02,04,166,,04,40,048,30,05,46,111,30,13,59,028,29*7C
$GPGSV,4,2,13,15,64,312,26,18,14,307,27,20,73,329,25,21,33,300,24*7D
$GPGSV,4,3,13,24,38,204,20,28,14,069,,29,01,238,,30,10,040,*70
$GPGSV,4,4,13,193,83,174,23*78
$GSENS, 0.113, 0.054,-0.961
$GSENS, 0.119, 0.058,-0.965
$GSENS, 0.127, 0.046,-0.967
$GSENS, 0.127, 0.048,-0.971
$GSENS, 0.115, 0.056,-0.963
$GPRMC,063749.00,A,3540.30340,N,13921.77473,E,0.000,,221116,,,A*76
$GPGGA,063749.00,3540.30340,N,13921.77473,E,1,08,1.38,188.7,M,38.9,M,,*5B
$GPGSA,A,3,20,15,13,05,193,24,21,18,,,,,2.28,1.38,1.82*3D
$GPGSV,4,1,13,02,04,166,,04,40,048,34,05,46,111,30,13,59,028,29*78
$GPGSV,4,2,13,15,64,312,26,18,14,307,27,20,73,329,26,21,33,300,23*79
$GPGSV,4,3,13,24,38,204,21,28,14,069,,29,01,238,,30,10,040,*71
$GPGSV,4,4,13,193,83,174,24*7F
$GSENS, 0.128, 0.048,-0.971
$GSENS, 0.125, 0.041,-0.969
$GSENS, 0.119, 0.052,-0.961
$GSENS, 0.121, 0.048,-0.971
$GSENS, 0.130, 0.048,-0.961
$GPRMC,063749.00,A,3540.30340,N,13921.77473,E,0.000,,221116,,,A*76
$GPGGA,063749.00,3540.30340,N,13921.77473,E,1,08,1.38,188.7,M,38.9,M,,*5B
$GPGSA,A,3,20,15,13,05,193,24,21,18,,,,,2.28,1.38,1.82*3D
$GPGSV,4,1,13,02,04,166,,04,40,048,34,05,46,111,30,13,59,028,29*78
$GPGSV,4,2,13,15,64,312,26,18,14,307,27,20,73,329,26,21,33,300,23*79
$GPGSV,4,3,13,24,38,204,21,28,14,069,,29,01,238,,30,10,040,*71
$GPGSV,4,4,13,193,83,174,24*7F
$GSENS, 0.127, 0.046,-0.971
$GSENS, 0.127, 0.044,-0.973
$GSENS, 0.130, 0.048,-0.967
$GSENS, 0.117, 0.056,-0.963
$GSENS, 0.128, 0.039,-0.975
$GPRMC,063750.00,A,3540.30340,N,13921.77473,E,0.000,,221116,,,A*7E
$GPGGA,063750.00,3540.30340,N,13921.77473,E,1,08,1.38,188.7,M,38.9,M,,*53
$GPGSV,4,1,13,02,04,166,,04,40,048,34,05,46,111,30,13,59,028,29*78
$GPGSV,4,2,13,15,64,312,26,18,14,307,27,20,73,329,25,21,33,300,23*7A
$GPGSV,4,3,13,24,38,204,21,28,14,069,,29,01,238,,30,10,040,*71
$GPGSV,4,4,13,193,83,174,25*7E
$GSENS, 0.121, 0.044,-0.965
$GSENS, 0.119, 0.050,-0.971
$GSENS, 0.123, 0.046,-0.971
$GSENS, 0.128, 0.046,-0.959
$GSENS, 0.119, 0.054,-0.961
$GPRMC,063750.00,A,3540.30340,N,13921.77473,E,0.000,,221116,,,A*7E
$GPGGA,063750.00,3540.30340,N,13921.77473,E,1,08,1.38,188.7,M,38.9,M,,*53
$GPGSV,4,1,13,02,04,166,,04,40,048,34,05,46,111,30,13,59,028,29*78
$GPGSV,4,2,13,15,64,312,26,18,14,307,27,20,73,329,25,21,33,300,23*7A
$GPGSV,4,3,13,24,38,204,21,28,14,069,,29,01,238,,30,10,040,*71
$GPGSV,4,4,13,193,83,174,25*7E
$GSENS, 0.125, 0.046,-0.971
$GSENS, 0.123, 0.050,-0.965
$GSENS, 0.125, 0.050,-0.965
$GSENS, 0.121, 0.046,-0.969
$GSENS, 0.119, 0.048,-0.963
$GPRMC,063751.00,A,3540.30340,N,13921.77473,E,0.000,,221116,,,A*7F
$GPGGA,063751.00,3540.30340,N,13921.77473,E,1,08,1.38,188.7,M,38.9,M,,*52
$GPGSV,4,1,13,02,04,166,,04,40,048,34,05,46,111,30,13,59,028,29*78
$GPGSV,4,2,13,15,64,312,26,18,14,307,27,20,73,329,25,21,33,300,23*7A
$GPGSV,4,3,13,24,38,204,21,28,14,069,,29,01,238,,30,10,040,*71
$GPGSV,4,4,13,193,83,174,25*7E
$GSENS, 0.123, 0.050,-0.967
$GSENS, 0.125, 0.056,-0.965
$GSENS, 0.128, 0.048,-0.963
$GSENS, 0.121, 0.058,-0.963
$GSENS, 0.128, 0.048,-0.969
$GPRMC,063751.00,A,3540.30340,N,13921.77473,E,0.000,,221116,,,A*7F
$GPGGA,063751.00,3540.30340,N,13921.77473,E,1,08,1.38,188.7,M,38.9,M,,*52
$GPGSV,4,1,13,02,04,166,,04,40,048,34,05,46,111,30,13,59,028,29*78
$GPGSV,4,2,13,15,64,312,26,18,14,307,27,20,73,329,25,21,33,300,23*7A
$GPGSV,4,3,13,24,38,204,21,28,14,069,,29,01,238,,30,10,040,*71
$GPGSV,4,4,13,193,83,174,25*7E
$GSENS, 0.119, 0.048,-0.959
$GSENS, 0.121, 0.050,-0.971
$GSENS, 0.125, 0.044,-0.973
$GSENS, 0.121, 0.056,-0.961
$GSENS, 0.125, 0.050,-0.973
$GPRMC,063752.00,A,3540.30340,N,13921.77473,E,0.000,,221116,,,A*7C
$GPGGA,063752.00,3540.30340,N,13921.77473,E,1,08,1.38,188.7,M,38.9,M,,*51
$GPGSV,4,1,13,02,04,166,,04,40,048,34,05,46,111,30,13,59,028,29*78
$GPGSV,4,2,13,15,64,312,26,18,14,307,26,20,73,329,25,21,33,300,23*7B
$GPGSV,4,3,13,24,38,204,21,28,14,069,,29,01,238,,30,10,040,*71
$GPGSV,4,4,13,193,83,174,24*7F
$GSENS, 0.125, 0.054,-0.965
$GSENS, 0.123, 0.052,-0.965
$GSENS, 0.123, 0.044,-0.971
$GSENS, 0.119, 0.052,-0.961
$GSENS, 0.121, 0.052,-0.971
$GPRMC,063752.00,A,3540.30340,N,13921.77473,E,0.000,,221116,,,A*7C
$GPGGA,063752.00,3540.30340,N,13921.77473,E,1,08,1.38,188.7,M,38.9,M,,*51
$GPGSV,4,1,13,02,04,166,,04,40,048,34,05,46,111,30,13,59,028,29*78
$GPGSV,4,2,13,15,64,312,26,18,14,307,26,20,73,329,25,21,33,300,23*7B
$GPGSV,4,3,13,24,38,204,21,28,14,069,,29,01,238,,30,10,040,*71
$GPGSV,4,4,13,193,83,174,24*7F
$GSENS, 0.123, 0.048,-0.959
$GSENS, 0.121, 0.060,-0.963
$GSENS, 0.125, 0.058,-0.963
$GSENS, 0.130, 0.041,-0.967
$GSENS, 0.119, 0.052,-0.961
$GPRMC,063753.00,A,3540.30340,N,13921.77473,E,0.000,,221116,,,A*7D
$GPGGA,063753.00,3540.30340,N,13921.77473,E,1,08,1.38,188.7,M,38.9,M,,*50
$GPGSA,A,3,20,15,13,05,193,24,21,18,,,,,2.28,1.38,1.82*3D
$GPGSV,4,1,13,02,04,166,,04,40,048,30,05,46,111,29,13,59,028,29*74
$GPGSV,4,2,13,15,64,312,26,18,14,307,26,20,73,329,24,21,33,300,22*7B
$GPGSV,4,3,13,24,38,204,21,28,14,069,,29,01,238,,30,10,040,*71
$GPGSV,4,4,13,193,83,174,23*78
$GSENS, 0.121, 0.054,-0.959
$GSENS, 0.127, 0.046,-0.965
$GSENS, 0.123, 0.054,-0.967
$GSENS, 0.125, 0.042,-0.978
$GSENS, 0.128, 0.046,-0.971
$GPRMC,063753.00,A,3540.30340,N,13921.77473,E,0.000,,221116,,,A*7D
$GPGGA,063753.00,3540.30340,N,13921.77473,E,1,08,1.38,188.7,M,38.9,M,,*50
$GPGSA,A,3,20,15,13,05,193,24,21,18,,,,,2.28,1.38,1.82*3D
$GPGSV,4,1,13,02,04,166,,04,40,048,30,05,46,111,29,13,59,028,29*74
$GPGSV,4,2,13,15,64,312,26,18,14,307,26,20,73,329,24,21,33,300,22*7B
$GPGSV,4,3,13,24,38,204,21,28,14,069,,29,01,238,,30,10,040,*71
$GPGSV,4,4,13,193,83,174,23*78
$GSENS, 0.117, 0.052,-0.963
$GSENS, 0.128, 0.050,-0.969
$GSENS, 0.121, 0.044,-0.971
$GSENS, 0.119, 0.046,-0.971
$GSENS, 0.119, 0.060,-0.959
$GPRMC,063754.00,A,3540.30340,N,13921.77473,E,0.000,,221116,,,A*7A
$GPGGA,063754.00,3540.30340,N,13921.77473,E,1,08,1.38,188.7,M,38.9,M,,*57
$GPGSV,4,1,13,02,04,166,,04,40,048,34,05,46,111,30,13,59,028,29*78
$GPGSV,4,2,13,15,64,312,26,18,14,307,26,20,73,329,24,21,33,300,23*7A
$GPGSV,4,3,13,24,38,204,21,28,14,069,,29,01,238,,30,10,040,*71
$GPGSV,4,4,13,193,83,174,22*79
$GSENS, 0.123, 0.044,-0.961
$GSENS, 0.130, 0.041,-0.980
$GSENS, 0.119, 0.056,-0.961
$GSENS, 0.127, 0.048,-0.961
$GSENS, 0.121, 0.058,-0.965
$GPRMC,063754.00,A,3540.30340,N,13921.77473,E,0.000,,221116,,,A*7A
$GPGGA,063754.00,3540.30340,N,13921.77473,E,1,08,1.38,188.7,M,38.9,M,,*57
$GPGSV,4,1,13,02,04,166,,04,40,048,34,05,46,111,30,13,59,028,29*78
$GPGSV,4,2,13,15,64,312,26,18,14,307,26,20,73,329,24,21,33,300,23*7A
$GPGSV,4,3,13,24,38,204,21,28,14,069,,29,01,238,,30,10,040,*71
$GPGSV,4,4,13,193,83,174,22*79
$GSENS, 0.125, 0.042,-0.967
$GSENS, 0.127, 0.048,-0.963
$GSENS, 0.127, 0.052,-0.967
$GSENS, 0.123, 0.052,-0.961
$GSENS, 0.125, 0.044,-0.959
$GPRMC,063755.00,A,3540.30340,N,13921.77473,E,0.000,,221116,,,A*7B
$GPGGA,063755.00,3540.30340,N,13921.77473,E,1,08,1.38,188.7,M,38.9,M,,*56
$GPGSV,4,1,13,02,04,166,,04,40,048,34,05,46,111,30,13,59,028,29*78
$GPGSV,4,2,13,15,64,312,26,18,14,307,26,20,73,329,24,21,33,300,23*7A
$GPGSV,4,3,13,24,38,204,22,28,14,069,,29,01,238,,30,10,040,*72
$GPGSV,4,4,13,193,83,174,22*79
$GSENS, 0.125, 0.046,-0.971
$GSENS, 0.119, 0.056,-0.969
$GSENS, 0.125, 0.046,-0.961
$GSENS, 0.127, 0.044,-0.969
$GSENS, 0.127, 0.046,-0.965
$GPRMC,063755.00,A,3540.30340,N,13921.77473,E,0.000,,221116,,,A*7B
$GPGGA,063755.00,3540.30340,N,13921.77473,E,1,08,1.38,188.7,M,38.9,M,,*56
$GPGSV,4,1,13,02,04,166,,04,40,048,34,05,46,111,30,13,59,028,29*78
$GPGSV,4,2,13,15,64,312,26,18,14,307,26,20,73,329,24,21,33,300,23*7A
$GPGSV,4,3,13,24,38,204,22,28,14,069,,29,01,238,,30,10,040,*72
$GPGSV,4,4,13,193,83,174,22*79
$GSENS, 0.123, 0.052,-0.959
$GSENS, 0.123, 0.048,-0.967
$GSENS, 0.130, 0.046,-0.973
$GSENS, 0.119, 0.052,-0.969
$GSENS, 0.121, 0.046,-0.973
$GPRMC,063756.00,A,3540.30340,N,13921.77473,E,0.000,,221116,,,A*78
$GPGGA,063756.00,3540.30340,N,13921.77473,E,1,08,1.38,188.7,M,38.9,M,,*55
$GPGSV,4,1,13,02,04,166,,04,40,048,34,05,46,111,30,13,59,028,29*78
$GPGSV,4,2,13,15,64,312,26,18,14,307,26,20,73,329,24,21,33,300,23*7A
$GPGSV,4,3,13,24,38,204,21,28,14,069,,29,01,238,,30,10,040,*71
$GPGSV,4,4,13,193,83,174,23*78
$GSENS, 0.113, 0.052,-0.955
$GSENS, 0.125, 0.056,-0.957
$GSENS, 0.127, 0.046,-0.967
$GSENS, 0.127, 0.052,-0.961
$GSENS, 0.121, 0.050,-0.969
$GPRMC,063756.00,A,3540.30340,N,13921.77473,E,0.000,,221116,,,A*78
$GPGGA,063756.00,3540.30340,N,13921.77473,E,1,08,1.38,188.7,M,38.9,M,,*55
$GPGSV,4,1,13,02,04,166,,04,40,048,34,05,46,111,30,13,59,028,29*78
$GPGSV,4,2,13,15,64,312,26,18,14,307,26,20,73,329,24,21,33,300,23*7A
$GPGSV,4,3,13,24,38,204,21,28,14,069,,29,01,238,,30,10,040,*71
$GPGSV,4,4,13,193,83,174,23*78
$GSENS, 0.121, 0.044,-0.963
$GSENS, 0.123, 0.046,-0.957
$GSENS, 0.121, 0.048,-0.961
$GSENS, 0.128, 0.046,-0.961
$GSENS, 0.127, 0.042,-0.967
$GPRMC,063757.00,A,3540.30340,N,13921.77473,E,0.000,,221116,,,A*79
$GPGGA,063757.00,3540.30340,N,13921.77473,E,1,08,1.38,188.7,M,38.9,M,,*54
$GPGSA,A,3,20,15,13,05,193,24,21,18,,,,,2.28,1.38,1.82*3D
$GPGSV,4,1,13,02,04,166,,04,40,048,34,05,46,111,30,13,59,028,28*79
$GPGSV,4,2,13,15,64,312,26,18,14,307,27,20,73,329,24,21,33,300,23*7B
$GPGSV,4,3,13,24,38,204,21,28,14,069,,29,01,238,,30,10,040,*71
$GPGSV,4,4,13,193,83,174,23*78
$GSENS, 0.125, 0.042,-0.965
$GSENS, 0.121, 0.052,-0.963
$GSENS, 0.127, 0.042,-0.959
$GSENS, 0.127, 0.050,-0.969
$GSENS, 0.117, 0.050,-0.969
$GPRMC,063757.00,A,3540.30340,N,13921.77473,E,0.000,,221116,,,A*79
$GPGGA,063757.00,3540.30340,N,13921.77473,E,1,08,1.38,188.7,M,38.9,M,,*54
$GPGSA,A,3,20,15,13,05,193,24,21,18,,,,,2.28,1.38,1.82*3D
$GPGSV,4,1,13,02,04,166,,04,40,048,34,05,46,111,30,13,59,028,28*79
$GPGSV,4,2,13,15,64,312,26,18,14,307,27,20,73,329,24,21,33,300,23*7B
$GPGSV,4,3,13,24,38,204,21,28,14,069,,29,01,238,,30,10,040,*71
$GPGSV,4,4,13,193,83,174,23*78
$GSENS, 0.123, 0.044,-0.965
$GSENS, 0.121, 0.054,-0.959
$GSENS, 0.119, 0.052,-0.961
$GSENS, 0.125, 0.052,-0.963
$GSENS, 0.128, 0.042,-0.969
$GPRMC,063758.00,A,3540.30340,N,13921.77473,E,0.000,,221116,,,A*76
$GPGGA,063758.00,3540.30340,N,13921.77473,E,1,08,1.38,188.7,M,38.9,M,,*5B
$GPGSV,4,1,13,02,04,166,,04,40,048,31,05,46,111,29,13,59,028,28*74
$GPGSV,4,2,13,15,64,312,26,18,14,307,26,20,73,329,24,21,33,300,23*7A
$GPGSV,4,3,13,24,38,204,21,28,14,069,,29,01,238,,30,10,040,*71
$GPGSV,4,4,13,193,83,174,23*78
$GSENS, 0.128, 0.044,-0.965
$GSENS, 0.125, 0.050,-0.971
$GSENS, 0.121, 0.044,-0.963
$GSENS, 0.127, 0.050,-0.965
$GSENS, 0.117, 0.054,-0.963
$GPRMC,063758.00,A,3540.30340,N,13921.77473,E,0.000,,221116,,,A*76
$GPGGA,063758.00,3540.30340,N,13921.77473,E,1,08,1.38,188.7,M,38.9,M,,*5B
$GPGSV,4,1,13,02,04,166,,04,40,048,31,05,46,111,29,13,59,028,28*74
$GPGSV,4,2,13,15,64,312,26,18,14,307,26,20,73,329,24,21,33,300,23*7A
$GPGSV,4,3,13,24,38,204,21,28,14,069,,29,01,238,,30,10,040,*71
$GPGSV,4,4,13,193,83,174,23*78
$GSENS, 0.121, 0.048,-0.967
$GSENS, 0.128, 0.044,-0.963
$GSENS, 0.128, 0.041,-0.969
$GSENS, 0.125, 0.046,-0.955
$GSENS, 0.130, 0.039,-0.965
$GPRMC,063759.00,A,3540.30340,N,13921.77473,E,0.000,,221116,,,A*77
$GPGGA,063759.00,3540.30340,N,13921.77473,E,1,08,1.38,188.7,M,38.9,M,,*5A
$GPGSV,4,1,13,02,04,166,,04,40,048,34,05,46,111,30,13,59,028,28*79
$GPGSV,4,2,13,15,64,312,27,18,14,307,26,20,73,329,24,21,33,300,23*7B
$GPGSV,4,3,13,24,38,204,21,28,14,069,,29,01,238,,30,10,040,16*76
$GPGSV,4,4,13,193,83,174,23*78
$GSENS, 0.117, 0.046,-0.967
$GSENS, 0.121, 0.048,-0.961
$GSENS, 0.123, 0.041,-0.967
$GSENS, 0.119, 0.050,-0.973
$GSENS, 0.121, 0.050,-0.961
$GPRMC,063759.00,A,3540.30340,N,13921.77473,E,0.000,,221116,,,A*77
$GPGGA,063759.00,3540.30340,N,13921.77473,E,1,08,1.38,188.7,M,38.9,M,,*5A
$GPGSV,4,1,13,02,04,166,,04,40,048,34,05,46,111,30,13,59,028,28*79
$GPGSV,4,2,13,15,64,312,27,18,14,307,26,20,73,329,24,21,33,300,23*7B
$GPGSV,4,3,13,24,38,204,21,28,14,069,,29,01,238,,30,10,040,16*76
$GPGSV,4,4,13,193,83,174,23*78
$GSENS, 0.123, 0.046,-0.963
$GSENS, 0.123, 0.050,-0.967
$GSENS, 0.125, 0.041,-0.963
$GSENS, 0.123, 0.048,-0.961
$GSENS, 0.119, 0.050,-0.959
$GPRMC,063800.00,A,3540.30340,N,13921.77473,E,0.000,,221116,,,A*74
$GPGGA,063800.00,3540.30340,N,13921.77473,E,1,08,1.38,188.7,M,38.9,M,,*59
$GPGSV,4,1,13,02,04,166,,04,40,049,34,05,46,111,30,13,59,028,28*78
$GPGSV,4,2,13,15,64,312,27,18,14,307,27,20,73,329,23,21,33,300,22*7C
$GPGSV,4,3,13,24,38,204,20,28,14,069,,29,01,238,,30,10,040,16*77
$GPGSV,4,4,13,193,83,174,23*78
$GSENS, 0.119, 0.050,-0.965
$GSENS, 0.117, 0.052,-0.967
$GSENS, 0.115, 0.046,-0.969
$GSENS, 0.121, 0.050,-0.965
$GSENS, 0.125, 0.050,-0.963
$GPRMC,063800.00,A,3540.30340,N,13921.77473,E,0.000,,221116,,,A*74
$GPGGA,063800.00,3540.30340,N,13921.77473,E,1,08,1.38,188.7,M,38.9,M,,*59
$GPGSV,4,1,13,02,04,166,,04,40,049,34,05,46,111,30,13,59,028,28*78
$GPGSV,4,2,13,15,64,312,27,18,14,307,27,20,73,329,23,21,33,300,22*7C
$GPGSV,4,3,13,24,38,204,20,28,14,069,,29,01,238,,30,10,040,16*77
$GPGSV,4,4,13,193,83,174,23*78
$GSENS, 0.123, 0.044,-0.963
$GSENS, 0.121, 0.046,-0.967
$GSENS, 0.121, 0.052,-0.967
$GSENS, 0.119, 0.048,-0.963
$GSENS, 0.117, 0.056,-0.961
$GPRMC,063801.00,A,3540.30340,N,13921.77473,E,0.000,,221116,,,A*75
$GPGGA,063801.00,3540.30340,N,13921.77473,E,1,08,1.38,188.7,M,38.9,M,,*58
$GPGSA,A,3,20,15,13,05,193,24,21,18,,,,,2.28,1.38,1.82*3D
$GPGSV,4,1,13,02,04,166,,04,40,049,34,05,46,111,30,13,59,028,28*78
$GPGSV,4,2,13,15,64,312,27,18,14,307,27,20,73,329,23,21,33,300,22*7C
$GPGSV,4,3,13,24,38,204,19,28,14,069,,29,01,238,,30,10,040,15*7E
$GPGSV,4,4,13,193,83,174,23*78
$GSENS, 0.117, 0.050,-0.965
$GSENS, 0.125, 0.046,-0.965
$GSENS, 0.117, 0.052,-0.963
$GSENS, 0.128, 0.050,-0.961
$GSENS, 0.125, 0.046,-0.963
$GPRMC,063801.00,A,3540.30340,N,13921.77473,E,0.000,,221116,,,A*75
$GPGGA,063801.00,3540.30340,N,13921.77473,E,1,08,1.38,188.7,M,38.9,M,,*58
$GPGSA,A,3,20,15,13,05,193,24,21,18,,,,,2.28,1.38,1.82*3D
$GPGSV,4,1,13,02,04,166,,04,40,049,34,05,46,111,30,13,59,028,28*78
$GPGSV,4,2,13,15,64,312,27,18,14,307,27,20,73,329,23,21,33,300,22*7C
$GPGSV,4,3,13,24,38,204,19,28,14,069,,29,01,238,,30,10,040,15*7E
$GPGSV,4,4,13,193,83,174,23*78
$GSENS, 0.130, 0.044,-0.967
$GSENS, 0.119, 0.054,-0.959
$GSENS, 0.121, 0.046,-0.967
$GSENS, 0.121, 0.041,-0.965
$GSENS, 0.117, 0.056,-0.963
$GPRMC,063802.00,A,3540.30340,N,13921.77473,E,0.000,,221116,,,A*76
$GPGGA,063802.00,3540.30340,N,13921.77473,E,1,08,1.38,188.7,M,38.9,M,,*5B
$GPGSV,4,1,13,02,04,166,,04,40,049,34,05,46,111,30,13,59,028,28*78
$GPGSV,4,2,13,15,64,312,27,18,14,307,26,20,73,329,22,21,33,300,22*7C
$GPGSV,4,3,13,24,38,204,20,28,14,069,,29,01,238,,30,10,040,15*74
$GPGSV,4,4,13,193,83,174,23*78
$GSENS, 0.121, 0.048,-0.965
$GSENS, 0.128, 0.044,-0.965
$GSENS, 0.125, 0.050,-0.963
$GSENS, 0.123, 0.046,-0.965
$GSENS, 0.121, 0.054,-0.961
$GPRMC,063802.00,A,3540.30340,N,13921.77473,E,0.000,,221116,,,A*76
$GPGGA,063802.00,3540.30340,N,13921.77473,E,1,08,1.38,188.7,M,38.9,M,,*5B
$GPGSV,4,1,13,02,04,166,,04,40,049,34,05,46,111,30,13,59,028,28*78
$GPGSV,4,2,13,15,64,312,27,18,14,307,26,20,73,329,22,21,33,300,22*7C
$GPGSV,4,3,13,24,38,204,20,28,14,069,,29,01,238,,30,10,040,15*74
$GPGSV,4,4,13,193,83,174,23*78
$GSENS, 0.121, 0.046,-0.967
$GSENS, 0.115, 0.052,-0.967
$GSENS, 0.121, 0.048,-0.965
$GSENS, 0.119, 0.042,-0.965
$GSENS, 0.123, 0.050,-0.965
$GPRMC,063803.00,A,3540.30340,N,13921.77473,E,0.000,,221116,,,A*77
$GPGGA,063803.00,3540.30340,N,13921.77473,E,1,08,1.38,188.7,M,38.9,M,,*5A
$GPGSV,4,1,13,02,04,166,,04,40,049,31,05,46,111,30,13,59,028,28*7D
$GPGSV,4,2,13,15,64,312,27,18,14,307,26,20,73,329,22,21,33,300,22*7C
$GPGSV,4,3,13,24,38,204,19,28,14,069,,29,01,238,,30,10,040,14*7F
$GPGSV,4,4,13,193,83,174,22*79
$GSENS, 0.119, 0.050,-0.963
$GSENS, 0.123, 0.048,-0.959
$GSENS, 0.121, 0.050,-0.961
$GSENS, 0.119, 0.054,-0.959
$GSENS, 0.127, 0.046,-0.961
$GPRMC,063803.00,A,3540.30340,N,13921.77473,E,0.000,,221116,,,A*77
$GPGGA,063803.00,3540.30340,N,13921.77473,E,1,08,1.38,188.7,M,38.9,M,,*5A
$GPGSV,4,1,13,02,04,166,,04,40,049,31,05,46,111,30,13,59,028,28*7D
$GPGSV,4,2,13,15,64,312,27,18,14,307,26,20,73,329,22,21,33,300,22*7C
$GPGSV,4,3,13,24,38,204,19,28,14,069,,29,01,238,,30,10,040,14*7F
$GPGSV,4,4,13,193,83,174,22*79
$GSENS, 0.121, 0.054,-0.965
$GSENS, 0.121, 0.056,-0.967
$GSENS, 0.123, 0.050,-0.957
$GSENS, 0.121, 0.042,-0.965
$GSENS, 0.117, 0.050,-0.963
$GPRMC,063804.00,A,3540.30340,N,13921.77473,E,0.000,,221116,,,A*70
$GPGGA,063804.00,3540.30340,N,13921.77473,E,1,09,1.08,188.7,M,38.9,M,,*5F
$GPGSV,4,1,13,02,04,166,,04,40,049,34,05,46,111,30,13,59,028,28*78
$GPGSV,4,2,13,15,64,312,27,18,14,307,26,20,73,329,23,21,33,300,22*7D
$GPGSV,4,3,13,24,38,204,19,28,14,069,,29,01,238,,30,10,040,14*7F
$GPGSV,4,4,13,193,83,174,24*7F
$GSENS, 0.128, 0.044,-0.967
$GSENS, 0.128, 0.050,-0.967
$GSENS, 0.123, 0.042,-0.971
$GSENS, 0.125, 0.048,-0.965
$GSENS, 0.128, 0.041,-0.963
$GPRMC,063804.00,A,3540.30340,N,13921.77473,E,0.000,,221116,,,A*70
$GPGGA,063804.00,3540.30340,N,13921.77473,E,1,09,1.08,188.7,M,38.9,M,,*5F
$GPGSV,4,1,13,02,04,166,,04,40,049,34,05,46,111,30,13,59,028,28*78
$GPGSV,4,2,13,15,64,312,27,18,14,307,26,20,73,329,23,21,33,300,22*7D
$GPGSV,4,3,13,24,38,204,19,28,14,069,,29,01,238,,30,10,040,14*7F
$GPGSV,4,4,13,193,83,174,24*7F
$GSENS, 0.123, 0.050,-0.969
$GSENS, 0.125, 0.041,-0.969
$GSENS, 0.119, 0.052,-0.967
$GSENS, 0.123, 0.042,-0.965
$GSENS, 0.127, 0.052,-0.969
$GPRMC,063805.00,A,3540.30340,N,13921.77473,E,0.000,,221116,,,A*71
$GPGGA,063805.00,3540.30340,N,13921.77473,E,1,09,1.08,188.7,M,38.9,M,,*5E
$GPGSA,A,3,20,15,13,05,193,24,21,18,30,,,,1.68,1.08,1.29*3B
$GPGSV,4,1,13,02,04,166,,04,40,049,34,05,46,111,31,13,59,028,28*79
$GPGSV,4,2,13,15,64,312,28,18,14,307,26,20,73,329,23,21,33,300,22*72
$GPGSV,4,3,13,24,38,204,19,28,14,069,,29,01,238,,30,10,040,15*7E
$GPGSV,4,4,13,193,83,174,24*7F
$GSENS, 0.125, 0.044,-0.973
$GSENS, 0.127, 0.042,-0.969
$GSENS, 0.127, 0.052,-0.961
$GSENS, 0.125, 0.046,-0.965
$GSENS, 0.130, 0.035,-0.963
$GPRMC,063805.00,A,3540.30340,N,13921.77473,E,0.000,,221116,,,A*71
$GPGGA,063805.00,3540.30340,N,13921.77473,E,1,09,1.08,188.7,M,38.9,M,,*5E
$GPGSA,A,3,20,15,13,05,193,24,21,18,30,,,,1.68,1.08,1.29*3B
$GPGSV,4,1,13,02,04,166,,04,40,049,34,05,46,111,31,13,59,028,28*79
$GPGSV,4,2,13,15,64,312,28,18,14,307,26,20,73,329,23,21,33,300,22*72
$GPGSV,4,3,13,24,38,204,19,28,14,069,,29,01,238,,30,10,040,15*7E
$GPGSV,4,4,13,193,83,174,24*7F
$GSENS, 0.119, 0.050,-0.963
$GSENS, 0.127, 0.046,-0.967
$GSENS, 0.128, 0.039,-0.969
$GSENS, 0.123, 0.042,-0.963
$GSENS, 0.117, 0.052,-0.959
$GPRMC,063806.00,A,3540.30340,N,13921.77473,E,0.000,,221116,,,A*72
$GPGGA,063806.00,3540.30340,N,13921.77473,E,1,09,1.08,188.7,M,38.9,M,,*5D
$GPGSV,4,1,13,02,04,166,,04,40,049,34,05,46,111,31,13,59,028,28*79
$GPGSV,4,2,13,15,64,312,28,18,14,307,26,20,73,329,24,21,33,300,22*75
$GPGSV,4,3,13,24,38,204,18,28,14,069,,29,01,238,,30,10,040,16*7C
$GPGSV,4,4,13,193,83,174,24*7F
$GSENS, 0.128, 0.050,-0.965
$GSENS, 0.128, 0.039,-0.963
$GSENS, 0.125, 0.052,-0.969
$GSENS, 0.123, 0.052,-0.969
$GSENS, 0.127, 0.042,-0.965
$GPRMC,063806.00,A,3540.30340,N,13921.77473,E,0.000,,221116,,,A*72
$GPGGA,063806.00,3540.30340,N,13921.77473,E,1,09,1.08,188.7,M,38.9,M,,*5D
$GPGSV,4,1,13,02,04,166,,04,40,049,34,05,46,111,31,13,59,028,28*79
$GPGSV,4,2,13,15,64,312,28,18,14,307,26,20,73,329,24,21,33,300,22*75
$GPGSV,4,3,13,24,38,204,18,28,14,069,,29,01,238,,30,10,040,16*7C
$GPGSV,4,4,13,193,83,174,24*7F
$GSENS, 0.123, 0.041,-0.973
$GSENS, 0.127, 0.054,-0.967
$GSENS, 0.128, 0.044,-0.969
$GSENS, 0.130, 0.050,-0.965
$GSENS, 0.123, 0.054,-0.959
$GPRMC,063807.00,A,3540.30340,N,13921.77473,E,0.000,,221116,,,A*73
$GPGGA,063807.00,3540.30340,N,13921.77473,E,1,09,1.08,188.7,M,38.9,M,,*5C
$GPGSV,4,1,13,02,04,166,,04,40,049,33,05,46,111,31,13,59,028,28*7E
$GPGSV,4,2,13,15,64,312,28,18,14,307,26,20,73,329,24,21,33,300,21*76
$GPGSV,4,3,13,24,38,204,18,28,14,069,,29,01,238,,30,10,040,15*7F
$GPGSV,4,4,13,193,83,174,24*7F
$GSENS, 0.117, 0.056,-0.959
$GSENS, 0.125, 0.044,-0.969
$GSENS, 0.119, 0.054,-0.963
$GSENS, 0.115, 0.056,-0.963
$GSENS, 0.125, 0.042,-0.978
$GPRMC,063807.00,A,3540.30340,N,13921.77473,E,0.000,,221116,,,A*73
$GPGGA,063807.00,3540.30340,N,13921.77473,E,1,09,1.08,188.7,M,38.9,M,,*5C
$GPGSV,4,1,13,02,04,166,,04,40,049,33,05,46,111,31,13,59,028,28*7E
$GPGSV,4,2,13,15,64,312,28,18,14,307,26,20,73,329,24,21,33,300,21*76
$GPGSV,4,3,13,24,38,204,18,28,14,069,,29,01,238,,30,10,040,15*7F
$GPGSV,4,4,13,193,83,174,24*7F
$GSENS, 0.117, 0.052,-0.961
$GSENS, 0.125, 0.046,-0.963
$GSENS, 0.123, 0.046,-0.959
$GSENS, 0.127, 0.048,-0.957
$GSENS, 0.125, 0.044,-0.971
$GPRMC,063808.00,A,3540.30340,N,13921.77473,E,0.000,,221116,,,A*7C
$GPGGA,063808.00,3540.30340,N,13921.77473,E,1,09,1.08,188.7,M,38.9,M,,*53
$GPGSV,4,1,13,02,04,166,,04,40,049,30,05,46,111,31,13,59,028,28*7D
$GPGSV,4,2,13,15,64,312,28,18,14,307,25,20,73,329,23,21,33,300,21*72
$GPGSV,4,3,13,24,38,204,17,28,14,069,,29,01,238,,30,10,040,15*70
$GPGSV,4,4,13,193,83,174,23*78
$GSENS, 0.127, 0.046,-0.965
$GSENS, 0.127, 0.042,-0.961
$GSENS, 0.132, 0.048,-0.965
$GSENS, 0.117, 0.044,-0.965
$GSENS, 0.125, 0.041,-0.969
$GPRMC,063808.00,A,3540.30340,N,13921.77473,E,0.000,,221116,,,A*7C
$GPGGA,063808.00,3540.30340,N,13921.77473,E,1,09,1.08,188.7,M,38.9,M,,*53
$GPGSV,4,1,13,02,04,166,,04,40,049,30,05,46,111,31,13,59,028,28*7D
$GPGSV,4,2,13,15,64,312,28,18,14,307,25,20,73,329,23,21,33,300,21*72
$GPGSV,4,3,13,24,38,204,17,28,14,069,,29,01,238,,30,10,040,15*70
$GPGSV,4,4,13,193,83,174,23*78
$GSENS, 0.117, 0.056,-0.961
$GSENS, 0.123, 0.046,-0.961
$GSENS, 0.117, 0.056,-0.957
$GSENS, 0.119, 0.048,-0.967
$GSENS, 0.115, 0.042,-0.971
$GPRMC,063809.00,A,3540.30340,N,13921.77473,E,0.000,,221116,,,A*7D
$GPGGA,063809.00,3540.30340,N,13921.77473,E,1,09,1.08,188.7,M,38.9,M,,*52
$GPGSA,A,3,20,15,13,05,193,24,21,18,30,,,,1.68,1.08,1.29*3B
$GPGSV,4,1,13,02,04,166,,04,40,049,33,05,46,111,31,13,59,028,28*7E
$GPGSV,4,2,13,15,64,312,28,18,14,307,25,20,73,329,23,21,33,300,22*71
$GPGSV,4,3,13,24,38,204,18,28,14,069,,29,01,238,,30,10,040,14*7E
$GPGSV,4,4,13,193,83,174,24*7F
$GSENS, 0.121, 0.046,-0.969
$GSENS, 0.123, 0.044,-0.973
$GSENS, 0.125, 0.048,-0.963
$GSENS, 0.121, 0.054,-0.967
$GSENS, 0.119, 0.056,-0.957
$GPRMC,063809.00,A,3540.30340,N,13921.77473,E,0.000,,221116,,,A*7D
$GPGGA,063809.00,3540.30340,N,13921.77473,E,1,09,1.08,188.7,M,38.9,M,,*52
$GPGSA,A,3,20,15,13,05,193,24,21,18,30,,,,1.68,1.08,1.29*3B
$GPGSV,4,1,13,02,04,166,,04,40,049,33,05,46,111,31,13,59,028,28*7E
$GPGSV,4,2,13,15,64,312,28,18,14,307,25,20,73,329,23,21,33,300,22*71
$GPGSV,4,3,13,24,38,204,18,28,14,069,,29,01,238,,30,10,040,14*7E
$GPGSV,4,4,13,193,83,174,24*7F
$GSENS, 0.130, 0.041,-0.963
$GSENS, 0.127, 0.054,-0.963
$GSENS, 0.125, 0.041,-0.969
$GSENS, 0.121, 0.056,-0.955
$GSENS, 0.119, 0.056,-0.963
$GPRMC,063810.00,A,3540.30340,N,13921.77473,E,0.000,,221116,,,A*75
$GPGGA,063810.00,3540.30340,N,13921.77473,E,1,09,1.08,188.7,M,38.9,M,,*5A
$GPGSV,4,1,13,02,04,166,,04,40,049,33,05,46,111,31,13,59,028,29*7F
$GPGSV,4,2,13,15,64,312,28,18,14,307,25,20,73,329,24,21,33,300,22*76
$GPGSV,4,3,13,24,38,204,20,28,14,069,,29,01,238,,30,10,040,14*75
$GPGSV,4,4,13,193,83,174,24*7F
$GSENS, 0.121, 0.056,-0.957
$GSENS, 0.125, 0.044,-0.963
$GSENS, 0.123, 0.042,-0.971
$GSENS, 0.127, 0.050,-0.967
$GSENS, 0.125, 0.050,-0.963
$GPRMC,063810.00,A,3540.30340,N,13921.77473,E,0.000,,221116,,,A*75
$GPGGA,063810.00,3540.30340,N,13921.77473,E,1,09,1.08,188.7,M,38.9,M,,*5A
$GPGSV,4,1,13,02,04,166,,04,40,049,33,05,46,111,31,13,59,028,29*7F
$GPGSV,4,2,13,15,64,312,28,18,14,307,25,20,73,329,24,21,33,300,22*76
$GPGSV,4,3,13,24,38,204,20,28,14,069,,29,01,238,,30,10,040,14*75
$GPGSV,4,4,13,193,83,174,24*7F
$GSENS, 0.130, 0.041,-0.975
$GSENS, 0.128, 0.044,-0.967
$GSENS, 0.119, 0.052,-0.971
$GSENS, 0.123, 0.044,-0.961
$GSENS, 0.119, 0.052,-0.963
$GPRMC,063811.00,A,3540.30340,N,13921.77473,E,0.000,,221116,,,A*74
$GPGGA,063811.00,3540.30340,N,13921.77473,E,1,09,1.08,188.7,M,38.9,M,,*5B
$GPGSV,4,1,13,02,04,166,,04,40,049,33,05,46,111,31,13,59,028,29*7F
$GPGSV,4,2,13,15,64,313,28,18,14,307,25,20,73,329,24,21,33,300,23*76
$GPGSV,4,3,13,24,38,204,20,28,14,069,,29,01,238,,30,10,040,12*73
$GPGSV,4,4,13,193,83,174,23*78
$GSENS, 0.123, 0.048,-0.969
$GSENS, 0.130, 0.046,-0.971
$GSENS, 0.127, 0.044,-0.975
$GSENS, 0.121, 0.052,-0.961
$GSENS, 0.121, 0.052,-0.963
$GPRMC,063811.00,A,3540.30340,N,13921.77473,E,0.000,,221116,,,A*74
$GPGGA,063811.00,3540.30340,N,13921.77473,E,1,09,1.08,188.7,M,38.9,M,,*5B
$GPGSV,4,1,13,02,04,166,,04,40,049,33,05,46,111,31,13,59,028,29*7F
$GPGSV,4,2,13,15,64,313,28,18,14,307,25,20,73,329,24,21,33,300,23*76
$GPGSV,4,3,13,24,38,204,20,28,14,069,,29,01,238,,30,10,040,12*73
$GPGSV,4,4,13,193,83,174,23*78
$GSENS, 0.123, 0.056,-0.961
$GSENS, 0.123, 0.056,-0.965
$GSENS, 0.121, 0.050,-0.967
$GSENS, 0.127, 0.048,-0.971
$GSENS, 0.119, 0.050,-0.971
$GPRMC,063812.00,A,3540.30340,N,13921.77473,E,0.000,,221116,,,A*77
$GPGGA,063812.00,3540.30340,N,13921.77473,E,1,09,1.08,188.7,M,38.9,M,,*58
$GPGSV,4,1,13,02,04,166,,04,40,049,33,05,46,111,31,13,59,028,30*77
$GPGSV,4,2,13,15,64,313,28,18,14,307,25,20,73,329,24,21,33,300,23*76
$GPGSV,4,3,13,24,38,204,19,28,14,069,,29,01,238,,30,10,040,11*7A
$GPGSV,4,4,13,193,83,174,23*78
$GSENS, 0.130, 0.048,-0.963
$GSENS, 0.123, 0.042,-0.967
$GSENS, 0.119, 0.046,-0.963
$GSENS, 0.130, 0.041,-0.959
$GSENS, 0.127, 0.054,-0.971
$GPRMC,063812.00,A,3540.30340,N,13921.77473,E,0.000,,221116,,,A*77
$GPGGA,063812.00,3540.30340,N,13921.77473,E,1,09,1.08,188.7,M,38.9,M,,*58
$GPGSV,4,1,13,02,04,166,,04,40,049,33,05,46,111,31,13,59,028,30*77
$GPGSV,4,2,13,15,64,313,28,18,14,307,25,20,73,329,24,21,33,300,23*76
$GPGSV,4,3,13,24,38,204,19,28,14,069,,29,01,238,,30,10,040,11*7A
$GPGSV,4,4,13,193,83,174,23*78
$GSENS, 0.130, 0.037,-0.959
$GSENS, 0.123, 0.046,-0.961
$GSENS, 0.128, 0.046,-0.963
$GSENS, 0.119, 0.052,-0.963
$GSENS, 0.123, 0.048,-0.967
$GPRMC,063813.00,A,3540.30340,N,13921.77473,E,0.000,,221116,,,A*76
$GPGGA,063813.00,3540.30340,N,13921.77473,E,1,09,1.08,188.7,M,38.9,M,,*59
$GPGSA,A,3,20,15,13,05,193,24,21,18,30,,,,1.68,1.08,1.29*3B
$GPGSV,4,1,13,02,04,166,,04,40,049,33,05,46,111,31,13,59,028,30*77
$GPGSV,4,2,13,15,64,313,28,18,14,307,25,20,73,329,24,21,33,300,22*77
$GPGSV,4,3,13,24,38,204,18,28,14,069,,29,01,238,,30,10,040,11*7B
$GPGSV,4,4,13,193,83,174,23*78
$GSENS, 0.128, 0.046,-0.975
$GSENS, 0.117, 0.052,-0.969
$GSENS, 0.119, 0.058,-0.961
$GSENS, 0.132, 0.048,-0.963
$GSENS, 0.117, 0.050,-0.959
$GPRMC,063813.00,A,3540.30340,N,13921.77473,E,0.000,,221116,,,A*76
$GPGGA,063813.00,3540.30340,N,13921.77473,E,1,09,1.08,188.7,M,38.9,M,,*59
$GPGSA,A,3,20,15,13,05,193,24,21,18,30,,,,1.68,1.08,1.29*3B
$GPGSV,4,1,13,02,04,166,,04,40,049,33,05,46,111,31,13,59,028,30*77
$GPGSV,4,2,13,15,64,313,28,18,14,307,25,20,73,329,24,21,33,300,22*77
$GPGSV,4,3,13,24,38,204,18,28,14,069,,29,01,238,,30,10,040,11*7B
$GPGSV,4,4,13,193,83,174,23*78
$GSENS, 0.121, 0.052,-0.961
$GSENS, 0.127, 0.046,-0.965
$GSENS, 0.125, 0.046,-0.971
$GSENS, 0.125, 0.046,-0.971
$GSENS, 0.125, 0.046,-0.965
$GPRMC,063814.00,A,3540.30340,N,13921.77473,E,0.000,,221116,,,A*71
$GPGGA,063814.00,3540.30340,N,13921.77473,E,1,09,1.08,188.7,M,38.9,M,,*5E
$GPGSV,4,1,13,02,04,166,,04,40,049,34,05,46,111,30,13,59,028,29*79
$GPGSV,4,2,13,15,64,313,28,18,14,307,25,20,73,329,23,21,33,300,23*71
$GPGSV,4,3,13,24,38,204,18,28,14,069,,29,01,238,,30,10,040,11*7B
$GPGSV,4,4,13,193,83,174,24*7F
$GSENS, 0.123, 0.054,-0.963
$GSENS, 0.123, 0.044,-0.973
$GSENS, 0.125, 0.048,-0.965
$GSENS, 0.125, 0.052,-0.969
$GSENS, 0.119, 0.046,-0.969
$GPRMC,063814.00,A,3540.30340,N,13921.77473,E,0.000,,221116,,,A*71
$GPGGA,063814.00,3540.30340,N,13921.77473,E,1,09,1.08,188.7,M,38.9,M,,*5E
$GPGSV,4,1,13,02,04,166,,04,40,049,34,05,46,111,30,13,59,028,29*79
$GPGSV,4,2,13,15,64,313,28,18,14,307,25,20,73,329,23,21,33,300,23*71
$GPGSV,4,3,13,24,38,204,18,28,14,069,,29,01,238,,30,10,040,11*7B
$GPGSV,4,4,13,193,83,174,24*7F
$GSENS, 0.125, 0.048,-0.967
$GSENS, 0.130, 0.042,-0.959
$GSENS, 0.123, 0.044,-0.963
$GSENS, 0.127, 0.037,-0.967
$GSENS, 0.136, 0.039,-0.973
$GPRMC,063815.00,A,3540.30340,N,13921.77473,E,0.000,,221116,,,A*70
$GPGGA,063815.00,3540.30340,N,13921.77473,E,1,09,1.08,188.7,M,38.9,M,,*5F
$GPGSV,4,1,13,02,04,166,,04,40,049,34,05,46,111,31,13,59,028,29*78
$GPGSV,4,2,13,15,64,313,28,18,14,307,25,20,73,329,23,21,33,300,23*71
$GPGSV,4,3,13,24,38,204,17,28,14,069,,29,01,238,,30,10,040,11*74
$GPGSV,4,4,13,193,83,174,24*7F
$GSENS, 0.127, 0.044,-0.965
$GSENS, 0.123, 0.050,-0.969
$GSENS, 0.127, 0.042,-0.965
$GSENS, 0.127, 0.046,-0.969
$GSENS, 0.121, 0.048,-0.965
$GPRMC,063815.00,A,3540.30340,N,13921.77473,E,0.000,,221116,,,A*70
$GPGGA,063815.00,3540.30340,N,13921.77473,E,1,09,1.08,188.7,M,38.9,M,,*5F
$GPGSV,4,1,13,02,04,166,,04,40,049,34,05,46,111,31,13,59,028,29*78
$GPGSV,4,2,13,15,64,313,28,18,14,307,25,20,73,329,23,21,33,300,23*71
$GPGSV,4,3,13,24,38,204,17,28,14,069,,29,01,238,,30,10,040,11*74
$GPGSV,4,4,13,193,83,174,24*7F
$GSENS, 0.127, 0.039,-0.961
$GSENS, 0.119, 0.056,-0.961
$GSENS, 0.123, 0.050,-0.961
$GSENS, 0.125, 0.052,-0.967
$GSENS, 0.123, 0.044,-0.969
$GPRMC,063816.00,A,3540.30340,N,13921.77473,E,0.000,,221116,,,A*73
$GPGGA,063816.00,3540.30340,N,13921.77473,E,1,09,1.38,188.7,M,38.9,M,,*5F
$GPGSV,4,1,13,02,04,166,,04,40,049,34,05,46,111,30,13,59,028,29*79
$GPGSV,4,2,13,15,64,313,30,18,14,307,24,20,73,330,24,21,33,300,23*76
$GPGSV,4,3,13,24,38,204,17,28,14,069,,29,01,238,,30,10,040,10*75
$GPGSV,4,4,13,193,83,174,24*7F
$GSENS, 0.115, 0.050,-0.961
$GSENS, 0.123, 0.050,-0.965
$GSENS, 0.128, 0.048,-0.965
$GSENS, 0.119, 0.052,-0.961
$GSENS, 0.121, 0.054,-0.965
$GPRMC,063816.00,A,3540.30340,N,13921.77473,E,0.000,,221116,,,A*73
$GPGGA,063816.00,3540.30340,N,13921.77473,E,1,09,1.38,188.7,M,38.9,M,,*5F
$GPGSV,4,1,13,02,04,166,,04,40,049,34,05,46,111,30,13,59,028,29*79
$GPGSV,4,2,13,15,64,313,30,18,14,307,24,20,73,330,24,21,33,300,23*76
$GPGSV,4,3,13,24,38,204,17,28,14,069,,29,01,238,,30,10,040,10*75
$GPGSV,4,4,13,193,83,174,24*7F
$GSENS, 0.123, 0.042,-0.967
$GSENS, 0.117, 0.052,-0.965
$GSENS, 0.123, 0.046,-0.959
$GSENS, 0.121, 0.056,-0.963
$GSENS, 0.123, 0.052,-0.965
$GPRMC,063817.00,A,3540.30340,N,13921.77473,E,0.000,,221116,,,A*72
$GPGGA,063817.00,3540.30340,N,13921.77473,E,1,09,1.38,188.7,M,38.9,M,,*5E
$GPGSA,A,3,20,15,13,05,193,24,21,18,30,,,,2.28,1.38,1.82*3E
$GPGSV,4,1,13,02,04,166,,04,40,049,34,05,46,111,30,13,59,028,29*79
$GPGSV,4,2,13,15,64,313,29,18,14,307,24,20,73,330,24,21,33,300,22*7F
$GPGSV,4,3,13,24,38,204,16,28,14,069,,29,01,238,,30,10,040,10*74
$GPGSV,4,4,13,193,83,174,24*7F
$GSENS, 0.123, 0.050,-0.969
$GSENS, 0.127, 0.048,-0.961
$GSENS, 0.128, 0.044,-0.959
$GSENS, 0.119, 0.054,-0.959
$GSENS, 0.130, 0.044,-0.969
$GPRMC,063817.00,A,3540.30340,N,13921.77473,E,0.000,,221116,,,A*72
$GPGGA,063817.00,3540.30340,N,13921.77473,E,1,09,1.38,188.7,M,38.9,M,,*5E
$GPGSA,A,3,20,15,13,05,193,24,21,18,30,,,,2.28,1.38,1.82*3E
$GPGSV,4,1,13,02,04,166,,04,40,049,34,05,46,111,30,13,59,028,29*79
$GPGSV,4,2,13,15,64,313,29,18,14,307,24,20,73,330,24,21,33,300,22*7F
$GPGSV,4,3,13,24,38,204,16,28,14,069,,29,01,238,,30,10,040,10*74
$GPGSV,4,4,13,193,83,174,24*7F
$GSENS, 0.127, 0.046,-0.959
$GSENS, 0.119, 0.048,-0.969
$GSENS, 0.127, 0.039,-0.971
$GSENS, 0.127, 0.039,-0.957
$GSENS, 0.128, 0.042,-0.961
$GPRMC,063818.00,A,3540.30340,N,13921.77473,E,0.000,,221116,,,A*7D
$GPGGA,063818.00,3540.30340,N,13921.77473,E,1,09,1.38,188.7,M,38.9,M,,*51
$GPGSV,4,1,13,02,04,166,,04,40,049,30,05,46,111,30,13,59,028,28*7C
$GPGSV,4,2,13,15,64,313,29,18,14,307,23,20,73,330,24,21,33,300,22*78
$GPGSV,4,3,13,24,38,204,14,28,14,069,,29,01,238,,30,10,040,10*76
$GPGSV,4,4,13,193,83,174,23*78
$GSENS, 0.134, 0.033,-0.961
$GSENS, 0.123, 0.048,-0.963
$GSENS, 0.125, 0.037,-0.971
$GSENS, 0.127, 0.044,-0.967
$GSENS, 0.121, 0.052,-0.963
$GPRMC,063818.00,A,3540.30340,N,13921.77473,E,0.000,,221116,,,A*7D
$GPGGA,063818.00,3540.30340,N,13921.77473,E,1,09,1.38,188.7,M,38.9,M,,*51
$GPGSV,4,1,13,02,04,166,,04,40,049,30,05,46,111,30,13,59,028,28*7C
$GPGSV,4,2,13,15,64,313,29,18,14,307,23,20,73,330,24,21,33,300,22*78
$GPGSV,4,3,13,24,38,204,14,28,14,069,,29,01,238,,30,10,040,10*76
$GPGSV,4,4,13,193,83,174,23*78
$GSENS, 0.123, 0.046,-0.957
$GSENS, 0.125, 0.050,-0.961
$GSENS, 0.119, 0.054,-0.963
$GSENS, 0.123, 0.044,-0.965
$GSENS, 0.125, 0.052,-0.961
$GPRMC,063819.00,A,3540.30340,N,13921.77473,E,0.000,,221116,,,A*7C
$GPGGA,063819.00,3540.30340,N,13921.77473,E,1,09,1.38,188.7,M,38.9,M,,*50
$GPGSV,4,1,13,02,04,166,,04,40,049,34,05,46,111,30,13,59,028,28*78
$GPGSV,4,2,13,15,64,313,29,18,14,307,24,20,73,330,23,21,33,300,22*78
$GPGSV,4,3,13,24,38,204,13,28,14,069,,29,01,238,,30,10,040,10*71
$GPGSV,4,4,13,193,83,174,23*78
$GSENS, 0.121, 0.048,-0.961
$GSENS, 0.121, 0.056,-0.961
$GSENS, 0.125, 0.050,-0.971
$GSENS, 0.121, 0.052,-0.967
$GSENS, 0.123, 0.048,-0.957
$GPRMC,063819.00,A,3540.30340,N,13921.77473,E,0.000,,221116,,,A*7C
$GPGGA,063819.00,3540.30340,N,13921.77473,E,1,09,1.38,188.7,M,38.9,M,,*50
$GPGSV,4,1,13,02,04,166,,04,40,049,34,05,46,111,30,13,59,028,28*78
$GPGSV,4,2,13,15,64,313,29,18,14,307,24,20,73,330,23,21,33,300,22*78
$GPGSV,4,3,13,24,38,204,13,28,14,069,,29,01,238,,30,10,040,10*71
$GPGSV,4,4,13,193,83,174,23*78
$GSENS, 0.119, 0.048,-0.965
$GSENS, 0.121, 0.058,-0.971
$GSENS, 0.123, 0.044,-0.971
$GSENS, 0.127, 0.042,-0.965
$GSENS, 0.121, 0.050,-0.965
$GPRMC,063820.00,A,3540.30340,N,13921.77473,E,0.000,,221116,,,A*76
$GPGGA,063820.00,3540.30340,N,13921.77473,E,1,09,1.38,188.7,M,38.9,M,,*5A
$GPGSV,4,1,13,02,04,166,,04,40,049,34,05,46,111,30,13,59,028,29*79
$GPGSV,4,2,13,15,64,313,29,18,14,307,24,20,73,330,23,21,33,300,22*78
$GPGSV,4,3,13,24,39,204,15,28,14,069,,29,01,238,,30,10,040,10*76
$GPGSV,4,4,13,193,83,174,24*7F
$GSENS, 0.121, 0.050,-0.959
$GSENS, 0.121, 0.044,-0.963
$GSENS, 0.125, 0.046,-0.961
$GSENS, 0.123, 0.056,-0.955
$GSENS, 0.125, 0.050,-0.963
$GPRMC,063820.00,A,3540.30340,N,13921.77473,E,0.000,,221116,,,A*76
$GPGGA,063820.00,3540.30340,N,13921.77473,E,1,09,1.38,188.7,M,38.9,M,,*5A
$GPGSV,4,1,13,02,04,166,,04,40,049,34,05,46,111,30,13,59,028,29*79
$GPGSV,4,2,13,15,64,313,29,18,14,307,24,20,73,330,23,21,33,300,22*78
$GPGSV,4,3,13,24,39,204,15,28,14,069,,29,01,238,,30,10,040,10*76
$GPGSV,4,4,13,193,83,174,24*7F
$GSENS, 0.125, 0.039,-0.963
$GSENS, 0.121, 0.052,-0.965
$GSENS, 0.121, 0.048,-0.963
$GSENS, 0.125, 0.046,-0.963
$GSENS, 0.113, 0.046,-0.965
$GPRMC,063821.00,A,3540.30340,N,13921.77473,E,0.000,,221116,,,A*77
$GPGGA,063821.00,3540.30340,N,13921.77473,E,1,09,1.38,188.7,M,38.9,M,,*5B
$GPGSA,A,3,20,15,13,05,193,24,21,18,30,,,,2.28,1.38,1.82*3E
$GPGSV,4,1,13,02,04,166,,04,40,049,34,05,46,111,30,13,59,028,29*79
$GPGSV,4,2,13,15,64,313,28,18,14,307,24,20,73,330,24,21,33,300,22*7E
$GPGSV,4,3,13,24,39,204,16,28,14,069,,29,01,238,,30,10,040,10*75
$GPGSV,4,4,13,193,83,174,24*7F
$GSENS, 0.125, 0.050,-0.965
$GSENS, 0.119, 0.042,-0.961
$GSENS, 0.125, 0.050,-0.965
$GSENS, 0.125, 0.037,-0.973
$GSENS, 0.128, 0.044,-0.965
$GPRMC,063821.00,A,3540.30340,N,13921.77473,E,0.000,,221116,,,A*77
$GPGGA,063821.00,3540.30340,N,13921.77473,E,1,09,1.38,188.7,M,38.9,M,,*5B
$GPGSA,A,3,20,15,13,05,193,24,21,18,30,,,,2.28,1.38,1.82*3E
$GPGSV,4,1,13,02,04,166,,04,40,049,34,05,46,111,30,13,59,028,29*79
$GPGSV,4,2,13,15,64,313,28,18,14,307,24,20,73,330,24,21,33,300,22*7E
$GPGSV,4,3,13,24,39,204,16,28,14,069,,29,01,238,,30,10,040,10*75
$GPGSV,4,4,13,193,83,174,24*7F
$GSENS, 0.121, 0.050,-0.969
$GSENS, 0.127, 0.048,-0.961
$GSENS, 0.123, 0.050,-0.963
$GSENS, 0.125, 0.041,-0.957
$GSENS, 0.121, 0.050,-0.965
$GPRMC,063822.00,A,3540.30340,N,13921.77473,E,0.000,,221116,,,A*74
$GPGGA,063822.00,3540.30340,N,13921.77473,E,1,09,1.38,188.7,M,38.9,M,,*58
$GPGSV,4,1,13,02,04,166,,04,40,049,34,05,46,111,30,13,59,028,29*79
$GPGSV,4,2,13,15,64,313,28,18,14,307,23,20,73,330,24,21,33,300,21*7A
$GPGSV,4,3,13,24,39,204,16,28,14,069,,29,01,238,,30,10,040,09*7D
$GPGSV,4,4,13,193,83,174,24*7F
$GSENS, 0.125, 0.046,-0.969
$GSENS, 0.121, 0.042,-0.961
$GSENS, 0.123, 0.048,-0.967
$GSENS, 0.123, 0.054,-0.959
$GSENS, 0.121, 0.052,-0.965
$GPRMC,063822.00,A,3540.30340,N,13921.77473,E,0.000,,221116,,,A*74
$GPGGA,063822.00,3540.30340,N,13921.77473,E,1,09,1.38,188.7,M,38.9,M,,*58
$GPGSV,4,1,13,02,04,166,,04,40,049,34,05,46,111,30,13,59,028,29*79
$GPGSV,4,2,13,15,64,313,28,18,14,307,23,20,73,330,24,21,33,300,21*7A
$GPGSV,4,3,13,24,39,204,16,28,14,069,,29,01,238,,30,10,040,09*7D
$GPGSV,4,4,13,193,83,174,24*7F
$GSENS, 0.121, 0.042,-0.961
$GSENS, 0.115, 0.052,-0.967
$GSENS, 0.125, 0.054,-0.969
$GSENS, 0.125, 0.046,-0.967
$GSENS, 0.123, 0.054,-0.967
$GPRMC,063823.00,A,3540.30340,N,13921.77473,E,0.000,,221116,,,A*75
$GPGGA,063823.00,3540.30340,N,13921.77473,E,1,09,1.38,188.7,M,38.9,M,,*59
$GPGSV,4,1,13,02,04,166,,04,40,049,34,05,46,111,30,13,59,028,29*79
$GPGSV,4,2,13,15,64,313,28,18,14,307,23,20,73,330,24,21,33,300,21*7A
$GPGSV,4,3,13,24,39,204,16,28,14,069,,29,01,238,,30,10,040,10*75
$GPGSV,4,4,13,193,83,174,24*7F
$GSENS, 0.123, 0.054,-0.965
$GSENS, 0.127, 0.042,-0.971
$GSENS, 0.121, 0.056,-0.967
$GSENS, 0.121, 0.048,-0.963
$GSENS, 0.127, 0.041,-0.965
$GPRMC,063823.00,A,3540.30340,N,13921.77473,E,0.000,,221116,,,A*75
$GPGGA,063823.00,3540.30340,N,13921.77473,E,1,09,1.38,188.7,M,38.9,M,,*59
$GPGSV,4,1,13,02,04,166,,04,40,049,34,05,46,111,30,13,59,028,29*79
$GPGSV,4,2,13,15,64,313,28,18,14,307,23,20,73,330,24,21,33,300,21*7A
$GPGSV,4,3,13,24,39,204,16,28,14,069,,29,01,238,,30,10,040,10*75
$GPGSV,4,4,13,193,83,174,24*7F
$GSENS, 0.130, 0.042,-0.971
$GSENS, 0.123, 0.048,-0.971
$GSENS, 0.127, 0.042,-0.973
$GSENS, 0.125, 0.046,-0.959
$GSENS, 0.123, 0.058,-0.967
$GPRMC,063824.00,A,3540.30340,N,13921.77473,E,0.000,,221116,,,A*72
$GPGGA,063824.00,3540.30340,N,13921.77473,E,1,09,1.38,188.7,M,38.9,M,,*5E
$GPGSV,4,1,13,02,04,166,,04,40,049,33,05,46,111,29,13,59,028,29*76
$GPGSV,4,2,13,15,64,313,28,18,14,307,22,20,73,330,24,21,33,300,20*7A
$GPGSV,4,3,13,24,39,204,15,28,14,069,,29,01,238,,30,10,040,09*7E
$GPGSV,4,4,13,193,83,174,23*78
$GSENS, 0.121, 0.054,-0.957
$GSENS, 0.128, 0.048,-0.955
$GSENS, 0.121, 0.056,-0.963
$GSENS, 0.123, 0.048,-0.967
$GSENS, 0.128, 0.046,-0.963
$GPRMC,063824.00,A,3540.30340,N,13921.77473,E,0.000,,221116,,,A*72
$GPGGA,063824.00,3540.30340,N,13921.77473,E,1,09,1.38,188.7,M,38.9,M,,*5E
$GPGSV,4,1,13,02,04,166,,04,40,049,33,05,46,111,29,13,59,028,29*76
$GPGSV,4,2,13,15,64,313,28,18,14,307,22,20,73,330,24,21,33,300,20*7A
$GPGSV,4,3,13,24,39,204,15,28,14,069,,29,01,238,,30,10,040,09*7E
$GPGSV,4,4,13,193,83,174,23*78
$GSENS, 0.123, 0.044,-0.973
$GSENS, 0.123, 0.044,-0.969
$GSENS, 0.119, 0.054,-0.961
$GSENS, 0.121, 0.048,-0.971
$GSENS, 0.125, 0.050,-0.965
$GPRMC,063825.00,A,3540.30340,N,13921.77473,E,0.000,,221116,,,A*73
$GPGGA,063825.00,3540.30340,N,13921.77473,E,1,09,1.38,188.7,M,38.9,M,,*5F
$GPGSA,A,3,20,15,13,05,193,24,21,18,30,,,,2.28,1.38,1.82*3E
$GPGSV,4,1,13,02,04,166,,04,40,049,34,05,46,111,29,13,59,028,29*71
$GPGSV,4,2,13,15,64,313,28,18,14,307,22,20,73,330,24,21,33,300,20*7A
$GPGSV,4,3,13,24,39,204,15,28,14,069,,29,01,237,,30,10,040,09*71
$GPGSV,4,4,13,193,83,174,23*78
$GSENS, 0.117, 0.056,-0.961
$GSENS, 0.123, 0.041,-0.967
$GSENS, 0.121, 0.048,-0.973
$GSENS, 0.117, 0.062,-0.957
$GSENS, 0.123, 0.044,-0.959
$GPRMC,063825.00,A,3540.30340,N,13921.77473,E,0.000,,221116,,,A*73
$GPGGA,063825.00,3540.30340,N,13921.77473,E,1,09,1.38,188.7,M,38.9,M,,*5F
$GPGSA,A,3,20,15,13,05,193,24,21,18,30,,,,2.28,1.38,1.82*3E
$GPGSV,4,1,13,02,04,166,,04,40,049,34,05,46,111,29,13,59,028,29*71
$GPGSV,4,2,13,15,64,313,28,18,14,307,22,20,73,330,24,21,33,300,20*7A
$GPGSV,4,3,13,24,39,204,15,28,14,069,,29,01,237,,30,10,040,09*71
$GPGSV,4,4,13,193,83,174,23*78
$GSENS, 0.125, 0.050,-0.965
$GSENS, 0.123, 0.058,-0.961
$GSENS, 0.123, 0.046,-0.969
$GSENS, 0.127, 0.048,-0.973
$GSENS, 0.117, 0.052,-0.967
$GPRMC,063826.00,A,3540.30340,N,13921.77473,E,0.000,,221116,,,A*70
$GPGGA,063826.00,3540.30340,N,13921.77473,E,1,09,1.38,188.7,M,38.9,M,,*5C
$GPGSV,4,1,13,02,04,166,,04,40,049,33,05,46,111,29,13,59,028,29*76
$GPGSV,4,2,13,15,64,313,28,18,14,307,22,20,73,330,24,21,33,300,20*7A
$GPGSV,4,3,13,24,39,204,17,28,14,069,,29,01,237,,30,09,040,09*7B
$GPGSV,4,4,13,193,83,174,23*78
$GSENS, 0.123, 0.041,-0.963
$GSENS, 0.130, 0.052,-0.969
$GSENS, 0.117, 0.054,-0.969
$GSENS, 0.125, 0.052,-0.963
$GSENS, 0.123, 0.041,-0.977
$GPRMC,063826.00,A,3540.30340,N,13921.77473,E,0.000,,221116,,,A*70
$GPGGA,063826.00,3540.30340,N,13921.77473,E,1,09,1.38,188.7,M,38.9,M,,*5C
$GPGSV,4,1,13,02,04,166,,04,40,049,33,05,46,111,29,13,59,028,29*76
$GPGSV,4,2,13,15,64,313,28,18,14,307,22,20,73,330,24,21,33,300,20*7A
$GPGSV,4,3,13,24,39,204,17,28,14,069,,29,01,237,,30,09,040,09*7B
$GPGSV,4,4,13,193,83,174,23*78
$GSENS, 0.130, 0.050,-0.971
$GSENS, 0.127, 0.044,-0.963
$GSENS, 0.121, 0.052,-0.965
$GSENS, 0.119, 0.052,-0.965
$GSENS, 0.125, 0.050,-0.969
$GPRMC,063827.00,A,3540.30340,N,13921.77473,E,0.000,,221116,,,A*71
$GPGGA,063827.00,3540.30340,N,13921.77473,E,1,09,1.38,188.7,M,38.9,M,,*5D
$GPGSV,4,1,13,02,04,166,,04,40,049,33,05,46,111,29,13,59,028,29*76
$GPGSV,4,2,13,15,64,313,28,18,14,307,22,20,73,330,24,21,33,300,20*7A
$GPGSV,4,3,13,24,39,204,16,28,14,069,,29,01,237,,30,09,040,09*7A
$GPGSV,4,4,13,193,83,174,23*78
$GSENS, 0.123, 0.046,-0.973
$GSENS, 0.121, 0.056,-0.961
$GSENS, 0.127, 0.050,-0.961
$GSENS, 0.123, 0.050,-0.965
$GSENS, 0.127, 0.048,-0.969
$GPRMC,063827.00,A,3540.30340,N,13921.77473,E,0.000,,221116,,,A*71
$GPGGA,063827.00,3540.30340,N,13921.77473,E,1,09,1.38,188.7,M,38.9,M,,*5D
$GPGSV,4,1,13,02,04,166,,04,40,049,33,05,46,111,29,13,59,028,29*76
$GPGSV,4,2,13,15,64,313,28,18,14,307,22,20,73,330,24,21,33,300,20*7A
$GPGSV,4,3,13,24,39,204,16,28,14,069,,29,01,237,,30,09,040,09*7A
$GPGSV,4,4,13,193,83,174,23*78
$GSENS, 0.127, 0.046,-0.967
$GSENS, 0.127, 0.050,-0.971
$GSENS, 0.121, 0.048,-0.967
$GSENS, 0.125, 0.042,-0.967
$GSENS, 0.127, 0.042,-0.973
$GPRMC,063828.00,A,3540.30340,N,13921.77473,E,0.000,,221116,,,A*7E
$GPGGA,063828.00,3540.30340,N,13921.77473,E,1,09,1.38,188.7,M,38.9,M,,*52
$GPGSV,4,1,13,02,04,166,,04,40,049,30,05,46,111,29,13,59,028,28*74
$GPGSV,4,2,13,15,64,313,27,18,14,307,22,20,73,330,24,21,33,300,18*7E
$GPGSV,4,3,13,24,39,204,16,28,14,069,,29,01,237,,30,09,040,10*72
$GPGSV,4,4,13,193,83,174,23*78
$GSENS, 0.128, 0.050,-0.965
$GSENS, 0.123, 0.048,-0.965
$GSENS, 0.119, 0.056,-0.967
$GSENS, 0.123, 0.052,-0.967
$GSENS, 0.125, 0.044,-0.969
$GPRMC,063828.00,A,3540.30340,N,13921.77473,E,0.000,,221116,,,A*7E
$GPGGA,063828.00,3540.30340,N,13921.77473,E,1,09,1.38,188.7,M,38.9,M,,*52
$GPGSV,4,1,13,02,04,166,,04,40,049,30,05,46,111,29,13,59,028,28*74
$GPGSV,4,2,13,15,64,313,27,18,14,307,22,20,73,330,24,21,33,300,18*7E
$GPGSV,4,3,13,24,39,204,16,28,14,069,,29,01,237,,30,09,040,10*72
$GPGSV,4,4,13,193,83,174,23*78
$GSENS, 0.117, 0.046,-0.967
$GSENS, 0.119, 0.054,-0.965
$GSENS, 0.117, 0.054,-0.961
$GSENS, 0.123, 0.042,-0.971
$GSENS, 0.127, 0.042,-0.971
$GPRMC,063829.00,A,3540.30340,N,13921.77473,E,0.000,,221116,,,A*7F
$GPGGA,063829.00,3540.30340,N,13921.77473,E,1,09,1.38,188.7,M,38.9,M,,*53
$GPGSA,A,3,20,15,13,05,193,24,21,18,30,,,,2.28,1.38,1.82*3E
$GPGSV,4,1,13,02,04,166,,04,40,049,33,05,46,111,29,13,59,028,28*77
$GPGSV,4,2,13,15,64,313,27,18,14,307,23,20,73,330,24,21,33,300,18*7F
$GPGSV,4,3,13,24,39,204,16,28,14,069,,29,01,237,,30,09,040,10*72
$GPGSV,4,4,13,193,83,174,23*78
$GSENS, 0.117, 0.054,-0.963
$GSENS, 0.128, 0.042,-0.967
$GSENS, 0.121, 0.054,-0.967
$GSENS, 0.121, 0.058,-0.961
$GSENS, 0.128, 0.050,-0.957
$GPRMC,063829.00,A,3540.30340,N,13921.77473,E,0.000,,221116,,,A*7F
$GPGGA,063829.00,3540.30340,N,13921.77473,E,1,09,1.38,188.7,M,38.9,M,,*53
$GPGSA,A,3,20,15,13,05,193,24,21,18,30,,,,2.28,1.38,1.82*3E
$GPGSV,4,1,13,02,04,166,,04,40,049,33,05,46,111,29,13,59,028,28*77
$GPGSV,4,2,13,15,64,313,27,18,14,307,23,20,73,330,24,21,33,300,18*7F
$GPGSV,4,3,13,24,39,204,16,28,14,069,,29,01,237,,30,09,040,10*72
$GPGSV,4,4,13,193,83,174,23*78
$GSENS, 0.128, 0.046,-0.977
$GSENS, 0.123, 0.058,-0.965
$GSENS, 0.127, 0.052,-0.965
$GSENS, 0.127, 0.046,-0.973
$GSENS, 0.119, 0.054,-0.967
$GPRMC,063830.00,A,3540.30340,N,13921.77473,E,0.000,,221116,,,A*77
$GPGGA,063830.00,3540.30340,N,13921.77473,E,1,09,1.38,188.7,M,38.9,M,,*5B
$GPGSV,4,1,13,02,04,166,,04,40,049,33,05,46,111,29,13,59,028,28*77
$GPGSV,4,2,13,15,64,313,28,18,14,307,22,20,73,330,24,21,33,300,18*71
$GPGSV,4,3,13,24,39,204,16,28,14,069,,29,01,237,,30,09,040,10*72
$GPGSV,4,4,13,193,83,174,23*78
$GSENS, 0.125, 0.050,-0.963
$GSENS, 0.119, 0.060,-0.955
$GSENS, 0.125, 0.050,-0.973
$GSENS, 0.121, 0.044,-0.965
$GSENS, 0.121, 0.052,-0.973
$GPRMC,063830.00,A,3540.30340,N,13921.77473,E,0.000,,221116,,,A*77
$GPGGA,063830.00,3540.30340,N,13921.77473,E,1,09,1.38,188.7,M,38.9,M,,*5B
$GPGSV,4,1,13,02,04,166,,04,40,049,33,05,46,111,29,13,59,028,28*77
$GPGSV,4,2,13,15,64,313,28,18,14,307,22,20,73,330,24,21,33,300,18*71
$GPGSV,4,3,13,24,39,204,16,28,14,069,,29,01,237,,30,09,040,10*72
$GPGSV,4,4,13,193,83,174,23*78
$GSENS, 0.121, 0.052,-0.963
$GSENS, 0.130, 0.046,-0.963
$GSENS, 0.125, 0.046,-0.971
$GSENS, 0.123, 0.056,-0.969
$GSENS, 0.123, 0.046,-0.969
$GPRMC,063831.00,A,3540.30340,N,13921.77473,E,0.000,,221116,,,A*76
$GPGGA,063831.00,3540.30340,N,13921.77473,E,1,09,1.38,188.7,M,38.9,M,,*5A
$GPGSV,4,1,13,02,04,166,,04,40,049,33,05,46,111,29,13,59,028,28*77
$GPGSV,4,2,13,15,64,313,27,18,14,307,23,20,73,330,24,21,33,300,18*7F
$GPGSV,4,3,13,24,39,204,15,28,14,069,,29,01,237,,30,09,040,10*71
$GPGSV,4,4,13,193,83,174,23*78
$GSENS, 0.119, 0.056,-0.965
$GSENS, 0.123, 0.050,-0.967
$GSENS, 0.125, 0.044,-0.959
$GSENS, 0.128, 0.039,-0.977
$GSENS, 0.121, 0.046,-0.969
$GPRMC,063831.00,A,3540.30340,N,13921.77473,E,0.000,,221116,,,A*76
$GPGGA,063831.00,3540.30340,N,13921.77473,E,1,09,1.38,188.7,M,38.9,M,,*5A
$GPGSV,4,1,13,02,04,166,,04,40,049,33,05,46,111,29,13,59,028,28*77
$GPGSV,4,2,13,15,64,313,27,18,14,307,23,20,73,330,24,21,33,300,18*7F
$GPGSV,4,3,13,24,39,204,15,28,14,069,,29,01,237,,30,09,040,10*71
$GPGSV,4,4,13,193,83,174,23*78
$GSENS, 0.128, 0.046,-0.969
$GSENS, 0.121, 0.058,-0.961
$GSENS, 0.121, 0.050,-0.963
$GSENS, 0.125, 0.041,-0.959
$GSENS, 0.130, 0.052,-0.969
$GPRMC,063832.00,A,3540.30340,N,13921.77473,E,0.000,,221116,,,A*75
$GPGGA,063832.00,3540.30340,N,13921.77473,E,1,09,1.38,188.7,M,38.9,M,,*59
$GPGSV,4,1,13,02,04,166,,04,40,049,33,05,46,111,29,13,59,028,28*77
$GPGSV,4,2,13,15,64,313,27,18,14,307,23,20,73,330,24,21,33,300,19*7E
$GPGSV,4,3,13,24,39,204,14,28,14,069,,29,01,237,,30,09,040,10*70
$GPGSV,4,4,13,193,83,174,23*78
$GSENS, 0.127, 0.050,-0.969
$GSENS, 0.132, 0.041,-0.957
$GSENS, 0.123, 0.041,-0.973
$GSENS, 0.127, 0.046,-0.967
$GSENS, 0.123, 0.052,-0.963
$GPRMC,063832.00,A,3540.30340,N,13921.77473,E,0.000,,221116,,,A*75
$GPGGA,063832.00,3540.30340,N,13921.77473,E,1,09,1.38,188.7,M,38.9,M,,*59
$GPGSV,4,1,13,02,04,166,,04,40,049,33,05,46,111,29,13,59,028,28*77
$GPGSV,4,2,13,15,64,313,27,18,14,307,23,20,73,330,24,21,33,300,19*7E
$GPGSV,4,3,13,24,39,204,14,28,14,069,,29,01,237,,30,09,040,10*70
$GPGSV,4,4,13,193,83,174,23*78
$GSENS, 0.125, 0.052,-0.963
$GSENS, 0.119, 0.044,-0.961
$GSENS, 0.128, 0.041,-0.965
$GSENS, 0.121, 0.041,-0.957
$GSENS, 0.121, 0.044,-0.961
$GPRMC,063833.00,A,3540.30340,N,13921.77473,E,0.000,,221116,,,A*74
$GPGGA,063833.00,3540.30340,N,13921.77473,E,1,09,1.38,188.7,M,38.9,M,,*58
$GPGSA,A,3,20,15,13,05,193,24,21,18,30,,,,2.28,1.38,1.82*3E
