$GTRIP,1bd2b10f
$GPRMC,,V,,,,,,,,,,N*AA
$GSENS, 0.123, 0.039,-0.996
$GSENS, 0.130, 0.050,-0.975
$GSENS, 0.136, 0.042,-0.973
$GSENS, 0.123, 0.048,-0.969
$GSENS, 0.121, 0.046,-0.967
$GPRMC,,V,,,,,,,,,,N*AA
$GSENS, 0.121, 0.052,-0.963
$GSENS, 0.123, 0.046,-0.963
$GSENS, 0.125, 0.044,-0.973
$GSENS, 0.121, 0.044,-0.971
$GSENS, 0.121, 0.041,-0.961
$GPRMC,064229.00,A,3540.31019,N,13921.78416,E,0.062,,221116,,,A*74
$GPGGA,064229.00,3540.31019,N,13921.78416,E,1,09,1.09,174.7,M,38.9,M,,*5D
$GPGSA,A,3,20,15,13,05,193,24,21,18,30,,,,1.70,1.09,1.31*3A
$GPGSV,4,1,13,02,02,166,,04,39,050,39,05,44,114,35,13,57,031,36*7E
$GPGSV,4,2,13,15,65,317,33,18,16,308,32,20,75,331,28,21,34,298,26*73
$GPGSV,4,3,13,24,41,204,27,28,15,067,23,29,00,236,,30,08,040,28*7B
$GPGSV,4,4,13,193,82,176,30*79
$GSENS, 0.121, 0.052,-0.967
$GSENS, 0.121, 0.052,-0.965
$GSENS, 0.125, 0.046,-0.967
$GSENS, 0.125, 0.046,-0.971
$GSENS, 0.121, 0.054,-0.961
$GPRMC,064229.00,A,3540.31019,N,13921.78416,E,0.062,,221116,,,A*74
$GPGGA,064229.00,3540.31019,N,13921.78416,E,1,09,1.09,174.7,M,38.9,M,,*5D
$GPGSA,A,3,20,15,13,05,193,24,21,18,30,,,,1.70,1.09,1.31*3A
$GPGSV,4,1,13,02,02,166,,04,39,050,39,05,44,114,35,13,57,031,36*7E
$GPGSV,4,2,13,15,65,317,33,18,16,308,32,20,75,331,28,21,34,298,26*73
$GPGSV,4,3,13,24,41,204,27,28,15,067,23,29,00,236,,30,08,040,28*7B
$GPGSV,4,4,13,193,82,176,30*79
$GSENS, 0.121, 0.041,-0.965
$GSENS, 0.119, 0.052,-0.967
$GSENS, 0.113, 0.062,-0.957
$GSENS, 0.132, 0.039,-0.969
$GSENS, 0.127, 0.044,-0.961
$GPRMC,064230.00,A,3540.31016,N,13921.78433,E,0.371,,221116,,,A*75
$GPGGA,064230.00,3540.31016,N,13921.78433,E,1,09,1.09,173.9,M,38.9,M,,*54
$GPGSV,4,1,13,02,02,166,,04,39,050,36,05,44,114,33,13,57,031,33*72
$GPGSV,4,2,13,15,65,317,32,18,16,308,30,20,75,331,27,21,34,298,26*7F
$GPGSV,4,3,13,24,41,204,24,28,15,067,19,29,00,236,,30,08,040,25*7C
$GPGSV,4,4,13,193,82,176,28*70
$GSENS, 0.121, 0.054,-0.967
$GSENS, 0.119, 0.050,-0.965
$GSENS, 0.123, 0.046,-0.965
$GSENS, 0.117, 0.054,-0.967
$GSENS, 0.121, 0.058,-0.961
$GPRMC,064230.00,A,3540.31016,N,13921.78433,E,0.371,,221116,,,A*75
$GPGGA,064230.00,3540.31016,N,13921.78433,E,1,09,1.09,173.9,M,38.9,M,,*54
$GPGSV,4,1,13,02,02,166,,04,39,050,36,05,44,114,33,13,57,031,33*72
$GPGSV,4,2,13,15,65,317,32,18,16,308,30,20,75,331,27,21,34,298,26*7F
$GPGSV,4,3,13,24,41,204,24,28,15,067,19,29,00,236,,30,08,040,25*7C
$GPGSV,4,4,13,193,82,176,28*70
$GSENS, 0.121, 0.044,-0.967
$GSENS, 0.121, 0.044,-0.967
$GSENS, 0.119, 0.048,-0.965
$GSENS, 0.123, 0.044,-0.953
$GSENS, 0.123, 0.050,-0.967
$GPRMC,064231.00,A,3540.30958,N,13921.78422,E,0.348,,221116,,,A*7C
$GPGGA,064231.00,3540.30958,N,13921.78422,E,1,09,1.09,172.7,M,38.9,M,,*58
$GPGSV,4,1,13,02,02,166,,04,39,050,36,05,44,114,33,13,57,031,34*75
$GPGSV,4,2,13,15,65,317,31,18,16,308,29,20,75,331,27,21,34,298,25*77
$GPGSV,4,3,13,24,41,204,23,28,15,067,18,29,00,236,,30,08,040,24*7B
$GPGSV,4,4,13,193,82,176,27*7F
$GSENS, 0.119, 0.050,-0.965
$GSENS, 0.119, 0.050,-0.963
$GSENS, 0.117, 0.058,-0.961
$GSENS, 0.125, 0.041,-0.961
$GSENS, 0.119, 0.052,-0.959
$GPRMC,064231.00,A,3540.30958,N,13921.78422,E,0.348,,221116,,,A*7C
$GPGGA,064231.00,3540.30958,N,13921.78422,E,1,09,1.09,172.7,M,38.9,M,,*58
$GPGSV,4,1,13,02,02,166,,04,39,050,36,05,44,114,33,13,57,031,34*75
$GPGSV,4,2,13,15,65,317,31,18,16,308,29,20,75,331,27,21,34,298,25*77
$GPGSV,4,3,13,24,41,204,23,28,15,067,18,29,00,236,,30,08,040,24*7B
$GPGSV,4,4,13,193,82,176,27*7F
$GSENS, 0.119, 0.052,-0.965
$GSENS, 0.121, 0.046,-0.969
$GSENS, 0.127, 0.044,-0.965
$GSENS, 0.125, 0.048,-0.963
$GSENS, 0.119, 0.050,-0.973
$GPRMC,064232.00,A,3540.30928,N,13921.78392,E,0.189,,221116,,,A*7B
$GPGGA,064232.00,3540.30928,N,13921.78392,E,1,09,1.09,172.8,M,38.9,M,,*5F
$GPGSV,4,1,13,02,02,166,,04,39,050,36,05,44,114,33,13,57,031,34*75
$GPGSV,4,2,13,15,65,317,32,18,16,308,29,20,75,331,26,21,34,298,24*74
$GPGSV,4,3,13,24,41,204,20,28,15,067,17,29,00,236,,30,08,040,23*70
$GPGSV,4,4,13,193,82,176,27*7F
$GSENS, 0.123, 0.037,-0.973
$GSENS, 0.117, 0.044,-0.965
$GSENS, 0.125, 0.050,-0.963
$GSENS, 0.127, 0.058,-0.965
$GSENS, 0.125, 0.048,-0.967
$GPRMC,064232.00,A,3540.30928,N,13921.78392,E,0.189,,221116,,,A*7B
$GPGGA,064232.00,3540.30928,N,13921.78392,E,1,09,1.09,172.8,M,38.9,M,,*5F
$GPGSV,4,1,13,02,02,166,,04,39,050,36,05,44,114,33,13,57,031,34*75
$GPGSV,4,2,13,15,65,317,32,18,16,308,29,20,75,331,26,21,34,298,24*74
$GPGSV,4,3,13,24,41,204,20,28,15,067,17,29,00,236,,30,08,040,23*70
$GPGSV,4,4,13,193,82,176,27*7F
$GSENS, 0.117, 0.042,-0.967
$GSENS, 0.123, 0.050,-0.969
$GSENS, 0.125, 0.050,-0.961
$GSENS, 0.117, 0.046,-0.969
$GSENS, 0.119, 0.052,-0.963
$GPRMC,064233.00,A,3540.30916,N,13921.78362,E,0.034,,221116,,,A*7F
$GPGGA,064233.00,3540.30916,N,13921.78362,E,1,09,1.09,173.3,M,38.9,M,,*56
$GPGSA,A,3,20,15,13,05,193,24,21,18,30,,,,1.70,1.09,1.31*3A
$GPGSV,4,1,13,02,02,166,,04,39,050,37,05,44,114,33,13,57,031,34*74
$GPGSV,4,2,13,15,65,317,32,18,16,308,29,20,75,331,26,21,34,298,24*74
$GPGSV,4,3,13,24,41,204,19,28,15,067,16,29,00,236,,30,08,040,23*7B
$GPGSV,4,4,13,193,82,176,27*7F
$GSENS, 0.125, 0.048,-0.957
$GSENS, 0.127, 0.056,-0.967
$GSENS, 0.123, 0.046,-0.969
$GSENS, 0.115, 0.060,-0.957
$GSENS, 0.127, 0.048,-0.971
$GPRMC,064233.00,A,3540.30916,N,13921.78362,E,0.034,,221116,,,A*7F
$GPGGA,064233.00,3540.30916,N,13921.78362,E,1,09,1.09,173.3,M,38.9,M,,*56
$GPGSA,A,3,20,15,13,05,193,24,21,18,30,,,,1.70,1.09,1.31*3A
$GPGSV,4,1,13,02,02,166,,04,39,050,37,05,44,114,33,13,57,031,34*74
$GPGSV,4,2,13,15,65,317,32,18,16,308,29,20,75,331,26,21,34,298,24*74
$GPGSV,4,3,13,24,41,204,19,28,15,067,16,29,00,236,,30,08,040,23*7B
$GPGSV,4,4,13,193,82,176,27*7F
$GSENS, 0.111, 0.054,-0.965
$GSENS, 0.127, 0.050,-0.961
$GSENS, 0.121, 0.044,-0.973
$GSENS, 0.119, 0.044,-0.971
$GSENS, 0.119, 0.052,-0.967
$GPRMC,064234.00,A,3540.30916,N,13921.78362,E,0.000,,221116,,,A*7F
$GPGGA,064234.00,3540.30916,N,13921.78362,E,1,09,1.09,173.3,M,38.9,M,,*51
$GPGSV,4,1,13,02,02,166,,04,39,050,37,05,44,114,33,13,57,031,34*74
$GPGSV,4,2,13,15,65,317,32,18,16,308,29,20,75,331,26,21,34,298,25*75
$GPGSV,4,3,13,24,41,204,18,28,15,067,16,29,00,236,,30,08,040,23*7A
$GPGSV,4,4,13,193,82,176,27*7F
$GSENS, 0.130, 0.039,-0.973
$GSENS, 0.113, 0.060,-0.961
$GSENS, 0.119, 0.046,-0.965
$GSENS, 0.119, 0.052,-0.959
$GSENS, 0.125, 0.052,-0.973
$GPRMC,064234.00,A,3540.30916,N,13921.78362,E,0.000,,221116,,,A*7F
$GPGGA,064234.00,3540.30916,N,13921.78362,E,1,09,1.09,173.3,M,38.9,M,,*51
$GPGSV,4,1,13,02,02,166,,04,39,050,37,05,44,114,33,13,57,031,34*74
$GPGSV,4,2,13,15,65,317,32,18,16,308,29,20,75,331,26,21,34,298,25*75
$GPGSV,4,3,13,24,41,204,18,28,15,067,16,29,00,236,,30,08,040,23*7A
$GPGSV,4,4,13,193,82,176,27*7F
$GSENS, 0.117, 0.044,-0.965
$GSENS, 0.123, 0.046,-0.961
$GSENS, 0.121, 0.052,-0.969
$GSENS, 0.121, 0.048,-0.963
$GSENS, 0.127, 0.056,-0.961
$GPRMC,064235.00,A,3540.30916,N,13921.78362,E,0.000,,221116,,,A*7E
$GPGGA,064235.00,3540.30916,N,13921.78362,E,1,09,1.09,173.3,M,38.9,M,,*50
$GPGSV,4,1,13,02,02,166,,04,39,050,37,05,44,114,34,13,57,031,34*73
$GPGSV,4,2,13,15,65,317,32,18,16,308,29,20,75,331,26,21,34,298,25*75
$GPGSV,4,3,13,24,41,204,17,28,15,067,16,29,00,236,,30,08,040,23*75
$GPGSV,4,4,13,193,82,176,27*7F
$GSENS, 0.121, 0.044,-0.971
$GSENS, 0.123, 0.041,-0.959
$GSENS, 0.128, 0.041,-0.961
$GSENS, 0.127, 0.041,-0.965
$GSENS, 0.125, 0.037,-0.959
$GPRMC,064235.00,A,3540.30916,N,13921.78362,E,0.000,,221116,,,A*7E
$GPGGA,064235.00,3540.30916,N,13921.78362,E,1,09,1.09,173.3,M,38.9,M,,*50
$GPGSV,4,1,13,02,02,166,,04,39,050,37,05,44,114,34,13,57,031,34*73
$GPGSV,4,2,13,15,65,317,32,18,16,308,29,20,75,331,26,21,34,298,25*75
$GPGSV,4,3,13,24,41,204,17,28,15,067,16,29,00,236,,30,08,040,23*75
$GPGSV,4,4,13,193,82,176,27*7F
$GSENS, 0.123, 0.048,-0.959
$GSENS, 0.123, 0.041,-0.969
$GSENS, 0.119, 0.039,-0.961
$GSENS, 0.125, 0.042,-0.969
$GSENS, 0.125, 0.046,-0.959
$GPRMC,064236.00,A,3540.30916,N,13921.78362,E,0.000,,221116,,,A*7D
$GPGGA,064236.00,3540.30916,N,13921.78362,E,1,09,1.09,173.3,M,38.9,M,,*53
$GPGSV,4,1,13,02,02,166,,04,39,050,37,05,44,114,33,13,57,031,34*74
$GPGSV,4,2,13,15,65,317,32,18,16,308,28,20,75,331,27,21,34,298,26*76
$GPGSV,4,3,13,24,41,204,17,28,15,067,17,29,00,236,,30,08,040,23*74
$GPGSV,4,4,13,193,82,176,27*7F
$GSENS, 0.125, 0.042,-0.961
$GSENS, 0.119, 0.046,-0.965
$GSENS, 0.119, 0.046,-0.965
$GSENS, 0.125, 0.044,-0.959
$GSENS, 0.125, 0.042,-0.961
$GPRMC,064236.00,A,3540.30916,N,13921.78362,E,0.000,,221116,,,A*7D
$GPGGA,064236.00,3540.30916,N,13921.78362,E,1,09,1.09,173.3,M,38.9,M,,*53
$GPGSV,4,1,13,02,02,166,,04,39,050,37,05,44,114,33,13,57,031,34*74
$GPGSV,4,2,13,15,65,317,32,18,16,308,28,20,75,331,27,21,34,298,26*76
$GPGSV,4,3,13,24,41,204,17,28,15,067,17,29,00,236,,30,08,040,23*74
$GPGSV,4,4,13,193,82,176,27*7F
$GSENS, 0.117, 0.054,-0.961
$GSENS, 0.125, 0.042,-0.959
$GSENS, 0.117, 0.048,-0.965
$GSENS, 0.119, 0.054,-0.963
$GSENS, 0.121, 0.044,-0.967
$GPRMC,064237.00,A,3540.30916,N,13921.78362,E,0.000,,221116,,,A*7C
$GPGGA,064237.00,3540.30916,N,13921.78362,E,1,09,1.09,173.3,M,38.9,M,,*52
$GPGSA,A,3,20,15,13,05,193,24,21,18,30,,,,1.70,1.09,1.31*3A
$GPGSV,4,1,13,02,02,166,,04,39,050,37,05,44,114,33,13,57,031,35*75
$GPGSV,4,2,13,15,65,317,32,18,16,308,28,20,75,331,27,21,34,298,26*76
$GPGSV,4,3,13,24,41,204,18,28,15,067,17,29,00,236,,30,08,040,24*7C
$GPGSV,4,4,13,193,82,176,27*7F
$GSENS, 0.117, 0.044,-0.961
$GSENS, 0.123, 0.052,-0.971
$GSENS, 0.119, 0.052,-0.967
$GSENS, 0.125, 0.037,-0.965
$GSENS, 0.119, 0.052,-0.961
$GPRMC,064237.00,A,3540.30916,N,13921.78362,E,0.000,,221116,,,A*7C
$GPGGA,064237.00,3540.30916,N,13921.78362,E,1,09,1.09,173.3,M,38.9,M,,*52
$GPGSA,A,3,20,15,13,05,193,24,21,18,30,,,,1.70,1.09,1.31*3A
$GPGSV,4,1,13,02,02,166,,04,39,050,37,05,44,114,33,13,57,031,35*75
$GPGSV,4,2,13,15,65,317,32,18,16,308,28,20,75,331,27,21,34,298,26*76
$GPGSV,4,3,13,24,41,204,18,28,15,067,17,29,00,236,,30,08,040,24*7C
$GPGSV,4,4,13,193,82,176,27*7F
$GSENS, 0.119, 0.052,-0.959
$GSENS, 0.121, 0.046,-0.957
$GSENS, 0.123, 0.044,-0.967
$GSENS, 0.121, 0.044,-0.963
$GSENS, 0.121, 0.052,-0.963
$GPRMC,064238.00,A,3540.30916,N,13921.78362,E,0.000,,221116,,,A*73
$GPGGA,064238.00,3540.30916,N,13921.78362,E,1,09,1.66,173.3,M,38.9,M,,*54
$GPGSV,4,1,13,02,02,166,,04,39,050,37,05,44,114,33,13,57,031,34*74
$GPGSV,4,2,13,15,65,317,31,18,16,308,28,20,75,331,27,21,34,298,26*75
$GPGSV,4,3,13,24,41,204,18,28,15,067,16,29,00,236,,30,08,040,24*7D
$GPGSV,4,4,13,193,82,176,27*7F
$GSENS, 0.127, 0.042,-0.961
$GSENS, 0.119, 0.048,-0.963
$GSENS, 0.123, 0.044,-0.965
$GSENS, 0.125, 0.046,-0.957
$GSENS, 0.121, 0.054,-0.959
$GPRMC,064238.00,A,3540.30916,N,13921.78362,E,0.000,,221116,,,A*73
$GPGGA,064238.00,3540.30916,N,13921.78362,E,1,09,1.66,173.3,M,38.9,M,,*54
$GPGSV,4,1,13,02,02,166,,04,39,050,37,05,44,114,33,13,57,031,34*74
$GPGSV,4,2,13,15,65,317,31,18,16,308,28,20,75,331,27,21,34,298,26*75
$GPGSV,4,3,13,24,41,204,18,28,15,067,16,29,00,236,,30,08,040,24*7D
$GPGSV,4,4,13,193,82,176,27*7F
$GSENS, 0.127, 0.042,-0.967
$GSENS, 0.132, 0.037,-0.957
$GSENS, 0.121, 0.046,-0.963
$GSENS, 0.121, 0.044,-0.961
$GSENS, 0.119, 0.048,-0.963
$GPRMC,064239.00,A,3540.30916,N,13921.78362,E,0.000,,221116,,,A*72
$GPGGA,064239.00,3540.30916,N,13921.78362,E,1,09,1.66,173.3,M,38.9,M,,*55
$GPGSV,4,1,13,02,02,166,,04,39,050,37,05,44,114,33,13,57,031,34*74
$GPGSV,4,2,13,15,65,317,32,18,16,308,28,20,75,331,27,21,34,298,26*76
$GPGSV,4,3,13,24,41,204,18,28,15,067,15,29,00,236,,30,08,040,24*7E
$GPGSV,4,4,13,193,82,176,27*7F
$GSENS, 0.121, 0.046,-0.961
$GSENS, 0.123, 0.042,-0.965
$GSENS, 0.115, 0.058,-0.963
$GSENS, 0.117, 0.046,-0.965
$GSENS, 0.121, 0.041,-0.969
$GPRMC,064239.00,A,3540.30916,N,13921.78362,E,0.000,,221116,,,A*72
$GPGGA,064239.00,3540.30916,N,13921.78362,E,1,09,1.66,173.3,M,38.9,M,,*55
$GPGSV,4,1,13,02,02,166,,04,39,050,37,05,44,114,33,13,57,031,34*74
$GPGSV,4,2,13,15,65,317,32,18,16,308,28,20,75,331,27,21,34,298,26*76
$GPGSV,4,3,13,24,41,204,18,28,15,067,15,29,00,236,,30,08,040,24*7E
$GPGSV,4,4,13,193,82,176,27*7F
$GSENS, 0.119, 0.052,-0.959
$GSENS, 0.123, 0.042,-0.959
$GSENS, 0.125, 0.054,-0.963
$GSENS, 0.117, 0.052,-0.963
$GSENS, 0.117, 0.054,-0.955
$GPRMC,064240.00,A,3540.30916,N,13921.78362,E,0.000,,221116,,,A*7C
$GPGGA,064240.00,3540.30916,N,13921.78362,E,1,09,1.09,173.3,M,38.9,M,,*52
$GPGSV,4,1,13,02,02,166,,04,39,050,37,05,44,114,33,13,57,031,34*74
$GPGSV,4,2,13,15,65,317,32,18,16,308,28,20,75,331,27,21,34,298,26*76
$GPGSV,4,3,13,24,41,204,19,28,15,067,14,29,00,236,,30,08,040,25*7F
$GPGSV,4,4,13,193,82,176,27*7F
$GSENS, 0.123, 0.046,-0.957
$GSENS, 0.117, 0.050,-0.965
$GSENS, 0.123, 0.044,-0.965
$GSENS, 0.121, 0.052,-0.969
$GSENS, 0.123, 0.054,-0.967
$GPRMC,064240.00,A,3540.30916,N,13921.78362,E,0.000,,221116,,,A*7C
$GPGGA,064240.00,3540.30916,N,13921.78362,E,1,09,1.09,173.3,M,38.9,M,,*52
$GPGSV,4,1,13,02,02,166,,04,39,050,37,05,44,114,33,13,57,031,34*74
$GPGSV,4,2,13,15,65,317,32,18,16,308,28,20,75,331,27,21,34,298,26*76
$GPGSV,4,3,13,24,41,204,19,28,15,067,14,29,00,236,,30,08,040,25*7F
$GPGSV,4,4,13,193,82,176,27*7F
$GSENS, 0.117, 0.050,-0.965
$GSENS, 0.119, 0.035,-0.969
$GSENS, 0.121, 0.054,-0.959
$GSENS, 0.121, 0.041,-0.965
$GSENS, 0.123, 0.042,-0.959
$GPRMC,064241.00,A,3540.30916,N,13921.78362,E,0.000,,221116,,,A*7D
$GPGGA,064241.00,3540.30916,N,13921.78362,E,1,09,1.09,173.3,M,38.9,M,,*53
$GPGSA,A,3,20,15,13,05,193,24,21,18,30,,,,1.70,1.09,1.31*3A
$GPGSV,4,1,13,02,02,166,,04,39,050,37,05,44,114,33,13,57,031,33*73
$GPGSV,4,2,13,15,65,317,32,18,16,308,28,20,75,331,28,21,34,298,26*79
$GPGSV,4,3,13,24,41,204,19,28,15,067,12,29,00,236,,30,08,040,25*79
$GPGSV,4,4,13,193,82,176,27*7F
$GSENS, 0.119, 0.046,-0.965
$GSENS, 0.123, 0.044,-0.967
$GSENS, 0.125, 0.044,-0.959
$GSENS, 0.123, 0.044,-0.965
$GSENS, 0.115, 0.056,-0.961
$GPRMC,064241.00,A,3540.30916,N,13921.78362,E,0.000,,221116,,,A*7D
$GPGGA,064241.00,3540.30916,N,13921.78362,E,1,09,1.09,173.3,M,38.9,M,,*53
$GPGSA,A,3,20,15,13,05,193,24,21,18,30,,,,1.70,1.09,1.31*3A
$GPGSV,4,1,13,02,02,166,,04,39,050,37,05,44,114,33,13,57,031,33*73
$GPGSV,4,2,13,15,65,317,32,18,16,308,28,20,75,331,28,21,34,298,26*79
$GPGSV,4,3,13,24,41,204,19,28,15,067,12,29,00,236,,30,08,040,25*79
$GPGSV,4,4,13,193,82,176,27*7F
$GSENS, 0.117, 0.052,-0.965
$GSENS, 0.127, 0.037,-0.969
$GSENS, 0.119, 0.050,-0.959
$GSENS, 0.125, 0.048,-0.967
$GSENS, 0.119, 0.044,-0.955
$GPRMC,064242.00,A,3540.30916,N,13921.78362,E,0.000,,221116,,,A*7E
$GPGGA,064242.00,3540.30916,N,13921.78362,E,1,09,1.09,173.3,M,38.9,M,,*50
$GPGSV,4,1,13,02,02,166,,04,39,050,38,05,44,114,33,13,57,031,33*7C
$GPGSV,4,2,13,15,65,317,32,18,16,308,28,20,75,331,28,21,34,298,26*79
$GPGSV,4,3,13,24,41,204,19,28,15,067,13,29,00,236,,30,08,040,25*78
$GPGSV,4,4,13,193,82,176,27*7F
$GSENS, 0.117, 0.048,-0.967
$GSENS, 0.115, 0.048,-0.961
$GSENS, 0.123, 0.044,-0.955
$GSENS, 0.117, 0.050,-0.965
$GSENS, 0.121, 0.050,-0.965
$GPRMC,064242.00,A,3540.30916,N,13921.78362,E,0.000,,221116,,,A*7E
$GPGGA,064242.00,3540.30916,N,13921.78362,E,1,09,1.09,173.3,M,38.9,M,,*50
$GPGSV,4,1,13,02,02,166,,04,39,050,38,05,44,114,33,13,57,031,33*7C
$GPGSV,4,2,13,15,65,317,32,18,16,308,28,20,75,331,28,21,34,298,26*79
$GPGSV,4,3,13,24,41,204,19,28,15,067,13,29,00,236,,30,08,040,25*78
$GPGSV,4,4,13,193,82,176,27*7F
$GSENS, 0.121, 0.048,-0.961
$GSENS, 0.130, 0.046,-0.965
$GSENS, 0.123, 0.046,-0.965
$GSENS, 0.119, 0.041,-0.965
$GSENS, 0.121, 0.044,-0.965
$GPRMC,064243.00,A,3540.30916,N,13921.78362,E,0.000,,221116,,,A*7F
$GPGGA,064243.00,3540.30916,N,13921.78362,E,1,09,1.09,173.3,M,38.9,M,,*51
$GPGSV,4,1,13,02,02,166,,04,39,050,38,05,44,114,34,13,57,031,34*7C
$GPGSV,4,2,13,15,65,317,33,18,16,308,28,20,75,331,28,21,34,298,27*79
$GPGSV,4,3,13,24,41,204,20,28,15,067,13,29,00,236,,30,08,040,25*72
$GPGSV,4,4,13,193,82,176,27*7F
$GSENS, 0.119, 0.052,-0.963
$GSENS, 0.127, 0.042,-0.963
$GSENS, 0.127, 0.046,-0.959
$GSENS, 0.117, 0.050,-0.967
$GSENS, 0.117, 0.056,-0.961
$GPRMC,064243.00,A,3540.30916,N,13921.78362,E,0.000,,221116,,,A*7F
$GPGGA,064243.00,3540.30916,N,13921.78362,E,1,09,1.09,173.3,M,38.9,M,,*51
$GPGSV,4,1,13,02,02,166,,04,39,050,38,05,44,114,34,13,57,031,34*7C
$GPGSV,4,2,13,15,65,317,33,18,16,308,28,20,75,331,28,21,34,298,27*79
$GPGSV,4,3,13,24,41,204,20,28,15,067,13,29,00,236,,30,08,040,25*72
$GPGSV,4,4,13,193,82,176,27*7F
$GSENS, 0.125, 0.048,-0.961
$GSENS, 0.117, 0.048,-0.965
$GSENS, 0.121, 0.052,-0.957
$GSENS, 0.123, 0.054,-0.963
$GSENS, 0.121, 0.042,-0.963
$GPRMC,064244.00,A,3540.30916,N,13921.78362,E,0.000,,221116,,,A*78
$GPGGA,064244.00,3540.30916,N,13921.78362,E,1,09,1.09,173.3,M,38.9,M,,*56
$GPGSV,4,1,13,02,02,166,,04,39,050,38,05,44,114,34,13,57,031,34*7C
$GPGSV,4,2,13,15,65,317,33,18,16,308,28,20,75,331,28,21,34,298,27*79
$GPGSV,4,3,13,24,41,204,20,28,15,067,13,29,00,236,,30,08,040,26*71
$GPGSV,4,4,13,193,82,176,27*7F
$GSENS, 0.127, 0.052,-0.957
$GSENS, 0.119, 0.058,-0.967
$GSENS, 0.119, 0.042,-0.963
$GSENS, 0.123, 0.044,-0.967
$GSENS, 0.119, 0.052,-0.965
$GPRMC,064244.00,A,3540.30916,N,13921.78362,E,0.000,,221116,,,A*78
$GPGGA,064244.00,3540.30916,N,13921.78362,E,1,09,1.09,173.3,M,38.9,M,,*56
$GPGSV,4,1,13,02,02,166,,04,39,050,38,05,44,114,34,13,57,031,34*7C
$GPGSV,4,2,13,15,65,317,33,18,16,308,28,20,75,331,28,21,34,298,27*79
$GPGSV,4,3,13,24,41,204,20,28,15,067,13,29,00,236,,30,08,040,26*71
$GPGSV,4,4,13,193,82,176,27*7F
$GSENS, 0.117, 0.048,-0.961
$GSENS, 0.117, 0.046,-0.965
$GSENS, 0.121, 0.048,-0.963
$GSENS, 0.117, 0.050,-0.961
$GSENS, 0.119, 0.042,-0.965
$GPRMC,064245.00,A,3540.30916,N,13921.78362,E,0.000,,221116,,,A*79
$GPGGA,064245.00,3540.30916,N,13921.78362,E,1,09,1.09,173.3,M,38.9,M,,*57
$GPGSA,A,3,20,15,13,05,193,24,21,18,30,,,,1.70,1.09,1.31*3A
$GPGSV,4,1,13,02,02,166,,04,39,050,38,05,44,114,34,13,57,031,34*7C
$GPGSV,4,2,13,15,65,317,33,18,16,308,27,20,75,331,29,21,34,298,27*77
$GPGSV,4,3,13,24,41,204,21,28,15,067,11,29,00,236,,30,08,040,26*72
$GPGSV,4,4,13,193,82,176,27*7F
$GSENS, 0.128, 0.044,-0.961
$GSENS, 0.127, 0.044,-0.965
$GSENS, 0.121, 0.044,-0.963
$GSENS, 0.121, 0.044,-0.969
$GSENS, 0.115, 0.048,-0.967
$GPRMC,064245.00,A,3540.30916,N,13921.78362,E,0.000,,221116,,,A*79
$GPGGA,064245.00,3540.30916,N,13921.78362,E,1,09,1.09,173.3,M,38.9,M,,*57
$GPGSA,A,3,20,15,13,05,193,24,21,18,30,,,,1.70,1.09,1.31*3A
$GPGSV,4,1,13,02,02,166,,04,39,050,38,05,44,114,34,13,57,031,34*7C
$GPGSV,4,2,13,15,65,317,33,18,16,308,27,20,75,331,29,21,34,298,27*77
$GPGSV,4,3,13,24,41,204,21,28,15,067,11,29,00,236,,30,08,040,26*72
$GPGSV,4,4,13,193,82,176,27*7F
$GSENS, 0.119, 0.041,-0.963
$GSENS, 0.119, 0.048,-0.959
$GSENS, 0.125, 0.046,-0.965
$GSENS, 0.125, 0.046,-0.959
$GSENS, 0.121, 0.046,-0.963
$GPRMC,064246.00,A,3540.30916,N,13921.78362,E,0.000,,221116,,,A*7A
$GPGGA,064246.00,3540.30916,N,13921.78362,E,1,09,2.16,173.3,M,38.9,M,,*59
$GPGSV,4,1,13,02,02,166,,04,39,050,37,05,44,114,34,13,57,031,34*73
$GPGSV,4,2,13,15,65,317,33,18,16,308,27,20,75,331,28,21,34,298,26*77
$GPGSV,4,3,13,24,41,204,21,28,15,067,10,29,00,236,,30,08,040,26*73
$GPGSV,4,4,13,193,82,176,27*7F
$GSENS, 0.121, 0.046,-0.967
$GSENS, 0.123, 0.046,-0.963
$GSENS, 0.121, 0.044,-0.963
$GSENS, 0.123, 0.046,-0.957
$GSENS, 0.128, 0.044,-0.967
$GPRMC,064246.00,A,3540.30916,N,13921.78362,E,0.000,,221116,,,A*7A
$GPGGA,064246.00,3540.30916,N,13921.78362,E,1,09,2.16,173.3,M,38.9,M,,*59
$GPGSV,4,1,13,02,02,166,,04,39,050,37,05,44,114,34,13,57,031,34*73
$GPGSV,4,2,13,15,65,317,33,18,16,308,27,20,75,331,28,21,34,298,26*77
$GPGSV,4,3,13,24,41,204,21,28,15,067,10,29,00,236,,30,08,040,26*73
$GPGSV,4,4,13,193,82,176,27*7F
$GSENS, 0.115, 0.056,-0.961
$GSENS, 0.119, 0.048,-0.965
$GSENS, 0.113, 0.050,-0.959
$GSENS, 0.125, 0.054,-0.961
$GSENS, 0.127, 0.042,-0.961
$GPRMC,064247.00,A,3540.30916,N,13921.78362,E,0.000,,221116,,,A*7B
$GPGGA,064247.00,3540.30916,N,13921.78362,E,1,09,2.16,173.3,M,38.9,M,,*58
$GPGSV,4,1,13,02,02,166,,04,39,050,38,05,44,114,34,13,57,031,34*7C
$GPGSV,4,2,13,15,65,317,33,18,16,308,26,20,75,331,28,21,34,298,27*77
$GPGSV,4,3,13,24,41,204,21,28,15,067,13,29,00,236,,30,08,040,26*70
$GPGSV,4,4,13,193,82,176,27*7F
$GSENS, 0.119, 0.052,-0.967
$GSENS, 0.121, 0.050,-0.963
$GSENS, 0.125, 0.046,-0.963
$GSENS, 0.134, 0.035,-0.975
$GSENS, 0.119, 0.056,-0.965
$GPRMC,064247.00,A,3540.30916,N,13921.78362,E,0.000,,221116,,,A*7B
$GPGGA,064247.00,3540.30916,N,13921.78362,E,1,09,2.16,173.3,M,38.9,M,,*58
$GPGSV,4,1,13,02,02,166,,04,39,050,38,05,44,114,34,13,57,031,34*7C
$GPGSV,4,2,13,15,65,317,33,18,16,308,26,20,75,331,28,21,34,298,27*77
$GPGSV,4,3,13,24,41,204,21,28,15,067,13,29,00,236,,30,08,040,26*70
$GPGSV,4,4,13,193,82,176,27*7F
$GSENS, 0.125, 0.048,-0.967
$GSENS, 0.127, 0.041,-0.973
$GSENS, 0.111, 0.052,-0.965
$GSENS, 0.121, 0.048,-0.963
$GSENS, 0.123, 0.044,-0.967
$GPRMC,064248.00,A,3540.30916,N,13921.78362,E,0.000,,221116,,,A*74
$GPGGA,064248.00,3540.30916,N,13921.78362,E,1,09,1.65,173.3,M,38.9,M,,*50
$GPGSV,4,1,13,02,02,166,,04,39,050,37,05,44,114,34,13,57,031,34*73
$GPGSV,4,2,13,15,65,317,32,18,16,308,26,20,75,331,28,21,34,298,27*76
$GPGSV,4,3,13,24,41,204,22,28,15,067,14,29,00,236,,30,08,040,26*74
$GPGSV,4,4,13,193,82,176,26*7E
$GSENS, 0.119, 0.048,-0.967
$GSENS, 0.125, 0.042,-0.969
$GSENS, 0.128, 0.039,-0.967
$GSENS, 0.125, 0.041,-0.965
$GSENS, 0.121, 0.056,-0.961
$GPRMC,064248.00,A,3540.30916,N,13921.78362,E,0.000,,221116,,,A*74
$GPGGA,064248.00,3540.30916,N,13921.78362,E,1,09,1.65,173.3,M,38.9,M,,*50
$GPGSV,4,1,13,02,02,166,,04,39,050,37,05,44,114,34,13,57,031,34*73
$GPGSV,4,2,13,15,65,317,32,18,16,308,26,20,75,331,28,21,34,298,27*76
$GPGSV,4,3,13,24,41,204,22,28,15,067,14,29,00,236,,30,08,040,26*74
$GPGSV,4,4,13,193,82,176,26*7E
$GSENS, 0.125, 0.041,-0.965
$GSENS, 0.119, 0.046,-0.965
$GSENS, 0.121, 0.048,-0.967
$GSENS, 0.119, 0.050,-0.967
$GSENS, 0.121, 0.044,-0.961
$GPRMC,064249.00,A,3540.30916,N,13921.78362,E,0.000,,221116,,,A*75
$GPGGA,064249.00,3540.30916,N,13921.78362,E,1,09,2.16,173.3,M,38.9,M,,*56
$GPGSA,A,3,20,15,13,05,193,24,21,18,30,,,,2.85,2.16,1.87*33
$GPGSV,4,1,13,02,02,166,,04,39,050,37,05,44,114,34,13,57,031,35*72
$GPGSV,4,2,13,15,65,317,33,18,16,308,26,20,75,331,28,21,34,298,27*77
$GPGSV,4,3,13,24,41,204,23,28,15,067,15,29,00,236,,30,08,040,26*74
$GPGSV,4,4,13,193,82,176,26*7E
$GSENS, 0.119, 0.056,-0.963
$GSENS, 0.119, 0.056,-0.959
$GSENS, 0.128, 0.042,-0.967
$GSENS, 0.119, 0.054,-0.961
$GSENS, 0.117, 0.054,-0.961
$GPRMC,064249.00,A,3540.30916,N,13921.78362,E,0.000,,221116,,,A*75
$GPGGA,064249.00,3540.30916,N,13921.78362,E,1,09,2.16,173.3,M,38.9,M,,*56
$GPGSA,A,3,20,15,13,05,193,24,21,18,30,,,,2.85,2.16,1.87*33
$GPGSV,4,1,13,02,02,166,,04,39,050,37,05,44,114,34,13,57,031,35*72
$GPGSV,4,2,13,15,65,317,33,18,16,308,26,20,75,331,28,21,34,298,27*77
$GPGSV,4,3,13,24,41,204,23,28,15,067,15,29,00,236,,30,08,040,26*74
$GPGSV,4,4,13,193,82,176,26*7E
$GSENS, 0.125, 0.048,-0.969
$GSENS, 0.123, 0.042,-0.971
$GSENS, 0.121, 0.046,-0.967
$GSENS, 0.123, 0.046,-0.961
$GSENS, 0.121, 0.054,-0.963
$GPRMC,064250.00,A,3540.30916,N,13921.78362,E,0.000,,221116,,,A*7D
$GPGGA,064250.00,3540.30916,N,13921.78362,E,1,09,2.16,173.3,M,38.9,M,,*5E
$GPGSV,4,1,13,02,02,166,,04,39,050,37,05,44,114,34,13,57,031,35*72
$GPGSV,4,2,13,15,65,317,33,18,16,308,26,20,75,331,28,21,34,298,27*77
$GPGSV,4,3,13,24,41,204,24,28,15,067,15,29,00,236,,30,08,040,26*73
$GPGSV,4,4,13,193,82,176,27*7F
$GSENS, 0.121, 0.050,-0.975
$GSENS, 0.123, 0.048,-0.963
$GSENS, 0.115, 0.052,-0.967
$GSENS, 0.117, 0.054,-0.961
$GSENS, 0.121, 0.048,-0.967
$GPRMC,064250.00,A,3540.30916,N,13921.78362,E,0.000,,221116,,,A*7D
$GPGGA,064250.00,3540.30916,N,13921.78362,E,1,09,2.16,173.3,M,38.9,M,,*5E
$GPGSV,4,1,13,02,02,166,,04,39,050,37,05,44,114,34,13,57,031,35*72
$GPGSV,4,2,13,15,65,317,33,18,16,308,26,20,75,331,28,21,34,298,27*77
$GPGSV,4,3,13,24,41,204,24,28,15,067,15,29,00,236,,30,08,040,26*73
$GPGSV,4,4,13,193,82,176,27*7F
$GSENS, 0.127, 0.044,-0.963
$GSENS, 0.127, 0.052,-0.961
$GSENS, 0.117, 0.058,-0.957
$GSENS, 0.128, 0.046,-0.965
$GSENS, 0.119, 0.048,-0.961
$GPRMC,064251.00,A,3540.30916,N,13921.78362,E,0.000,,221116,,,A*7C
$GPGGA,064251.00,3540.30916,N,13921.78362,E,1,09,2.16,173.3,M,38.9,M,,*5F
$GPGSV,4,1,13,02,02,166,,04,39,050,37,05,44,114,34,13,57,031,34*73
$GPGSV,4,2,13,15,65,317,32,18,16,308,24,20,75,331,27,21,34,298,26*7A
$GPGSV,4,3,13,24,41,204,24,28,15,067,15,29,00,236,,30,08,040,26*73
$GPGSV,4,4,13,193,82,176,26*7E
$GSENS, 0.119, 0.052,-0.969
$GSENS, 0.125, 0.050,-0.959
$GSENS, 0.119, 0.050,-0.965
$GSENS, 0.119, 0.050,-0.961
$GSENS, 0.127, 0.052,-0.961
$GPRMC,064251.00,A,3540.30916,N,13921.78362,E,0.000,,221116,,,A*7C
$GPGGA,064251.00,3540.30916,N,13921.78362,E,1,09,2.16,173.3,M,38.9,M,,*5F
$GPGSV,4,1,13,02,02,166,,04,39,050,37,05,44,114,34,13,57,031,34*73
$GPGSV,4,2,13,15,65,317,32,18,16,308,24,20,75,331,27,21,34,298,26*7A
$GPGSV,4,3,13,24,41,204,24,28,15,067,15,29,00,236,,30,08,040,26*73
$GPGSV,4,4,13,193,82,176,26*7E
$GSENS, 0.123, 0.050,-0.965
$GSENS, 0.123, 0.054,-0.955
$GSENS, 0.125, 0.048,-0.963
$GSENS, 0.117, 0.044,-0.965
$GSENS, 0.125, 0.054,-0.963
$GPRMC,064252.00,A,3540.30916,N,13921.78362,E,0.000,,221116,,,A*7F
$GPGGA,064252.00,3540.30916,N,13921.78362,E,1,09,1.09,173.3,M,38.9,M,,*51
$GPGSV,4,1,13,02,02,166,,04,39,050,37,05,44,114,34,13,57,031,34*73
$GPGSV,4,2,13,15,65,317,33,18,16,308,24,20,75,331,28,21,34,298,27*75
$GPGSV,4,3,13,24,41,204,25,28,15,067,17,29,00,236,,30,08,040,26*70
$GPGSV,4,4,13,193,82,176,27*7F
$GSENS, 0.123, 0.050,-0.967
$GSENS, 0.123, 0.052,-0.955
$GSENS, 0.125, 0.044,-0.963
$GSENS, 0.117, 0.054,-0.963
$GSENS, 0.125, 0.048,-0.961
$GPRMC,064252.00,A,3540.30916,N,13921.78362,E,0.000,,221116,,,A*7F
$GPGGA,064252.00,3540.30916,N,13921.78362,E,1,09,1.09,173.3,M,38.9,M,,*51
$GPGSV,4,1,13,02,02,166,,04,39,050,37,05,44,114,34,13,57,031,34*73
$GPGSV,4,2,13,15,65,317,33,18,16,308,24,20,75,331,28,21,34,298,27*75
$GPGSV,4,3,13,24,41,204,25,28,15,067,17,29,00,236,,30,08,040,26*70
$GPGSV,4,4,13,193,82,176,27*7F
$GSENS, 0.123, 0.050,-0.961
$GSENS, 0.123, 0.042,-0.961
$GSENS, 0.125, 0.042,-0.961
$GSENS, 0.123, 0.048,-0.969
$GSENS, 0.119, 0.039,-0.973
$GPRMC,064253.00,A,3540.30916,N,13921.78362,E,0.000,,221116,,,A*7E
$GPGGA,064253.00,3540.30916,N,13921.78362,E,1,09,1.09,173.3,M,38.9,M,,*50
$GPGSA,A,3,20,15,13,05,193,24,21,18,30,,,,1.70,1.09,1.31*3A
$GPGSV,4,1,13,02,02,166,,04,39,050,37,05,44,114,35,13,57,031,35*73
$GPGSV,4,2,13,15,65,317,31,18,16,308,25,20,75,331,29,21,34,298,28*78
$GPGSV,4,3,13,24,41,204,25,28,15,067,16,29,00,236,,30,08,040,27*70
$GPGSV,4,4,13,193,82,176,27*7F
$GSENS, 0.121, 0.048,-0.963
$GSENS, 0.127, 0.039,-0.977
$GSENS, 0.121, 0.048,-0.967
$GSENS, 0.123, 0.050,-0.967
$GSENS, 0.117, 0.054,-0.969
$GPRMC,064253.00,A,3540.30916,N,13921.78362,E,0.000,,221116,,,A*7E
$GPGGA,064253.00,3540.30916,N,13921.78362,E,1,09,1.09,173.3,M,38.9,M,,*50
$GPGSA,A,3,20,15,13,05,193,24,21,18,30,,,,1.70,1.09,1.31*3A
$GPGSV,4,1,13,02,02,166,,04,39,050,37,05,44,114,35,13,57,031,35*73
$GPGSV,4,2,13,15,65,317,31,18,16,308,25,20,75,331,29,21,34,298,28*78
$GPGSV,4,3,13,24,41,204,25,28,15,067,16,29,00,236,,30,08,040,27*70
$GPGSV,4,4,13,193,82,176,27*7F
$GSENS, 0.119, 0.052,-0.963
$GSENS, 0.115, 0.058,-0.963
$GSENS, 0.117, 0.050,-0.971
$GSENS, 0.123, 0.050,-0.965
$GSENS, 0.121, 0.041,-0.965
$GPRMC,064254.00,A,3540.30916,N,13921.78362,E,0.000,,221116,,,A*79
$GPGGA,064254.00,3540.30916,N,13921.78362,E,1,09,1.09,173.3,M,38.9,M,,*57
$GPGSV,4,1,13,02,02,166,,04,39,050,37,05,44,114,35,13,57,031,35*73
$GPGSV,4,2,13,15,65,317,33,18,16,308,24,20,75,331,28,21,34,298,28*7A
$GPGSV,4,3,13,24,41,204,25,28,15,067,17,29,00,236,,30,08,040,27*71
$GPGSV,4,4,13,193,82,176,28*70
$GSENS, 0.121, 0.039,-0.969
$GSENS, 0.119, 0.050,-0.961
$GSENS, 0.119, 0.046,-0.969
$GSENS, 0.121, 0.046,-0.967
$GSENS, 0.127, 0.046,-0.969
$GPRMC,064254.00,A,3540.30916,N,13921.78362,E,0.000,,221116,,,A*79
$GPGGA,064254.00,3540.30916,N,13921.78362,E,1,09,1.09,173.3,M,38.9,M,,*57
$GPGSV,4,1,13,02,02,166,,04,39,050,37,05,44,114,35,13,57,031,35*73
$GPGSV,4,2,13,15,65,317,33,18,16,308,24,20,75,331,28,21,34,298,28*7A
$GPGSV,4,3,13,24,41,204,25,28,15,067,17,29,00,236,,30,08,040,27*71
$GPGSV,4,4,13,193,82,176,28*70
$GSENS, 0.119, 0.054,-0.961
$GSENS, 0.121, 0.048,-0.955
$GSENS, 0.119, 0.054,-0.963
$GSENS, 0.117, 0.052,-0.967
$GSENS, 0.117, 0.044,-0.973
$GPRMC,064255.00,A,3540.30916,N,13921.78362,E,0.000,,221116,,,A*78
$GPGGA,064255.00,3540.30916,N,13921.78362,E,1,09,1.65,173.3,M,38.9,M,,*5C
$GPGSV,4,1,13,02,02,166,14,04,39,050,38,05,44,114,35,13,57,031,35*79
$GPGSV,4,2,13,15,65,317,33,18,16,308,24,20,75,331,28,21,34,298,27*75
$GPGSV,4,3,13,24,41,204,25,28,15,067,17,29,00,236,,30,08,040,26*70
$GPGSV,4,4,13,193,82,176,28*70
$GSENS, 0.121, 0.044,-0.971
$GSENS, 0.123, 0.044,-0.969
$GSENS, 0.119, 0.046,-0.963
$GSENS, 0.121, 0.048,-0.961
$GSENS, 0.125, 0.046,-0.971
$GPRMC,064255.00,A,3540.30916,N,13921.78362,E,0.000,,221116,,,A*78
$GPGGA,064255.00,3540.30916,N,13921.78362,E,1,09,1.65,173.3,M,38.9,M,,*5C
$GPGSV,4,1,13,02,02,166,14,04,39,050,38,05,44,114,35,13,57,031,35*79
$GPGSV,4,2,13,15,65,317,33,18,16,308,24,20,75,331,28,21,34,298,27*75
$GPGSV,4,3,13,24,41,204,25,28,15,067,17,29,00,236,,30,08,040,26*70
$GPGSV,4,4,13,193,82,176,28*70
$GSENS, 0.130, 0.046,-0.963
$GSENS, 0.128, 0.037,-0.963
$GSENS, 0.127, 0.031,-0.959
$GSENS, 0.125, 0.044,-0.963
$GSENS, 0.115, 0.042,-0.961
$GPRMC,064256.00,A,3540.30916,N,13921.78362,E,0.000,,221116,,,A*7B
$GPGGA,064256.00,3540.30916,N,13921.78362,E,1,09,1.65,173.3,M,38.9,M,,*5F
$GPGSV,4,1,13,02,02,166,14,04,39,050,37,05,44,114,34,13,57,031,34*76
$GPGSV,4,2,13,15,65,317,32,18,16,308,23,20,75,331,28,21,34,298,27*73
$GPGSV,4,3,13,24,41,204,24,28,15,067,16,29,00,236,,30,08,040,25*73
$GPGSV,4,4,13,193,82,176,27*7F
$GSENS, 0.123, 0.042,-0.961
$GSENS, 0.123, 0.041,-0.973
$GSENS, 0.123, 0.054,-0.965
$GSENS, 0.125, 0.048,-0.957
$GSENS, 0.113, 0.052,-0.959
$GPRMC,064256.00,A,3540.30916,N,13921.78362,E,0.000,,221116,,,A*7B
$GPGGA,064256.00,3540.30916,N,13921.78362,E,1,09,1.65,173.3,M,38.9,M,,*5F
$GPGSV,4,1,13,02,02,166,14,04,39,050,37,05,44,114,34,13,57,031,34*76
$GPGSV,4,2,13,15,65,317,32,18,16,308,23,20,75,331,28,21,34,298,27*73
$GPGSV,4,3,13,24,41,204,24,28,15,067,16,29,00,236,,30,08,040,25*73
$GPGSV,4,4,13,193,82,176,27*7F
$GSENS, 0.119, 0.058,-0.961
$GSENS, 0.119, 0.048,-0.967
$GSENS, 0.115, 0.052,-0.973
$GSENS, 0.119, 0.052,-0.959
$GSENS, 0.127, 0.041,-0.957
$GPRMC,064257.00,A,3540.30916,N,13921.78362,E,0.000,,221116,,,A*7A
$GPGGA,064257.00,3540.30916,N,13921.78362,E,1,09,1.65,173.3,M,38.9,M,,*5E
$GPGSA,A,3,20,15,13,05,193,24,21,18,30,,,,2.28,1.65,1.57*3E
$GPGSV,4,1,13,02,02,166,14,04,39,050,37,05,44,114,34,13,57,031,34*76
$GPGSV,4,2,13,15,65,317,32,18,16,308,22,20,75,331,28,21,34,298,27*72
$GPGSV,4,3,13,24,41,204,24,28,15,067,16,29,00,236,,30,08,040,25*73
$GPGSV,4,4,13,193,82,176,27*7F
$GSENS, 0.125, 0.050,-0.963
$GSENS, 0.117, 0.054,-0.963
$GSENS, 0.119, 0.054,-0.963
$GSENS, 0.125, 0.042,-0.969
$GSENS, 0.121, 0.044,-0.965
$GPRMC,064257.00,A,3540.30916,N,13921.78362,E,0.000,,221116,,,A*7A
$GPGGA,064257.00,3540.30916,N,13921.78362,E,1,09,1.65,173.3,M,38.9,M,,*5E
$GPGSA,A,3,20,15,13,05,193,24,21,18,30,,,,2.28,1.65,1.57*3E
$GPGSV,4,1,13,02,02,166,14,04,39,050,37,05,44,114,34,13,57,031,34*76
$GPGSV,4,2,13,15,65,317,32,18,16,308,22,20,75,331,28,21,34,298,27*72
$GPGSV,4,3,13,24,41,204,24,28,15,067,16,29,00,236,,30,08,040,25*73
$GPGSV,4,4,13,193,82,176,27*7F
$GSENS, 0.123, 0.050,-0.963
$GSENS, 0.127, 0.039,-0.959
$GSENS, 0.119, 0.048,-0.961
$GSENS, 0.121, 0.042,-0.969
$GSENS, 0.121, 0.042,-0.963
$GPRMC,064258.00,A,3540.30916,N,13921.78362,E,0.000,,221116,,,A*75
$GPGGA,064258.00,3540.30916,N,13921.78362,E,1,09,1.09,173.3,M,38.9,M,,*5B
$GPGSV,4,1,13,02,02,166,,04,39,050,38,05,44,114,34,13,57,031,34*7C
$GPGSV,4,2,13,15,65,317,32,18,16,308,22,20,75,331,27,21,34,298,27*7D
$GPGSV,4,3,13,24,41,204,25,28,15,067,16,29,00,236,,30,08,040,24*73
$GPGSV,4,4,13,193,82,176,26*7E
$GSENS, 0.119, 0.050,-0.961
$GSENS, 0.121, 0.039,-0.971
$GSENS, 0.117, 0.050,-0.959
$GSENS, 0.117, 0.048,-0.967
$GSENS, 0.113, 0.056,-0.969
$GPRMC,064258.00,A,3540.30916,N,13921.78362,E,0.000,,221116,,,A*75
$GPGGA,064258.00,3540.30916,N,13921.78362,E,1,09,1.09,173.3,M,38.9,M,,*5B
$GPGSV,4,1,13,02,02,166,,04,39,050,38,05,44,114,34,13,57,031,34*7C
$GPGSV,4,2,13,15,65,317,32,18,16,308,22,20,75,331,27,21,34,298,27*7D
$GPGSV,4,3,13,24,41,204,25,28,15,067,16,29,00,236,,30,08,040,24*73
$GPGSV,4,4,13,193,82,176,26*7E
$GSENS, 0.115, 0.048,-0.967
$GSENS, 0.127, 0.046,-0.955
$GSENS, 0.115, 0.050,-0.961
$GSENS, 0.123, 0.048,-0.971
$GSENS, 0.125, 0.039,-0.961
$GPRMC,064259.00,A,3540.30916,N,13921.78362,E,0.000,,221116,,,A*74
$GPGGA,064259.00,3540.30916,N,13921.78362,E,1,09,1.09,173.3,M,38.9,M,,*5A
$GPGSV,4,1,13,02,02,166,,04,39,050,38,05,44,114,34,13,57,031,35*7D
$GPGSV,4,2,13,15,65,317,32,18,16,308,21,20,75,331,27,21,34,298,27*7E
$GPGSV,4,3,13,24,41,204,26,28,15,067,16,29,00,236,,30,08,040,24*70
$GPGSV,4,4,13,193,82,176,26*7E
$GSENS, 0.115, 0.044,-0.967
$GSENS, 0.121, 0.058,-0.961
$GSENS, 0.123, 0.048,-0.967
$GSENS, 0.117, 0.046,-0.963
$GSENS, 0.115, 0.044,-0.971
$GPRMC,064259.00,A,3540.30916,N,13921.78362,E,0.000,,221116,,,A*74
$GPGGA,064259.00,3540.30916,N,13921.78362,E,1,09,1.09,173.3,M,38.9,M,,*5A
$GPGSV,4,1,13,02,02,166,,04,39,050,38,05,44,114,34,13,57,031,35*7D
$GPGSV,4,2,13,15,65,317,32,18,16,308,21,20,75,331,27,21,34,298,27*7E
$GPGSV,4,3,13,24,41,204,26,28,15,067,16,29,00,236,,30,08,040,24*70
$GPGSV,4,4,13,193,82,176,26*7E
$GSENS, 0.121, 0.052,-0.963
$GSENS, 0.125, 0.042,-0.965
$GSENS, 0.113, 0.058,-0.959
$GSENS, 0.115, 0.046,-0.965
$GSENS, 0.121, 0.046,-0.955
$GPRMC,064300.00,A,3540.30916,N,13921.78362,E,0.000,,221116,,,A*79
$GPGGA,064300.00,3540.30916,N,13921.78362,E,1,09,1.09,173.3,M,38.9,M,,*57
$GPGSV,4,1,13,02,02,166,,04,39,050,38,05,44,114,34,13,57,031,34*7C
$GPGSV,4,2,13,15,65,317,31,18,16,308,21,20,75,331,27,21,34,298,27*7D
$GPGSV,4,3,13,24,41,204,26,28,15,067,17,29,00,236,,30,08,040,24*71
$GPGSV,4,4,13,193,82,176,27*7F
$GSENS, 0.113, 0.058,-0.963
$GSENS, 0.121, 0.052,-0.965
$GSENS, 0.123, 0.046,-0.957
$GSENS, 0.123, 0.044,-0.965
$GSENS, 0.117, 0.054,-0.957
$GPRMC,064300.00,A,3540.30916,N,13921.78362,E,0.000,,221116,,,A*79
$GPGGA,064300.00,3540.30916,N,13921.78362,E,1,09,1.09,173.3,M,38.9,M,,*57
$GPGSV,4,1,13,02,02,166,,04,39,050,38,05,44,114,34,13,57,031,34*7C
$GPGSV,4,2,13,15,65,317,31,18,16,308,21,20,75,331,27,21,34,298,27*7D
$GPGSV,4,3,13,24,41,204,26,28,15,067,17,29,00,236,,30,08,040,24*71
$GPGSV,4,4,13,193,82,176,27*7F
$GSENS, 0.115, 0.054,-0.959
$GSENS, 0.121, 0.050,-0.963
$GSENS, 0.117, 0.050,-0.961
$GSENS, 0.121, 0.044,-0.971
$GSENS, 0.117, 0.048,-0.959
$GPRMC,064301.00,A,3540.30916,N,13921.78362,E,0.000,,221116,,,A*78
$GPGGA,064301.00,3540.30916,N,13921.78362,E,1,09,1.09,173.3,M,38.9,M,,*56
$GPGSA,A,3,20,15,13,05,193,24,21,18,30,,,,1.70,1.09,1.31*3A
$GPGSV,4,1,13,02,02,166,,04,39,050,38,05,44,114,34,13,57,031,35*7D
$GPGSV,4,2,13,15,65,317,31,18,16,308,21,20,75,331,28,21,34,298,27*72
$GPGSV,4,3,13,24,41,204,26,28,15,067,17,29,00,236,,30,08,040,24*71
$GPGSV,4,4,13,193,82,176,27*7F
$GSENS, 0.121, 0.042,-0.967
$GSENS, 0.119, 0.052,-0.963
$GSENS, 0.121, 0.046,-0.965
$GSENS, 0.117, 0.050,-0.963
$GSENS, 0.119, 0.048,-0.963
$GPRMC,064301.00,A,3540.30916,N,13921.78362,E,0.000,,221116,,,A*78
$GPGGA,064301.00,3540.30916,N,13921.78362,E,1,09,1.09,173.3,M,38.9,M,,*56
$GPGSA,A,3,20,15,13,05,193,24,21,18,30,,,,1.70,1.09,1.31*3A
$GPGSV,4,1,13,02,02,166,,04,39,050,38,05,44,114,34,13,57,031,35*7D
$GPGSV,4,2,13,15,65,317,31,18,16,308,21,20,75,331,28,21,34,298,27*72
$GPGSV,4,3,13,24,41,204,26,28,15,067,17,29,00,236,,30,08,040,24*71
$GPGSV,4,4,13,193,82,176,27*7F
$GSENS, 0.121, 0.052,-0.959
$GSENS, 0.117, 0.052,-0.967
$GSENS, 0.123, 0.044,-0.963
$GSENS, 0.121, 0.050,-0.963
$GSENS, 0.125, 0.035,-0.971
$GPRMC,064302.00,A,3540.30916,N,13921.78362,E,0.000,,221116,,,A*7B
$GPGGA,064302.00,3540.30916,N,13921.78362,E,1,09,1.09,173.3,M,38.9,M,,*55
$GPGSV,4,1,13,02,02,166,,04,39,050,37,05,44,114,34,13,57,031,34*73
$GPGSV,4,2,13,15,65,317,31,18,16,308,21,20,75,331,27,21,34,298,26*7C
$GPGSV,4,3,13,24,41,204,26,28,15,067,17,29,00,236,,30,08,040,23*76
$GPGSV,4,4,13,193,82,176,26*7E
$GSENS, 0.119, 0.050,-0.963
$GSENS, 0.121, 0.054,-0.961
$GSENS, 0.125, 0.054,-0.961
$GSENS, 0.121, 0.046,-0.967
$GSENS, 0.113, 0.054,-0.963
$GPRMC,064302.00,A,3540.30916,N,13921.78362,E,0.000,,221116,,,A*7B
$GPGGA,064302.00,3540.30916,N,13921.78362,E,1,09,1.09,173.3,M,38.9,M,,*55
$GPGSV,4,1,13,02,02,166,,04,39,050,37,05,44,114,34,13,57,031,34*73
$GPGSV,4,2,13,15,65,317,31,18,16,308,21,20,75,331,27,21,34,298,26*7C
$GPGSV,4,3,13,24,41,204,26,28,15,067,17,29,00,236,,30,08,040,23*76
$GPGSV,4,4,13,193,82,176,26*7E
$GSENS, 0.125, 0.044,-0.955
$GSENS, 0.121, 0.044,-0.965
$GSENS, 0.123, 0.054,-0.961
$GSENS, 0.117, 0.050,-0.963
$GSENS, 0.123, 0.042,-0.963
$GPRMC,064303.00,A,3540.30916,N,13921.78362,E,0.000,,221116,,,A*7A
$GPGGA,064303.00,3540.30916,N,13921.78362,E,1,09,1.09,173.3,M,38.9,M,,*54
$GPGSV,4,1,13,02,02,166,,04,39,050,39,05,44,114,34,13,57,031,35*7C
$GPGSV,4,2,13,15,65,317,32,18,16,308,22,20,75,331,27,21,34,298,27*7D
$GPGSV,4,3,13,24,41,204,27,28,15,067,18,29,00,236,,30,08,040,23*78
$GPGSV,4,4,13,193,82,176,27*7F
$GSENS, 0.125, 0.041,-0.967
$GSENS, 0.119, 0.052,-0.961
$GSENS, 0.121, 0.044,-0.959
$GSENS, 0.117, 0.050,-0.963
$GSENS, 0.117, 0.052,-0.963
$GPRMC,064303.00,A,3540.30916,N,13921.78362,E,0.000,,221116,,,A*7A
$GPGGA,064303.00,3540.30916,N,13921.78362,E,1,09,1.09,173.3,M,38.9,M,,*54
$GPGSV,4,1,13,02,02,166,,04,39,050,39,05,44,114,34,13,57,031,35*7C
$GPGSV,4,2,13,15,65,317,32,18,16,308,22,20,75,331,27,21,34,298,27*7D
$GPGSV,4,3,13,24,41,204,27,28,15,067,18,29,00,236,,30,08,040,23*78
$GPGSV,4,4,13,193,82,176,27*7F
$GSENS, 0.121, 0.042,-0.961
$GSENS, 0.119, 0.046,-0.965
$GSENS, 0.121, 0.042,-0.969
$GSENS, 0.127, 0.041,-0.965
$GSENS, 0.127, 0.042,-0.961
$GPRMC,064304.00,A,3540.30916,N,13921.78362,E,0.000,,221116,,,A*7D
$GPGGA,064304.00,3540.30916,N,13921.78362,E,1,09,1.09,173.3,M,38.9,M,,*53
$GPGSV,4,1,13,02,02,166,,04,39,050,38,05,44,114,33,13,57,031,34*7B
$GPGSV,4,2,13,15,65,317,31,18,16,308,21,20,75,331,27,21,34,298,27*7D
$GPGSV,4,3,13,24,41,204,26,28,15,067,17,29,00,236,,30,08,040,22*77
$GPGSV,4,4,13,193,82,176,27*7F
$GSENS, 0.125, 0.046,-0.963
$GSENS, 0.121, 0.042,-0.969
$GSENS, 0.123, 0.048,-0.959
$GSENS, 0.127, 0.052,-0.959
$GSENS, 0.117, 0.048,-0.965
$GPRMC,064304.00,A,3540.30916,N,13921.78362,E,0.000,,221116,,,A*7D
$GPGGA,064304.00,3540.30916,N,13921.78362,E,1,09,1.09,173.3,M,38.9,M,,*53
$GPGSV,4,1,13,02,02,166,,04,39,050,38,05,44,114,33,13,57,031,34*7B
$GPGSV,4,2,13,15,65,317,31,18,16,308,21,20,75,331,27,21,34,298,27*7D
$GPGSV,4,3,13,24,41,204,26,28,15,067,17,29,00,236,,30,08,040,22*77
$GPGSV,4,4,13,193,82,176,27*7F
$GSENS, 0.121, 0.048,-0.965
$GSENS, 0.121, 0.046,-0.963
$GSENS, 0.125, 0.048,-0.965
$GSENS, 0.117, 0.052,-0.959
$GSENS, 0.119, 0.048,-0.969
$GPRMC,064305.00,A,3540.30916,N,13921.78362,E,0.000,,221116,,,A*7C
$GPGGA,064305.00,3540.30916,N,13921.78362,E,1,09,1.09,173.3,M,38.9,M,,*52
$GPGSA,A,3,20,15,13,05,193,24,21,18,30,,,,1.70,1.09,1.31*3A
$GPGSV,4,1,13,02,02,166,,04,39,050,38,05,44,114,34,13,57,031,34*7C
$GPGSV,4,2,13,15,65,317,31,18,16,308,21,20,75,331,27,21,34,298,27*7D
$GPGSV,4,3,13,24,41,204,25,28,15,067,16,29,00,236,,30,08,040,21*76
$GPGSV,4,4,13,193,82,176,27*7F
$GSENS, 0.123, 0.041,-0.965
$GSENS, 0.123, 0.046,-0.963
$GSENS, 0.125, 0.042,-0.965
$GSENS, 0.117, 0.050,-0.969
$GSENS, 0.125, 0.041,-0.967
$GPRMC,064305.00,A,3540.30916,N,13921.78362,E,0.000,,221116,,,A*7C
$GPGGA,064305.00,3540.30916,N,13921.78362,E,1,09,1.09,173.3,M,38.9,M,,*52
$GPGSA,A,3,20,15,13,05,193,24,21,18,30,,,,1.70,1.09,1.31*3A
$GPGSV,4,1,13,02,02,166,,04,39,050,38,05,44,114,34,13,57,031,34*7C
$GPGSV,4,2,13,15,65,317,31,18,16,308,21,20,75,331,27,21,34,298,27*7D
$GPGSV,4,3,13,24,41,204,25,28,15,067,16,29,00,236,,30,08,040,21*76
$GPGSV,4,4,13,193,82,176,27*7F
$GSENS, 0.119, 0.050,-0.961
$GSENS, 0.117, 0.054,-0.961
$GSENS, 0.125, 0.044,-0.961
$GSENS, 0.123, 0.046,-0.959
$GSENS, 0.123, 0.046,-0.963
$GPRMC,064306.00,A,3540.30916,N,13921.78362,E,0.000,,221116,,,A*7F
$GPGGA,064306.00,3540.30916,N,13921.78362,E,1,09,1.09,173.3,M,38.9,M,,*51
$GPGSV,4,1,13,02,02,166,,04,39,050,38,05,44,114,34,13,57,031,34*7C
$GPGSV,4,2,13,15,65,317,31,18,16,308,22,20,75,331,27,21,34,298,27*7E
$GPGSV,4,3,13,24,41,204,25,28,15,067,15,29,00,236,,30,08,040,22*76
$GPGSV,4,4,13,193,82,176,27*7F
$GSENS, 0.117, 0.050,-0.965
$GSENS, 0.115, 0.048,-0.965
$GSENS, 0.125, 0.050,-0.959
$GSENS, 0.121, 0.048,-0.963
$GSENS, 0.123, 0.048,-0.967
$GPRMC,064306.00,A,3540.30916,N,13921.78362,E,0.000,,221116,,,A*7F
$GPGGA,064306.00,3540.30916,N,13921.78362,E,1,09,1.09,173.3,M,38.9,M,,*51
$GPGSV,4,1,13,02,02,166,,04,39,050,38,05,44,114,34,13,57,031,34*7C
$GPGSV,4,2,13,15,65,317,31,18,16,308,22,20,75,331,27,21,34,298,27*7E
$GPGSV,4,3,13,24,41,204,25,28,15,067,15,29,00,236,,30,08,040,22*76
$GPGSV,4,4,13,193,82,176,27*7F
$GSENS, 0.121, 0.042,-0.959
$GSENS, 0.119, 0.054,-0.961
$GSENS, 0.115, 0.058,-0.965
$GSENS, 0.123, 0.044,-0.953
$GSENS, 0.117, 0.048,-0.961
$GPRMC,064307.00,A,3540.30916,N,13921.78362,E,0.000,,221116,,,A*7E
$GPGGA,064307.00,3540.30916,N,13921.78362,E,1,09,1.09,173.3,M,38.9,M,,*50
$GPGSV,4,1,13,02,02,166,,04,39,050,38,05,44,114,34,13,57,031,34*7C
$GPGSV,4,2,13,15,65,317,31,18,16,308,22,20,75,331,27,21,34,298,27*7E
$GPGSV,4,3,13,24,41,204,25,28,15,067,14,29,00,236,,30,08,040,21*74
$GPGSV,4,4,13,193,82,176,27*7F
$GSENS, 0.115, 0.041,-0.965
$GSENS, 0.127, 0.037,-0.963
$GSENS, 0.123, 0.046,-0.961
$GSENS, 0.119, 0.044,-0.969
$GSENS, 0.117, 0.052,-0.959
$GPRMC,064307.00,A,3540.30916,N,13921.78362,E,0.000,,221116,,,A*7E
$GPGGA,064307.00,3540.30916,N,13921.78362,E,1,09,1.09,173.3,M,38.9,M,,*50
$GPGSV,4,1,13,02,02,166,,04,39,050,38,05,44,114,34,13,57,031,34*7C
$GPGSV,4,2,13,15,65,317,31,18,16,308,22,20,75,331,27,21,34,298,27*7E
$GPGSV,4,3,13,24,41,204,25,28,15,067,14,29,00,236,,30,08,040,21*74
$GPGSV,4,4,13,193,82,176,27*7F
$GSENS, 0.123, 0.046,-0.959
$GSENS, 0.119, 0.058,-0.961
$GSENS, 0.121, 0.048,-0.973
$GSENS, 0.123, 0.052,-0.963
$GSENS, 0.125, 0.052,-0.961
$GPRMC,064308.00,A,3540.30916,N,13921.78362,E,0.000,,221116,,,A*71
$GPGGA,064308.00,3540.30916,N,13921.78362,E,1,09,1.09,173.3,M,38.9,M,,*5F
$GPGSV,4,1,13,02,02,166,,04,39,050,38,05,44,114,34,13,57,031,35*7D
$GPGSV,4,2,13,15,65,317,31,18,16,308,22,20,75,331,27,21,34,298,27*7E
$GPGSV,4,3,13,24,41,204,25,28,15,067,13,29,00,236,,30,08,040,20*72
$GPGSV,4,4,13,193,82,176,27*7F
$GSENS, 0.125, 0.042,-0.971
$GSENS, 0.127, 0.048,-0.963
$GSENS, 0.123, 0.039,-0.971
$GSENS, 0.117, 0.054,-0.963
$GSENS, 0.117, 0.054,-0.963
$GPRMC,064308.00,A,3540.30916,N,13921.78362,E,0.000,,221116,,,A*71
$GPGGA,064308.00,3540.30916,N,13921.78362,E,1,09,1.09,173.3,M,38.9,M,,*5F
$GPGSV,4,1,13,02,02,166,,04,39,050,38,05,44,114,34,13,57,031,35*7D
$GPGSV,4,2,13,15,65,317,31,18,16,308,22,20,75,331,27,21,34,298,27*7E
$GPGSV,4,3,13,24,41,204,25,28,15,067,13,29,00,236,,30,08,040,20*72
$GPGSV,4,4,13,193,82,176,27*7F
$GSENS, 0.119, 0.048,-0.961
$GSENS, 0.119, 0.054,-0.959
$GSENS, 0.125, 0.044,-0.959
$GSENS, 0.128, 0.044,-0.963
$GSENS, 0.121, 0.046,-0.965
$GPRMC,064309.00,A,3540.30916,N,13921.78362,E,0.000,,221116,,,A*70
$GPGGA,064309.00,3540.30916,N,13921.78362,E,1,09,1.09,173.3,M,38.9,M,,*5E
$GPGSA,A,3,20,15,13,05,193,24,21,18,30,,,,1.70,1.09,1.31*3A
$GPGSV,4,1,13,02,02,166,,04,39,050,38,05,44,114,34,13,57,031,34*7C
$GPGSV,4,2,13,15,65,317,31,18,16,308,22,20,75,331,27,21,34,298,27*7E
$GPGSV,4,3,13,24,41,204,24,28,15,067,13,29,00,236,,30,08,040,20*73
$GPGSV,4,4,13,193,82,176,26*7E
$GSENS, 0.127, 0.048,-0.965
$GSENS, 0.123, 0.048,-0.967
$GSENS, 0.119, 0.052,-0.961
$GSENS, 0.125, 0.060,-0.965
$GSENS, 0.119, 0.046,-0.973
$GPRMC,064309.00,A,3540.30916,N,13921.78362,E,0.000,,221116,,,A*70
$GPGGA,064309.00,3540.30916,N,13921.78362,E,1,09,1.09,173.3,M,38.9,M,,*5E
$GPGSA,A,3,20,15,13,05,193,24,21,18,30,,,,1.70,1.09,1.31*3A
$GPGSV,4,1,13,02,02,166,,04,39,050,38,05,44,114,34,13,57,031,34*7C
$GPGSV,4,2,13,15,65,317,31,18,16,308,22,20,75,331,27,21,34,298,27*7E
$GPGSV,4,3,13,24,41,204,24,28,15,067,13,29,00,236,,30,08,040,20*73
$GPGSV,4,4,13,193,82,176,26*7E
$GSENS, 0.123, 0.048,-0.961
$GSENS, 0.117, 0.054,-0.967
$GSENS, 0.123, 0.046,-0.977
$GSENS, 0.125, 0.046,-0.957
$GSENS, 0.115, 0.058,-0.967
$GPRMC,064310.00,A,3540.30916,N,13921.78362,E,0.000,,221116,,,A*78
$GPGGA,064310.00,3540.30916,N,13921.78362,E,1,09,1.09,173.3,M,38.9,M,,*56
$GPGSV,4,1,13,02,02,166,,04,39,050,38,05,44,114,34,13,57,031,34*7C
$GPGSV,4,2,13,15,65,317,31,18,16,308,22,20,75,331,27,21,34,298,26*7F
$GPGSV,4,3,13,24,41,204,24,28,15,067,13,29,00,236,,30,08,040,20*73
$GPGSV,4,4,13,193,82,176,26*7E
$GSENS, 0.119, 0.060,-0.963
$GSENS, 0.125, 0.044,-0.965
$GSENS, 0.125, 0.048,-0.965
$GSENS, 0.115, 0.060,-0.969
$GSENS, 0.117, 0.054,-0.961
$GPRMC,064310.00,A,3540.30916,N,13921.78362,E,0.000,,221116,,,A*78
$GPGGA,064310.00,3540.30916,N,13921.78362,E,1,09,1.09,173.3,M,38.9,M,,*56
$GPGSV,4,1,13,02,02,166,,04,39,050,38,05,44,114,34,13,57,031,34*7C
$GPGSV,4,2,13,15,65,317,31,18,16,308,22,20,75,331,27,21,34,298,26*7F
$GPGSV,4,3,13,24,41,204,24,28,15,067,13,29,00,236,,30,08,040,20*73
$GPGSV,4,4,13,193,82,176,26*7E
$GSENS, 0.115, 0.048,-0.969
$GSENS, 0.119, 0.054,-0.955
$GSENS, 0.121, 0.046,-0.969
$GSENS, 0.121, 0.046,-0.963
$GSENS, 0.117, 0.056,-0.967
$GPRMC,064311.00,A,3540.30916,N,13921.78362,E,0.000,,221116,,,A*79
$GPGGA,064311.00,3540.30916,N,13921.78362,E,1,09,1.09,173.3,M,38.9,M,,*57
$GPGSV,4,1,13,02,02,166,,04,39,050,38,05,44,114,34,13,57,031,34*7C
$GPGSV,4,2,13,15,65,317,31,18,16,308,22,20,75,331,27,21,34,298,26*7F
$GPGSV,4,3,13,24,41,204,24,28,15,067,13,29,00,236,,30,08,040,20*73
$GPGSV,4,4,13,193,82,176,26*7E
$GSENS, 0.121, 0.052,-0.963
$GSENS, 0.121, 0.042,-0.965
$GSENS, 0.115, 0.060,-0.965
$GSENS, 0.117, 0.048,-0.961
$GSENS, 0.123, 0.042,-0.965
$GPRMC,064311.00,A,3540.30916,N,13921.78362,E,0.000,,221116,,,A*79
$GPGGA,064311.00,3540.30916,N,13921.78362,E,1,09,1.09,173.3,M,38.9,M,,*57
$GPGSV,4,1,13,02,02,166,,04,39,050,38,05,44,114,34,13,57,031,34*7C
$GPGSV,4,2,13,15,65,317,31,18,16,308,22,20,75,331,27,21,34,298,26*7F
$GPGSV,4,3,13,24,41,204,24,28,15,067,13,29,00,236,,30,08,040,20*73
$GPGSV,4,4,13,193,82,176,26*7E
$GSENS, 0.119, 0.050,-0.965
$GSENS, 0.125, 0.042,-0.969
$GSENS, 0.125, 0.044,-0.963
$GSENS, 0.119, 0.054,-0.961
$GSENS, 0.119, 0.058,-0.963
$GPRMC,064312.00,A,3540.30916,N,13921.78362,E,0.000,,221116,,,A*7A
$GPGGA,064312.00,3540.30916,N,13921.78362,E,1,09,1.09,173.3,M,38.9,M,,*54
$GPGSV,4,1,13,02,02,166,,04,39,050,38,05,44,114,33,13,57,031,35*7A
$GPGSV,4,2,13,15,65,317,31,18,16,308,22,20,75,331,27,21,34,298,26*7F
$GPGSV,4,3,13,24,41,204,23,28,15,067,13,29,00,236,,30,08,040,20*74
$GPGSV,4,4,13,193,82,176,26*7E
$GSENS, 0.125, 0.048,-0.959
$GSENS, 0.113, 0.056,-0.963
$GSENS, 0.115, 0.054,-0.961
$GSENS, 0.125, 0.050,-0.957
$GSENS, 0.117, 0.042,-0.971
$GPRMC,064312.00,A,3540.30916,N,13921.78362,E,0.000,,221116,,,A*7A
$GPGGA,064312.00,3540.30916,N,13921.78362,E,1,09,1.09,173.3,M,38.9,M,,*54
$GPGSV,4,1,13,02,02,166,,04,39,050,38,05,44,114,33,13,57,031,35*7A
$GPGSV,4,2,13,15,65,317,31,18,16,308,22,20,75,331,27,21,34,298,26*7F
$GPGSV,4,3,13,24,41,204,23,28,15,067,13,29,00,236,,30,08,040,20*74
$GPGSV,4,4,13,193,82,176,26*7E
$GSENS, 0.119, 0.052,-0.965
$GSENS, 0.127, 0.044,-0.965
$GSENS, 0.121, 0.042,-0.965
$GSENS, 0.115, 0.056,-0.963
$GSENS, 0.121, 0.058,-0.967
$GPRMC,064313.00,A,3540.30916,N,13921.78362,E,0.000,,221116,,,A*7B
$GPGGA,064313.00,3540.30916,N,13921.78362,E,1,09,1.09,173.3,M,38.9,M,,*55
$GPGSA,A,3,20,15,13,05,193,24,21,18,30,,,,1.70,1.09,1.31*3A
$GPGSV,4,1,13,02,02,166,,04,38,050,38,05,44,114,33,13,57,031,35*7B
$GPGSV,4,2,13,15,65,317,31,18,16,308,22,20,75,331,27,21,34,298,26*7F
$GPGSV,4,3,13,24,41,204,23,28,15,067,12,29,00,236,,30,08,040,20*75
$GPGSV,4,4,13,193,82,176,26*7E
$GSENS, 0.119, 0.044,-0.961
$GSENS, 0.123, 0.060,-0.961
$GSENS, 0.113, 0.060,-0.959
$GSENS, 0.125, 0.046,-0.963
$GSENS, 0.123, 0.048,-0.967
$GPRMC,064313.00,A,3540.30916,N,13921.78362,E,0.000,,221116,,,A*7B
$GPGGA,064313.00,3540.30916,N,13921.78362,E,1,09,1.09,173.3,M,38.9,M,,*55
$GPGSA,A,3,20,15,13,05,193,24,21,18,30,,,,1.70,1.09,1.31*3A
$GPGSV,4,1,13,02,02,166,,04,38,050,38,05,44,114,33,13,57,031,35*7B
$GPGSV,4,2,13,15,65,317,31,18,16,308,22,20,75,331,27,21,34,298,26*7F
$GPGSV,4,3,13,24,41,204,23,28,15,067,12,29,00,236,,30,08,040,20*75
$GPGSV,4,4,13,193,82,176,26*7E
$GSENS, 0.121, 0.042,-0.971
$GSENS, 0.119, 0.048,-0.959
$GSENS, 0.117, 0.056,-0.965
$GSENS, 0.125, 0.041,-0.971
$GSENS, 0.119, 0.048,-0.961
$GPRMC,064314.00,A,3540.30916,N,13921.78362,E,0.000,,221116,,,A*7C
$GPGGA,064314.00,3540.30916,N,13921.78362,E,1,09,1.09,173.3,M,38.9,M,,*52
$GPGSV,4,1,13,02,02,166,,04,38,050,38,05,44,114,33,13,57,031,35*7B
$GPGSV,4,2,13,15,65,317,31,18,16,308,22,20,75,331,27,21,34,298,26*7F
$GPGSV,4,3,13,24,41,204,22,28,15,067,11,29,00,236,,30,08,040,20*77
$GPGSV,4,4,13,193,82,176,26*7E
$GSENS, 0.123, 0.041,-0.965
$GSENS, 0.113, 0.050,-0.967
$GSENS, 0.113, 0.058,-0.963
$GSENS, 0.123, 0.050,-0.965
$GSENS, 0.123, 0.052,-0.959
$GPRMC,064314.00,A,3540.30916,N,13921.78362,E,0.000,,221116,,,A*7C
$GPGGA,064314.00,3540.30916,N,13921.78362,E,1,09,1.09,173.3,M,38.9,M,,*52
$GPGSV,4,1,13,02,02,166,,04,38,050,38,05,44,114,33,13,57,031,35*7B
$GPGSV,4,2,13,15,65,317,31,18,16,308,22,20,75,331,27,21,34,298,26*7F
$GPGSV,4,3,13,24,41,204,22,28,15,067,11,29,00,236,,30,08,040,20*77
$GPGSV,4,4,13,193,82,176,26*7E
$GSENS, 0.115, 0.052,-0.967
$GSENS, 0.125, 0.046,-0.961
$GSENS, 0.127, 0.041,-0.971
$GSENS, 0.127, 0.042,-0.973
$GSENS, 0.123, 0.048,-0.957
$GPRMC,064315.00,A,3540.30916,N,13921.78362,E,0.000,,221116,,,A*7D
$GPGGA,064315.00,3540.30916,N,13921.78362,E,1,09,1.09,173.3,M,38.9,M,,*53
$GPGSV,4,1,13,02,02,166,,04,38,050,38,05,44,114,33,13,57,031,35*7B
$GPGSV,4,2,13,15,65,317,31,18,16,308,22,20,75,331,27,21,34,298,26*7F
$GPGSV,4,3,13,24,41,204,22,28,15,067,10,29,00,236,,30,08,040,21*77
$GPGSV,4,4,13,193,82,176,26*7E
$GSENS, 0.119, 0.048,-0.969
$GSENS, 0.119, 0.052,-0.967
$GSENS, 0.125, 0.048,-0.965
$GSENS, 0.128, 0.046,-0.961
$GSENS, 0.115, 0.056,-0.959
$GPRMC,064315.00,A,3540.30916,N,13921.78362,E,0.000,,221116,,,A*7D
$GPGGA,064315.00,3540.30916,N,13921.78362,E,1,09,1.09,173.3,M,38.9,M,,*53
$GPGSV,4,1,13,02,02,166,,04,38,050,38,05,44,114,33,13,57,031,35*7B
$GPGSV,4,2,13,15,65,317,31,18,16,308,22,20,75,331,27,21,34,298,26*7F
$GPGSV,4,3,13,24,41,204,22,28,15,067,10,29,00,236,,30,08,040,21*77
$GPGSV,4,4,13,193,82,176,26*7E
$GSENS, 0.127, 0.044,-0.959
$GSENS, 0.117, 0.052,-0.957
$GSENS, 0.121, 0.042,-0.969
$GSENS, 0.121, 0.048,-0.963
$GSENS, 0.119, 0.054,-0.959
$GPRMC,064316.00,A,3540.30916,N,13921.78362,E,0.000,,221116,,,A*7E
$GPGGA,064316.00,3540.30916,N,13921.78362,E,1,09,1.09,173.3,M,38.9,M,,*50
$GPGSV,4,1,13,02,02,166,,04,38,050,39,05,44,114,33,13,57,031,36*79
$GPGSV,4,2,13,15,65,317,32,18,16,308,23,20,75,331,28,21,34,298,27*73
$GPGSV,4,3,13,24,41,204,23,28,15,067,12,29,00,236,,30,08,040,22*77
$GPGSV,4,4,13,193,82,176,26*7E
$GSENS, 0.117, 0.056,-0.955
$GSENS, 0.127, 0.052,-0.959
$GSENS, 0.119, 0.052,-0.963
$GSENS, 0.125, 0.058,-0.957
$GSENS, 0.121, 0.048,-0.957
$GPRMC,064316.00,A,3540.30916,N,13921.78362,E,0.000,,221116,,,A*7E
$GPGGA,064316.00,3540.30916,N,13921.78362,E,1,09,1.09,173.3,M,38.9,M,,*50
$GPGSV,4,1,13,02,02,166,,04,38,050,39,05,44,114,33,13,57,031,36*79
$GPGSV,4,2,13,15,65,317,32,18,16,308,23,20,75,331,28,21,34,298,27*73
$GPGSV,4,3,13,24,41,204,23,28,15,067,12,29,00,236,,30,08,040,22*77
$GPGSV,4,4,13,193,82,176,26*7E
$GSENS, 0.127, 0.039,-0.961
$GSENS, 0.125, 0.042,-0.959
$GSENS, 0.127, 0.044,-0.959
$GSENS, 0.123, 0.046,-0.963
$GSENS, 0.127, 0.041,-0.963
$GPRMC,064317.00,A,3540.30916,N,13921.78362,E,0.000,,221116,,,A*7F
$GPGGA,064317.00,3540.30916,N,13921.78362,E,1,09,1.09,173.3,M,38.9,M,,*51
$GPGSA,A,3,20,15,13,05,193,24,21,18,30,,,,1.70,1.09,1.31*3A
$GPGSV,4,1,13,02,02,166,,04,38,050,38,05,44,114,33,13,57,031,36*78
$GPGSV,4,2,13,15,65,317,32,18,16,308,23,20,75,331,28,21,34,298,27*73
$GPGSV,4,3,13,24,41,204,23,28,15,067,14,29,00,236,,30,08,040,22*71
$GPGSV,4,4,13,193,82,176,26*7E
$GSENS, 0.121, 0.033,-0.965
$GSENS, 0.123, 0.048,-0.969
$GSENS, 0.117, 0.048,-0.959
$GSENS, 0.115, 0.048,-0.963
$GSENS, 0.119, 0.052,-0.959
$GPRMC,064317.00,A,3540.30916,N,13921.78362,E,0.000,,221116,,,A*7F
$GPGGA,064317.00,3540.30916,N,13921.78362,E,1,09,1.09,173.3,M,38.9,M,,*51
$GPGSA,A,3,20,15,13,05,193,24,21,18,30,,,,1.70,1.09,1.31*3A
$GPGSV,4,1,13,02,02,166,,04,38,050,38,05,44,114,33,13,57,031,36*78
$GPGSV,4,2,13,15,65,317,32,18,16,308,23,20,75,331,28,21,34,298,27*73
$GPGSV,4,3,13,24,41,204,23,28,15,067,14,29,00,236,,30,08,040,22*71
$GPGSV,4,4,13,193,82,176,26*7E
$GSENS, 0.121, 0.044,-0.959
$GSENS, 0.127, 0.048,-0.957
$GSENS, 0.115, 0.052,-0.963
$GSENS, 0.121, 0.052,-0.965
$GSENS, 0.123, 0.042,-0.965
$GPRMC,064318.00,A,3540.30916,N,13921.78362,E,0.000,,221116,,,A*70
$GPGGA,064318.00,3540.30916,N,13921.78362,E,1,09,1.09,173.3,M,38.9,M,,*5E
$GPGSV,4,1,13,02,02,166,,04,38,050,38,05,44,114,33,13,57,031,36*78
$GPGSV,4,2,13,15,65,317,32,18,16,308,21,20,75,331,28,21,34,298,27*71
$GPGSV,4,3,13,24,41,204,23,28,15,067,14,29,00,236,,30,08,040,22*71
$GPGSV,4,4,13,193,82,176,26*7E
$GSENS, 0.119, 0.048,-0.969
$GSENS, 0.121, 0.041,-0.961
$GSENS, 0.121, 0.048,-0.961
$GSENS, 0.119, 0.046,-0.969
$GSENS, 0.119, 0.050,-0.961
$GPRMC,064318.00,A,3540.30916,N,13921.78362,E,0.000,,221116,,,A*70
$GPGGA,064318.00,3540.30916,N,13921.78362,E,1,09,1.09,173.3,M,38.9,M,,*5E
$GPGSV,4,1,13,02,02,166,,04,38,050,38,05,44,114,33,13,57,031,36*78
$GPGSV,4,2,13,15,65,317,32,18,16,308,21,20,75,331,28,21,34,298,27*71
$GPGSV,4,3,13,24,41,204,23,28,15,067,14,29,00,236,,30,08,040,22*71
$GPGSV,4,4,13,193,82,176,26*7E
$GSENS, 0.125, 0.048,-0.957
$GSENS, 0.113, 0.052,-0.965
$GSENS, 0.123, 0.042,-0.965
$GSENS, 0.117, 0.050,-0.963
$GSENS, 0.119, 0.050,-0.969
$GPRMC,064319.00,A,3540.30916,N,13921.78362,E,0.000,,221116,,,A*71
$GPGGA,064319.00,3540.30916,N,13921.78362,E,1,09,1.09,173.3,M,38.9,M,,*5F
$GPGSV,4,1,13,02,02,166,15,04,38,050,39,05,44,114,33,13,57,031,36*7D
$GPGSV,4,2,13,15,65,317,32,18,16,308,21,20,75,331,28,21,34,298,27*71
$GPGSV,4,3,13,24,41,204,22,28,15,067,14,29,00,236,,30,08,040,22*70
$GPGSV,4,4,13,193,82,176,26*7E
$GSENS, 0.121, 0.046,-0.965
$GSENS, 0.119, 0.054,-0.961
$GSENS, 0.121, 0.044,-0.961
$GSENS, 0.115, 0.048,-0.965
$GSENS, 0.121, 0.050,-0.959
$GPRMC,064319.00,A,3540.30916,N,13921.78362,E,0.000,,221116,,,A*71
$GPGGA,064319.00,3540.30916,N,13921.78362,E,1,09,1.09,173.3,M,38.9,M,,*5F
$GPGSV,4,1,13,02,02,166,15,04,38,050,39,05,44,114,33,13,57,031,36*7D
$GPGSV,4,2,13,15,65,317,32,18,16,308,21,20,75,331,28,21,34,298,27*71
$GPGSV,4,3,13,24,41,204,22,28,15,067,14,29,00,236,,30,08,040,22*70
$GPGSV,4,4,13,193,82,176,26*7E
$GSENS, 0.121, 0.044,-0.961
$GSENS, 0.123, 0.050,-0.965
$GSENS, 0.121, 0.048,-0.971
$GSENS, 0.125, 0.044,-0.957
$GSENS, 0.123, 0.050,-0.959
$GPRMC,064320.00,A,3540.30916,N,13921.78362,E,0.000,,221116,,,A*7B
$GPGGA,064320.00,3540.30916,N,13921.78362,E,1,09,1.09,173.3,M,38.9,M,,*55
$GPGSV,4,1,13,02,02,166,11,04,38,050,38,05,44,114,32,13,57,031,35*7A
$GPGSV,4,2,13,15,65,317,31,18,16,308,21,20,75,331,27,21,34,298,26*7C
$GPGSV,4,3,13,24,41,204,22,28,15,067,10,29,00,236,,30,08,040,23*75
$GPGSV,4,4,13,193,82,176,26*7E
$GSENS, 0.121, 0.052,-0.961
$GSENS, 0.119, 0.046,-0.963
$GSENS, 0.121, 0.048,-0.961
$GSENS, 0.121, 0.048,-0.959
$GSENS, 0.123, 0.052,-0.963
$GPRMC,064320.00,A,3540.30916,N,13921.78362,E,0.000,,221116,,,A*7B
$GPGGA,064320.00,3540.30916,N,13921.78362,E,1,09,1.09,173.3,M,38.9,M,,*55
$GPGSV,4,1,13,02,02,166,11,04,38,050,38,05,44,114,32,13,57,031,35*7A
$GPGSV,4,2,13,15,65,317,31,18,16,308,21,20,75,331,27,21,34,298,26*7C
$GPGSV,4,3,13,24,41,204,22,28,15,067,10,29,00,236,,30,08,040,23*75
$GPGSV,4,4,13,193,82,176,26*7E
$GSENS, 0.115, 0.048,-0.955
$GSENS, 0.119, 0.042,-0.971
$GSENS, 0.117, 0.052,-0.969
$GSENS, 0.125, 0.050,-0.955
$GSENS, 0.123, 0.044,-0.965
$GPRMC,064321.00,A,3540.30916,N,13921.78362,E,0.000,,221116,,,A*7A
$GPGGA,064321.00,3540.30916,N,13921.78362,E,1,09,1.09,173.3,M,38.9,M,,*54
$GPGSA,A,3,20,15,13,05,193,24,21,18,30,,,,1.70,1.09,1.31*3A
$GPGSV,4,1,13,02,02,166,10,04,38,050,38,05,44,114,33,13,57,031,35*7A
$GPGSV,4,2,13,15,65,317,31,18,16,308,22,20,75,331,28,21,34,298,27*71
$GPGSV,4,3,13,24,41,204,22,28,15,067,09,29,00,236,,30,08,040,23*7D
$GPGSV,4,4,13,193,82,176,26*7E
$GSENS, 0.119, 0.046,-0.967
$GSENS, 0.128, 0.042,-0.959
$GSENS, 0.119, 0.046,-0.963
$GSENS, 0.117, 0.050,-0.963
$GSENS, 0.128, 0.041,-0.967
$GPRMC,064321.00,A,3540.30916,N,13921.78362,E,0.000,,221116,,,A*7A
$GPGGA,064321.00,3540.30916,N,13921.78362,E,1,09,1.09,173.3,M,38.9,M,,*54
$GPGSA,A,3,20,15,13,05,193,24,21,18,30,,,,1.70,1.09,1.31*3A
$GPGSV,4,1,13,02,02,166,10,04,38,050,38,05,44,114,33,13,57,031,35*7A
$GPGSV,4,2,13,15,65,317,31,18,16,308,22,20,75,331,28,21,34,298,27*71
$GPGSV,4,3,13,24,41,204,22,28,15,067,09,29,00,236,,30,08,040,23*7D
$GPGSV,4,4,13,193,82,176,26*7E
$GSENS, 0.121, 0.046,-0.965
$GSENS, 0.121, 0.052,-0.963
$GSENS, 0.113, 0.050,-0.963
$GSENS, 0.123, 0.046,-0.963
$GSENS, 0.111, 0.058,-0.959
$GPRMC,064322.00,A,3540.30916,N,13921.78362,E,0.000,,221116,,,A*79
$GPGGA,064322.00,3540.30916,N,13921.78362,E,1,09,1.09,173.3,M,38.9,M,,*57
$GPGSV,4,1,13,02,02,166,09,04,38,050,38,05,44,114,33,13,57,031,35*72
$GPGSV,4,2,13,15,65,317,31,18,16,308,22,20,75,331,28,21,34,298,27*71
$GPGSV,4,3,13,24,41,204,23,28,15,067,08,29,00,236,,30,08,040,24*7A
$GPGSV,4,4,13,193,82,176,26*7E
$GSENS, 0.117, 0.056,-0.963
$GSENS, 0.123, 0.048,-0.959
$GSENS, 0.125, 0.044,-0.967
$GSENS, 0.125, 0.044,-0.967
$GSENS, 0.123, 0.042,-0.961
$GPRMC,064322.00,A,3540.30916,N,13921.78362,E,0.000,,221116,,,A*79
$GPGGA,064322.00,3540.30916,N,13921.78362,E,1,09,1.09,173.3,M,38.9,M,,*57
$GPGSV,4,1,13,02,02,166,09,04,38,050,38,05,44,114,33,13,57,031,35*72
$GPGSV,4,2,13,15,65,317,31,18,16,308,22,20,75,331,28,21,34,298,27*71
$GPGSV,4,3,13,24,41,204,23,28,15,067,08,29,00,236,,30,08,040,24*7A
$GPGSV,4,4,13,193,82,176,26*7E
$GSENS, 0.117, 0.042,-0.965
$GSENS, 0.123, 0.052,-0.963
$GSENS, 0.119, 0.052,-0.961
$GSENS, 0.125, 0.048,-0.957
$GSENS, 0.121, 0.050,-0.963
$GPRMC,064323.00,A,3540.30916,N,13921.78362,E,0.000,,221116,,,A*78
$GPGGA,064323.00,3540.30916,N,13921.78362,E,1,09,1.09,173.3,M,38.9,M,,*56
$GPGSV,4,1,13,02,02,166,09,04,38,050,38,05,44,114,32,13,57,031,34*72
$GPGSV,4,2,13,15,65,317,31,18,16,308,21,20,75,331,27,21,34,298,26*7C
$GPGSV,4,3,13,24,41,204,23,28,15,067,08,29,00,236,,30,08,040,24*7A
$GPGSV,4,4,13,193,82,176,26*7E
$GSENS, 0.117, 0.050,-0.969
$GSENS, 0.121, 0.048,-0.961
$GSENS, 0.127, 0.044,-0.959
$GSENS, 0.123, 0.054,-0.961
$GSENS, 0.125, 0.052,-0.957
$GPRMC,064323.00,A,3540.30916,N,13921.78362,E,0.000,,221116,,,A*78
$GPGGA,064323.00,3540.30916,N,13921.78362,E,1,09,1.09,173.3,M,38.9,M,,*56
$GPGSV,4,1,13,02,02,166,09,04,38,050,38,05,44,114,32,13,57,031,34*72
$GPGSV,4,2,13,15,65,317,31,18,16,308,21,20,75,331,27,21,34,298,26*7C
$GPGSV,4,3,13,24,41,204,23,28,15,067,08,29,00,236,,30,08,040,24*7A
$GPGSV,4,4,13,193,82,176,26*7E
$GSENS, 0.119, 0.048,-0.961
$GSENS, 0.119, 0.048,-0.963
$GSENS, 0.115, 0.052,-0.967
$GSENS, 0.125, 0.050,-0.955
$GSENS, 0.117, 0.052,-0.963
$GPRMC,064324.00,A,3540.30916,N,13921.78362,E,0.000,,221116,,,A*7F
$GPGGA,064324.00,3540.30916,N,13921.78362,E,1,09,1.09,173.3,M,38.9,M,,*51
$GPGSV,4,1,13,02,02,166,09,04,38,050,38,05,44,114,32,13,57,031,34*72
$GPGSV,4,2,13,15,65,318,31,18,16,308,21,20,75,331,27,21,34,298,26*73
$GPGSV,4,3,13,24,41,204,23,28,15,067,08,29,00,236,,30,08,040,25*7B
$GPGSV,4,4,13,193,82,176,25*7D
$GSENS, 0.121, 0.056,-0.965
$GSENS, 0.115, 0.042,-0.965
$GSENS, 0.125, 0.050,-0.961
$GSENS, 0.123, 0.050,-0.959
$GSENS, 0.119, 0.052,-0.961
$GPRMC,064324.00,A,3540.30916,N,13921.78362,E,0.000,,221116,,,A*7F
$GPGGA,064324.00,3540.30916,N,13921.78362,E,1,09,1.09,173.3,M,38.9,M,,*51
$GPGSV,4,1,13,02,02,166,09,04,38,050,38,05,44,114,32,13,57,031,34*72
$GPGSV,4,2,13,15,65,318,31,18,16,308,21,20,75,331,27,21,34,298,26*73
$GPGSV,4,3,13,24,41,204,23,28,15,067,08,29,00,236,,30,08,040,25*7B
$GPGSV,4,4,13,193,82,176,25*7D
$GSENS, 0.115, 0.044,-0.967
$GSENS, 0.123, 0.056,-0.967
$GSENS, 0.123, 0.044,-0.967
$GSENS, 0.121, 0.042,-0.963
$GSENS, 0.119, 0.054,-0.961
$GPRMC,064325.00,A,3540.30916,N,13921.78362,E,0.000,,221116,,,A*7E
$GPGGA,064325.00,3540.30916,N,13921.78362,E,1,09,1.09,173.3,M,38.9,M,,*50
$GPGSA,A,3,20,15,13,05,193,24,21,18,30,,,,1.70,1.09,1.31*3A
