$GTRIP,05533fc7
$GPRMC,082649.00,A,3540.32291,N,13921.78560,E,0.034,,061016,,,A*7B
$GPGGA,082649.00,3540.32291,N,13921.78560,E,1,09,1.06,120.8,M,38.9,M,,*57
$GPGSV,4,1,15,02,42,167,29,04,74,013,42,05,68,039,39,06,08,152,*77
$GPGSV,4,2,15,07,13,040,23,13,75,276,40,15,41,255,20,20,36,306,42*79
$GPGSV,4,3,15,21,11,319,15,24,03,199,,29,21,268,19,30,35,060,26*79
$GPGSV,4,4,15,42,48,170,,50,48,170,,193,,,33*45
$GSENS, 0.041,-0.199, 0.957
$GSENS, 0.039,-0.201, 0.953
$GSENS, 0.021,-0.203, 0.947
$GSENS, 0.035,-0.201, 0.957
$GSENS, 0.025,-0.201, 0.947
$GPRMC,082649.00,A,3540.32291,N,13921.78560,E,0.034,,061016,,,A*7B
$GPGGA,082649.00,3540.32291,N,13921.78560,E,1,09,1.06,120.8,M,38.9,M,,*57
$GPGSV,4,1,15,02,42,167,29,04,74,013,42,05,68,039,39,06,08,152,*77
$GPGSV,4,2,15,07,13,040,23,13,75,276,40,15,41,255,20,20,36,306,42*79
$GPGSV,4,3,15,21,11,319,15,24,03,199,,29,21,268,19,30,35,060,26*79
$GPGSV,4,4,15,42,48,170,,50,48,170,,193,,,33*45
$GSENS, 0.027,-0.207, 0.953
$GSENS, 0.048,-0.199, 0.951
$GSENS, 0.044,-0.193, 0.953
$GSENS, 0.019,-0.195, 0.945
$GSENS, 0.042,-0.203, 0.951
$GPRMC,082650.00,A,3540.32275,N,13921.78565,E,0.112,,061016,,,A*79
$GPGGA,082650.00,3540.32275,N,13921.78565,E,1,09,1.12,120.7,M,38.9,M,,*5A
$GPGSA,A,3,13,05,02,30,15,07,20,29,21,,,,1.95,1.12,1.60*05
$GPGSV,4,1,15,02,42,167,31,04,74,013,41,05,68,039,38,06,08,152,*7C
$GPGSV,4,2,15,07,13,040,23,13,75,276,40,15,41,255,19,20,36,306,42*73
$GPGSV,4,3,15,21,11,319,16,24,03,199,,29,21,268,18,30,35,060,27*7A
$GPGSV,4,4,15,42,48,170,,50,48,170,,193,,,33*45
$GSENS, 0.029,-0.207, 0.957
$GSENS, 0.021,-0.201, 0.939
$GSENS, 0.041,-0.201, 0.957
$GSENS, 0.033,-0.209, 0.951
$GSENS, 0.021,-0.197, 0.947
$GPRMC,082650.00,A,3540.32275,N,13921.78565,E,0.112,,061016,,,A*79
$GPGGA,082650.00,3540.32275,N,13921.78565,E,1,09,1.12,120.7,M,38.9,M,,*5A
$GPGSA,A,3,13,05,02,30,15,07,20,29,21,,,,1.95,1.12,1.60*05
$GPGSV,4,1,15,02,42,167,31,04,74,013,41,05,68,039,38,06,08,152,*7C
$GPGSV,4,2,15,07,13,040,23,13,75,276,40,15,41,255,19,20,36,306,42*73
$GPGSV,4,3,15,21,11,319,16,24,03,199,,29,21,268,18,30,35,060,27*7A
$GPGSV,4,4,15,42,48,170,,50,48,170,,193,,,33*45
$GSENS, 0.037,-0.197, 0.955
$GSENS, 0.011,-0.207, 0.943
$GSENS, 0.031,-0.201, 0.951
$GSENS, 0.029,-0.203, 0.957
$GSENS, 0.027,-0.193, 0.951
$GPRMC,082651.00,A,3540.32265,N,13921.78572,E,0.072,,061016,,,A*78
$GPGGA,082651.00,3540.32265,N,13921.78572,E,1,08,1.21,120.7,M,38.9,M,,*5D
$GPGSV,4,1,15,02,42,167,31,04,74,013,41,05,68,039,38,06,08,152,*7C
$GPGSV,4,2,15,07,13,040,26,13,75,276,39,15,41,255,19,20,36,306,43*79
$GPGSV,4,3,15,21,11,319,18,24,03,199,,29,21,268,24,30,35,060,27*7B
$GPGSV,4,4,15,42,48,170,,50,48,170,,193,,,33*45
$GSENS, 0.042,-0.203, 0.951
$GSENS, 0.023,-0.207, 0.949
$GSENS, 0.039,-0.195, 0.951
$GSENS, 0.041,-0.201, 0.957
$GSENS, 0.015,-0.207, 0.943
$GPRMC,082651.00,A,3540.32265,N,13921.78572,E,0.072,,061016,,,A*78
$GPGGA,082651.00,3540.32265,N,13921.78572,E,1,08,1.21,120.7,M,38.9,M,,*5D
$GPGSV,4,1,15,02,42,167,31,04,74,013,41,05,68,039,38,06,08,152,*7C
$GPGSV,4,2,15,07,13,040,26,13,75,276,39,15,41,255,19,20,36,306,43*79
$GPGSV,4,3,15,21,11,319,18,24,03,199,,29,21,268,24,30,35,060,27*7B
$GPGSV,4,4,15,42,48,170,,50,48,170,,193,,,33*45
$GSENS, 0.031,-0.203, 0.953
$GSENS, 0.035,-0.205, 0.951
$GSENS, 0.029,-0.201, 0.949
$GSENS, 0.039,-0.197, 0.955
$GSENS, 0.019,-0.209, 0.949
$GPRMC,082652.00,A,3540.32253,N,13921.78582,E,0.074,,061016,,,A*77
$GPGGA,082652.00,3540.32253,N,13921.78582,E,1,08,1.12,120.6,M,38.9,M,,*55
$GPGSV,4,1,15,02,42,167,31,04,74,013,40,05,68,039,37,06,08,152,*72
$GPGSV,4,2,15,07,13,040,29,13,75,276,40,15,41,255,18,20,36,306,43*79
$GPGSV,4,3,15,21,11,319,18,24,03,199,,29,21,268,22,30,35,060,27*7D
$GPGSV,4,4,15,42,48,170,,50,48,170,,193,,,33*45
$GSENS, 0.027,-0.199, 0.949
$GSENS, 0.029,-0.209, 0.945
$GSENS, 0.015,-0.193, 0.945
$GSENS, 0.035,-0.201, 0.953
$GSENS, 0.027,-0.203, 0.955
$GPRMC,082652.00,A,3540.32253,N,13921.78582,E,0.074,,061016,,,A*77
$GPGGA,082652.00,3540.32253,N,13921.78582,E,1,08,1.12,120.6,M,38.9,M,,*55
$GPGSV,4,1,15,02,42,167,31,04,74,013,40,05,68,039,37,06,08,152,*72
$GPGSV,4,2,15,07,13,040,29,13,75,276,40,15,41,255,18,20,36,306,43*79
$GPGSV,4,3,15,21,11,319,18,24,03,199,,29,21,268,22,30,35,060,27*7D
$GPGSV,4,4,15,42,48,170,,50,48,170,,193,,,33*45
$GSENS, 0.039,-0.203, 0.951
$GSENS, 0.041,-0.201, 0.955
$GSENS, 0.017,-0.205, 0.953
$GSENS, 0.044,-0.201, 0.953
$GSENS, 0.035,-0.205, 0.949
$GPRMC,082653.00,A,3540.32248,N,13921.78590,E,0.094,,061016,,,A*71
$GPGGA,082653.00,3540.32248,N,13921.78590,E,1,08,1.12,120.7,M,38.9,M,,*5C
$GPGSV,4,1,15,02,42,167,31,04,74,013,40,05,68,039,37,06,08,152,*72
$GPGSV,4,2,15,07,13,040,18,13,75,276,40,15,41,255,18,20,36,306,43*7B
$GPGSV,4,3,15,21,11,319,18,24,03,199,,29,21,268,18,30,35,060,26*75
$GPGSV,4,4,15,42,48,170,,50,48,170,,193,,,32*44
$GSENS, 0.031,-0.197, 0.947
$GSENS, 0.044,-0.195, 0.951
$GSENS, 0.025,-0.205, 0.949
$GSENS, 0.041,-0.193, 0.955
$GSENS, 0.035,-0.207, 0.957
$GPRMC,082653.00,A,3540.32248,N,13921.78590,E,0.094,,061016,,,A*71
$GPGGA,082653.00,3540.32248,N,13921.78590,E,1,08,1.12,120.7,M,38.9,M,,*5C
$GPGSV,4,1,15,02,42,167,31,04,74,013,40,05,68,039,37,06,08,152,*72
$GPGSV,4,2,15,07,13,040,18,13,75,276,40,15,41,255,18,20,36,306,43*7B
$GPGSV,4,3,15,21,11,319,18,24,03,199,,29,21,268,18,30,35,060,26*75
$GPGSV,4,4,15,42,48,170,,50,48,170,,193,,,32*44
$GSENS, 0.029,-0.197, 0.945
$GSENS, 0.039,-0.195, 0.951
$GSENS, 0.019,-0.201, 0.947
$GSENS, 0.039,-0.195, 0.955
$GSENS, 0.019,-0.211, 0.953
$GPRMC,082654.00,A,3540.32238,N,13921.78597,E,0.135,,061016,,,A*7C
$GPGGA,082654.00,3540.32238,N,13921.78597,E,1,08,1.12,120.8,M,38.9,M,,*54
$GPGSA,A,3,13,05,02,30,15,07,20,21,,,,,1.97,1.12,1.62*0E
$GPGSV,4,1,15,02,42,167,31,04,74,013,40,05,68,039,36,06,08,152,*73
$GPGSV,4,2,15,07,13,040,22,13,75,276,40,15,41,255,17,20,36,306,43*7D
$GPGSV,4,3,15,21,11,319,19,24,03,199,,29,21,268,18,30,35,060,26*74
$GPGSV,4,4,15,42,48,170,,50,48,170,,193,,,31*47
$GSENS, 0.037,-0.197, 0.955
$GSENS, 0.029,-0.195, 0.951
$GSENS, 0.035,-0.203, 0.955
$GSENS, 0.017,-0.201, 0.949
$GSENS, 0.037,-0.203, 0.951
$GPRMC,082654.00,A,3540.32238,N,13921.78597,E,0.135,,061016,,,A*7C
$GPGGA,082654.00,3540.32238,N,13921.78597,E,1,08,1.12,120.8,M,38.9,M,,*54
$GPGSA,A,3,13,05,02,30,15,07,20,21,,,,,1.97,1.12,1.62*0E
$GPGSV,4,1,15,02,42,167,31,04,74,013,40,05,68,039,36,06,08,152,*73
$GPGSV,4,2,15,07,13,040,22,13,75,276,40,15,41,255,17,20,36,306,43*7D
$GPGSV,4,3,15,21,11,319,19,24,03,199,,29,21,268,18,30,35,060,26*74
$GPGSV,4,4,15,42,48,170,,50,48,170,,193,,,31*47
$GSENS, 0.029,-0.201, 0.953
$GSENS, 0.035,-0.189, 0.943
$GSENS, 0.031,-0.211, 0.953
$GSENS, 0.009,-0.211, 0.951
$GSENS, 0.033,-0.203, 0.949
$GPRMC,082655.00,A,3540.32227,N,13921.78608,E,0.018,,061016,,,A*78
$GPGGA,082655.00,3540.32227,N,13921.78608,E,1,09,1.05,120.7,M,38.9,M,,*56
$GPGSV,4,1,15,02,42,167,32,04,74,013,40,05,68,039,36,06,08,152,*70
$GPGSV,4,2,15,07,13,040,23,13,75,276,40,15,41,255,18,20,36,306,43*73
$GPGSV,4,3,15,21,11,319,17,24,03,199,,29,21,268,18,30,35,060,25*79
$GPGSV,4,4,15,42,48,170,,50,48,170,,193,,,30*46
$GSENS, 0.035,-0.201, 0.949
$GSENS, 0.021,-0.199, 0.949
$GSENS, 0.035,-0.201, 0.955
$GSENS, 0.027,-0.205, 0.949
$GSENS, 0.035,-0.193, 0.949
$GPRMC,082655.00,A,3540.32227,N,13921.78608,E,0.018,,061016,,,A*78
$GPGGA,082655.00,3540.32227,N,13921.78608,E,1,09,1.05,120.7,M,38.9,M,,*56
$GPGSV,4,1,15,02,42,167,32,04,74,013,40,05,68,039,36,06,08,152,*70
$GPGSV,4,2,15,07,13,040,23,13,75,276,40,15,41,255,18,20,36,306,43*73
$GPGSV,4,3,15,21,11,319,17,24,03,199,,29,21,268,18,30,35,060,25*79
$GPGSV,4,4,15,42,48,170,,50,48,170,,193,,,30*46
$GSENS, 0.039,-0.195, 0.955
$GSENS, 0.021,-0.212, 0.953
$GSENS, 0.044,-0.189, 0.951
$GSENS, 0.046,-0.191, 0.953
$GSENS, 0.027,-0.197, 0.951
$GPRMC,082656.00,A,3540.32220,N,13921.78619,E,0.107,,061016,,,A*73
$GPGGA,082656.00,3540.32220,N,13921.78619,E,1,08,1.12,120.8,M,38.9,M,,*5A
$GPGSV,4,1,15,02,42,168,31,04,74,013,40,05,68,039,36,06,08,152,*7C
$GPGSV,4,2,15,07,13,040,25,13,75,276,40,15,41,255,18,20,36,306,44*72
$GPGSV,4,3,15,21,11,319,17,24,03,199,,29,21,268,,30,35,060,25*70
$GPGSV,4,4,15,42,48,170,,50,48,170,,193,,,30*46
$GSENS, 0.029,-0.207, 0.951
$GSENS, 0.021,-0.207, 0.949
$GSENS, 0.084,-0.207, 0.961
$GSENS,-0.158,-0.254, 0.934
$GSENS, 0.068,-0.201, 0.971
$GPRMC,082656.00,A,3540.32220,N,13921.78619,E,0.107,,061016,,,A*73
$GPGGA,082656.00,3540.32220,N,13921.78619,E,1,08,1.12,120.8,M,38.9,M,,*5A
$GPGSV,4,1,15,02,42,168,31,04,74,013,40,05,68,039,36,06,08,152,*7C
$GPGSV,4,2,15,07,13,040,25,13,75,276,40,15,41,255,18,20,36,306,44*72
$GPGSV,4,3,15,21,11,319,17,24,03,199,,29,21,268,,30,35,060,25*70
$GPGSV,4,4,15,42,48,170,,50,48,170,,193,,,30*46
$GSENS, 0.041,-0.197, 0.953
$GSENS, 0.031,-0.211, 0.951
$GSENS, 0.029,-0.197, 0.947
$GSENS, 0.037,-0.205, 0.955
$GSENS, 0.021,-0.205, 0.953
$GPRMC,082657.00,A,3540.32214,N,13921.78629,E,0.056,,061016,,,A*73
$GPGGA,082657.00,3540.32214,N,13921.78629,E,1,08,1.12,120.8,M,38.9,M,,*5F
$GPGSV,4,1,15,02,42,168,31,04,74,013,40,05,68,039,36,06,08,152,*7C
$GPGSV,4,2,15,07,13,040,26,13,75,276,39,15,41,255,18,20,36,306,44*7F
$GPGSV,4,3,15,21,11,319,17,24,03,199,,29,21,268,,30,35,060,25*70
$GPGSV,4,4,15,42,48,170,,50,48,170,,193,,,30*46
$GSENS, 0.033,-0.203, 0.951
$GSENS, 0.035,-0.212, 0.953
$GSENS, 0.001,-0.205, 0.951
$GSENS, 0.041,-0.201, 0.953
$GSENS, 0.035,-0.207, 0.957
$GPRMC,082657.00,A,3540.32214,N,13921.78629,E,0.056,,061016,,,A*73
$GPGGA,082657.00,3540.32214,N,13921.78629,E,1,08,1.12,120.8,M,38.9,M,,*5F
$GPGSV,4,1,15,02,42,168,31,04,74,013,40,05,68,039,36,06,08,152,*7C
$GPGSV,4,2,15,07,13,040,26,13,75,276,39,15,41,255,18,20,36,306,44*7F
$GPGSV,4,3,15,21,11,319,17,24,03,199,,29,21,268,,30,35,060,25*70
$GPGSV,4,4,15,42,48,170,,50,48,170,,193,,,30*46
$GSENS, 0.021,-0.199, 0.949
$GSENS, 0.025,-0.207, 0.949
$GSENS, 0.023,-0.205, 0.951
$GSENS, 0.039,-0.195, 0.945
$GSENS, 0.029,-0.207, 0.949
$GPRMC,082658.00,A,3540.32211,N,13921.78643,E,0.068,,061016,,,A*78
$GPGGA,082658.00,3540.32211,N,13921.78643,E,1,08,1.12,120.9,M,38.9,M,,*58
$GPGSA,A,3,13,05,02,30,15,07,20,21,,,,,1.97,1.12,1.62*0E
$GPGSV,4,1,15,02,42,168,26,04,74,014,40,05,68,039,36,06,08,152,*7D
$GPGSV,4,2,15,07,13,040,26,13,75,276,40,15,41,255,20,20,36,306,43*7D
$GPGSV,4,3,15,21,11,319,17,24,03,199,,29,21,268,,30,35,060,26*73
$GPGSV,4,4,15,42,48,170,,50,48,170,,193,,,30*46
$GSENS, 0.015,-0.201, 0.949
$GSENS, 0.035,-0.199, 0.947
$GSENS, 0.042,-0.199, 0.955
$GSENS, 0.019,-0.197, 0.947
$GSENS, 0.035,-0.203, 0.951
$GPRMC,082658.00,A,3540.32211,N,13921.78643,E,0.068,,061016,,,A*78
$GPGGA,082658.00,3540.32211,N,13921.78643,E,1,08,1.12,120.9,M,38.9,M,,*58
$GPGSA,A,3,13,05,02,30,15,07,20,21,,,,,1.97,1.12,1.62*0E
$GPGSV,4,1,15,02,42,168,26,04,74,014,40,05,68,039,36,06,08,152,*7D
$GPGSV,4,2,15,07,13,040,26,13,75,276,40,15,41,255,20,20,36,306,43*7D
$GPGSV,4,3,15,21,11,319,17,24,03,199,,29,21,268,,30,35,060,26*73
$GPGSV,4,4,15,42,48,170,,50,48,170,,193,,,30*46
$GSENS, 0.037,-0.205, 0.951
$GSENS, 0.019,-0.203, 0.947
$GSENS, 0.035,-0.205, 0.953
$GSENS, 0.023,-0.209, 0.951
$GSENS, 0.031,-0.205, 0.959
$GPRMC,082659.00,A,3540.32208,N,13921.78657,E,0.085,,061016,,,A*77
$GPGGA,082659.00,3540.32208,N,13921.78657,E,1,08,1.12,121.0,M,38.9,M,,*5C
$GPGSV,4,1,15,02,42,168,26,04,74,014,40,05,68,040,35,06,08,152,*70
$GPGSV,4,2,15,07,13,040,26,13,75,276,40,15,41,255,20,20,36,306,44*7A
$GPGSV,4,3,15,21,11,319,18,24,03,199,,29,21,268,,30,35,060,26*7C
$GPGSV,4,4,15,42,48,170,,50,48,170,,193,,,31*47
$GSENS, 0.025,-0.205, 0.945
$GSENS, 0.037,-0.199, 0.953
$GSENS, 0.039,-0.203, 0.957
$GSENS, 0.023,-0.201, 0.949
$GSENS, 0.039,-0.199, 0.947
$GPRMC,082659.00,A,3540.32208,N,13921.78657,E,0.085,,061016,,,A*77
$GPGGA,082659.00,3540.32208,N,13921.78657,E,1,08,1.12,121.0,M,38.9,M,,*5C
$GPGSV,4,1,15,02,42,168,26,04,74,014,40,05,68,040,35,06,08,152,*70
$GPGSV,4,2,15,07,13,040,26,13,75,276,40,15,41,255,20,20,36,306,44*7A
$GPGSV,4,3,15,21,11,319,18,24,03,199,,29,21,268,,30,35,060,26*7C
$GPGSV,4,4,15,42,48,170,,50,48,170,,193,,,31*47
$GSENS, 0.033,-0.209, 0.949
$GSENS, 0.031,-0.197, 0.947
$GSENS, 0.029,-0.201, 0.957
$GSENS, 0.023,-0.207, 0.949
$GSENS, 0.035,-0.205, 0.949
$GPRMC,082700.00,A,3540.32202,N,13921.78671,E,0.083,,061016,,,A*72
$GPGGA,082700.00,3540.32202,N,13921.78671,E,1,08,1.12,121.1,M,38.9,M,,*5E
$GPGSV,4,1,15,02,42,168,26,04,74,014,40,05,68,040,35,06,07,152,*7F
$GPGSV,4,2,15,07,13,040,26,13,75,276,40,15,41,255,19,20,36,306,44*70
$GPGSV,4,3,15,21,11,319,19,24,03,199,,29,21,268,,30,35,060,27*7C
$GPGSV,4,4,15,42,48,170,,50,48,170,,193,,,30*46
$GSENS, 0.025,-0.205, 0.949
$GSENS, 0.031,-0.199, 0.955
$GSENS, 0.031,-0.199, 0.955
$GSENS, 0.031,-0.199, 0.945
$GSENS, 0.029,-0.203, 0.951
$GPRMC,082700.00,A,3540.32202,N,13921.78671,E,0.083,,061016,,,A*72
$GPGGA,082700.00,3540.32202,N,13921.78671,E,1,08,1.12,121.1,M,38.9,M,,*5E
$GPGSV,4,1,15,02,42,168,26,04,74,014,40,05,68,040,35,06,07,152,*7F
$GPGSV,4,2,15,07,13,040,26,13,75,276,40,15,41,255,19,20,36,306,44*70
$GPGSV,4,3,15,21,11,319,19,24,03,199,,29,21,268,,30,35,060,27*7C
$GPGSV,4,4,15,42,48,170,,50,48,170,,193,,,30*46
$GSENS, 0.015,-0.205, 0.947
$GSENS, 0.042,-0.203, 0.953
$GSENS, 0.025,-0.212, 0.949
$GSENS, 0.027,-0.199, 0.949
$GSENS, 0.031,-0.201, 0.949
$GPRMC,082701.00,A,3540.32197,N,13921.78683,E,0.140,,061016,,,A*7F
$GPGGA,082701.00,3540.32197,N,13921.78683,E,1,08,1.12,121.2,M,38.9,M,,*5E
$GPGSV,4,1,15,02,42,168,25,04,74,014,40,05,68,040,35,06,07,152,*7C
$GPGSV,4,2,15,07,13,040,27,13,75,276,40,15,41,255,18,20,36,306,44*70
$GPGSV,4,3,15,21,11,319,18,24,03,199,,29,21,268,,30,35,060,27*7D
$GPGSV,4,4,15,42,48,170,,50,48,170,,193,,,31*47
$GSENS, 0.027,-0.195, 0.945
$GSENS, 0.041,-0.201, 0.949
$GSENS, 0.023,-0.207, 0.949
$GSENS, 0.027,-0.205, 0.949
$GSENS, 0.033,-0.199, 0.953
$GPRMC,082701.00,A,3540.32197,N,13921.78683,E,0.140,,061016,,,A*7F
$GPGGA,082701.00,3540.32197,N,13921.78683,E,1,08,1.12,121.2,M,38.9,M,,*5E
$GPGSV,4,1,15,02,42,168,25,04,74,014,40,05,68,040,35,06,07,152,*7C
$GPGSV,4,2,15,07,13,040,27,13,75,276,40,15,41,255,18,20,36,306,44*70
$GPGSV,4,3,15,21,11,319,18,24,03,199,,29,21,268,,30,35,060,27*7D
$GPGSV,4,4,15,42,48,170,,50,48,170,,193,,,31*47
$GSENS, 0.023,-0.203, 0.949
$GSENS, 0.031,-0.201, 0.953
$GSENS, 0.035,-0.205, 0.953
$GSENS, 0.015,-0.199, 0.943
$GSENS, 0.033,-0.207, 0.951
$GPRMC,082702.00,A,3540.32192,N,13921.78696,E,0.135,,061016,,,A*7F
$GPGGA,082702.00,3540.32192,N,13921.78696,E,1,08,1.12,121.2,M,38.9,M,,*5C
$GPGSA,A,3,13,05,02,30,15,07,20,21,,,,,1.97,1.12,1.62*0E
$GPGSV,4,1,15,02,42,168,25,04,74,014,40,05,68,040,35,06,07,152,*7C
$GPGSV,4,2,15,07,13,040,28,13,75,276,40,15,41,255,18,20,36,306,44*7F
$GPGSV,4,3,15,21,11,319,18,24,03,199,,29,21,268,,30,35,060,28*72
$GPGSV,4,4,15,42,48,170,,50,48,170,,193,,,31*47
$GSENS, 0.017,-0.201, 0.951
$GSENS, 0.035,-0.209, 0.949
$GSENS, 0.027,-0.205, 0.949
$GSENS, 0.035,-0.205, 0.951
$GSENS, 0.027,-0.205, 0.949
$GPRMC,082702.00,A,3540.32192,N,13921.78696,E,0.135,,061016,,,A*7F
$GPGGA,082702.00,3540.32192,N,13921.78696,E,1,08,1.12,121.2,M,38.9,M,,*5C
$GPGSA,A,3,13,05,02,30,15,07,20,21,,,,,1.97,1.12,1.62*0E
$GPGSV,4,1,15,02,42,168,25,04,74,014,40,05,68,040,35,06,07,152,*7C
$GPGSV,4,2,15,07,13,040,28,13,75,276,40,15,41,255,18,20,36,306,44*7F
$GPGSV,4,3,15,21,11,319,18,24,03,199,,29,21,268,,30,35,060,28*72
$GPGSV,4,4,15,42,48,170,,50,48,170,,193,,,31*47
$GSENS, 0.033,-0.203, 0.949
$GSENS, 0.031,-0.207, 0.945
$GSENS, 0.035,-0.193, 0.955
$GSENS, 0.031,-0.207, 0.949
$GSENS, 0.027,-0.193, 0.953
$GPRMC,082703.00,A,3540.32183,N,13921.78707,E,0.014,,061016,,,A*75
$GPGGA,082703.00,3540.32183,N,13921.78707,E,1,08,1.12,121.4,M,38.9,M,,*52
$GPGSV,4,1,15,02,42,168,26,04,74,014,40,05,68,040,35,06,07,152,*7F
$GPGSV,4,2,15,07,13,040,28,13,75,276,40,15,41,255,18,20,36,306,43*78
$GPGSV,4,3,15,21,11,319,19,24,03,199,,29,21,268,,30,35,060,28*73
$GPGSV,4,4,15,42,48,170,,50,48,170,,193,,,31*47
$GSENS, 0.023,-0.211, 0.953
$GSENS, 0.033,-0.195, 0.953
$GSENS, 0.033,-0.197, 0.953
$GSENS, 0.021,-0.203, 0.949
$GSENS, 0.029,-0.201, 0.955
$GPRMC,082703.00,A,3540.32183,N,13921.78707,E,0.014,,061016,,,A*75
$GPGGA,082703.00,3540.32183,N,13921.78707,E,1,08,1.12,121.4,M,38.9,M,,*52
$GPGSV,4,1,15,02,42,168,26,04,74,014,40,05,68,040,35,06,07,152,*7F
$GPGSV,4,2,15,07,13,040,28,13,75,276,40,15,41,255,18,20,36,306,43*78
$GPGSV,4,3,15,21,11,319,19,24,03,199,,29,21,268,,30,35,060,28*73
$GPGSV,4,4,15,42,48,170,,50,48,170,,193,,,31*47
$GSENS, 0.035,-0.209, 0.949
$GSENS, 0.027,-0.211, 0.957
$GSENS, 0.035,-0.199, 0.949
$GSENS, 0.031,-0.199, 0.951
$GSENS, 0.029,-0.197, 0.951
$GPRMC,082704.00,A,3540.32175,N,13921.78719,E,0.016,,061016,,,A*76
$GPGGA,082704.00,3540.32175,N,13921.78719,E,1,08,1.12,121.5,M,38.9,M,,*52
$GPGSV,4,1,15,02,42,168,27,04,74,014,41,05,68,040,35,06,07,152,*7F
$GPGSV,4,2,15,07,13,040,30,13,75,276,40,15,41,255,17,20,36,306,43*7E
$GPGSV,4,3,15,21,11,319,21,24,03,199,,29,21,268,,30,35,060,27*77
$GPGSV,4,4,15,42,48,170,,50,48,170,,193,,,32*44
$GSENS, 0.039,-0.199, 0.957
$GSENS, 0.017,-0.205, 0.953
$GSENS, 0.029,-0.193, 0.951
$GSENS, 0.027,-0.205, 0.949
$GSENS, 0.013,-0.201, 0.947
$GPRMC,082704.00,A,3540.32175,N,13921.78719,E,0.016,,061016,,,A*76
$GPGGA,082704.00,3540.32175,N,13921.78719,E,1,08,1.12,121.5,M,38.9,M,,*52
$GPGSV,4,1,15,02,42,168,27,04,74,014,41,05,68,040,35,06,07,152,*7F
$GPGSV,4,2,15,07,13,040,30,13,75,276,40,15,41,255,17,20,36,306,43*7E
$GPGSV,4,3,15,21,11,319,21,24,03,199,,29,21,268,,30,35,060,27*77
$GPGSV,4,4,15,42,48,170,,50,48,170,,193,,,32*44
$GSENS, 0.035,-0.205, 0.951
$GSENS, 0.023,-0.199, 0.949
$GSENS, 0.023,-0.203, 0.955
$GSENS, 0.029,-0.201, 0.957
$GSENS, 0.027,-0.205, 0.943
$GPRMC,082705.00,A,3540.32165,N,13921.78731,E,0.039,,061016,,,A*71
$GPGGA,082705.00,3540.32165,N,13921.78731,E,1,08,1.21,121.5,M,38.9,M,,*58
$GPGSV,4,1,15,02,42,168,27,04,74,014,41,05,68,040,35,06,07,152,*7F
$GPGSV,4,2,15,07,13,040,32,13,75,276,40,15,41,255,16,20,36,306,43*7D
$GPGSV,4,3,15,21,11,319,22,24,03,199,,29,21,268,,30,35,060,26*75
$GPGSV,4,4,15,42,48,170,,50,48,170,,193,,,32*44
$GSENS, 0.027,-0.199, 0.949
$GSENS, 0.027,-0.207, 0.953
$GSENS, 0.019,-0.203, 0.949
$GSENS, 0.029,-0.197, 0.955
$GSENS, 0.035,-0.207, 0.953
$GPRMC,082705.00,A,3540.32165,N,13921.78731,E,0.039,,061016,,,A*71
$GPGGA,082705.00,3540.32165,N,13921.78731,E,1,08,1.21,121.5,M,38.9,M,,*58
$GPGSV,4,1,15,02,42,168,27,04,74,014,41,05,68,040,35,06,07,152,*7F
$GPGSV,4,2,15,07,13,040,32,13,75,276,40,15,41,255,16,20,36,306,43*7D
$GPGSV,4,3,15,21,11,319,22,24,03,199,,29,21,268,,30,35,060,26*75
$GPGSV,4,4,15,42,48,170,,50,48,170,,193,,,32*44
$GSENS, 0.015,-0.205, 0.947
$GSENS, 0.029,-0.193, 0.953
$GSENS, 0.039,-0.205, 0.949
$GSENS, 0.023,-0.203, 0.949
$GSENS, 0.031,-0.193, 0.949
$GPRMC,082706.00,A,3540.32159,N,13921.78741,E,0.072,,061016,,,A*75
$GPGGA,082706.00,3540.32159,N,13921.78741,E,1,08,1.21,121.6,M,38.9,M,,*50
$GPGSA,A,3,13,05,02,30,15,07,20,21,,,,,2.25,1.21,1.89*01
$GPGSV,4,1,15,02,42,168,26,04,74,014,41,05,68,040,35,06,07,152,*7E
$GPGSV,4,2,15,07,13,040,32,13,75,276,40,15,41,255,16,20,36,306,43*7D
$GPGSV,4,3,15,21,11,319,21,24,03,199,,29,21,268,,30,35,060,26*76
$GPGSV,4,4,15,42,48,170,,50,48,170,,193,,,33*45
$GSENS, 0.031,-0.199, 0.951
$GSENS, 0.025,-0.201, 0.945
$GSENS, 0.039,-0.201, 0.951
$GSENS, 0.033,-0.209, 0.949
$GSENS, 0.035,-0.201, 0.949
$GPRMC,082706.00,A,3540.32159,N,13921.78741,E,0.072,,061016,,,A*75
$GPGGA,082706.00,3540.32159,N,13921.78741,E,1,08,1.21,121.6,M,38.9,M,,*50
$GPGSA,A,3,13,05,02,30,15,07,20,21,,,,,2.25,1.21,1.89*01
$GPGSV,4,1,15,02,42,168,26,04,74,014,41,05,68,040,35,06,07,152,*7E
$GPGSV,4,2,15,07,13,040,32,13,75,276,40,15,41,255,16,20,36,306,43*7D
$GPGSV,4,3,15,21,11,319,21,24,03,199,,29,21,268,,30,35,060,26*76
$GPGSV,4,4,15,42,48,170,,50,48,170,,193,,,33*45
$GSENS, 0.035,-0.203, 0.949
$GSENS, 0.031,-0.199, 0.955
$GSENS, 0.033,-0.209, 0.951
$GSENS, 0.017,-0.197, 0.947
$GSENS, 0.035,-0.201, 0.957
$GPRMC,082707.00,A,3540.32153,N,13921.78754,E,0.055,,061016,,,A*7F
$GPGGA,082707.00,3540.32153,N,13921.78754,E,1,08,1.21,121.5,M,38.9,M,,*5C
$GPGSV,4,1,15,02,42,168,28,04,74,014,41,05,68,040,35,06,07,152,04*74
$GPGSV,4,2,15,07,13,040,33,13,75,277,40,15,41,255,18,20,36,306,43*73
$GPGSV,4,3,15,21,11,319,21,24,03,199,,29,21,268,23,30,35,060,26*77
$GPGSV,4,4,15,42,48,170,,50,48,170,,193,,,32*44
$GSENS, 0.033,-0.209, 0.955
$GSENS, 0.021,-0.197, 0.947
$GSENS, 0.031,-0.207, 0.957
$GSENS, 0.017,-0.203, 0.949
$GSENS, 0.035,-0.199, 0.949
$GPRMC,082707.00,A,3540.32153,N,13921.78754,E,0.055,,061016,,,A*7F
$GPGGA,082707.00,3540.32153,N,13921.78754,E,1,08,1.21,121.5,M,38.9,M,,*5C
$GPGSV,4,1,15,02,42,168,28,04,74,014,41,05,68,040,35,06,07,152,04*74
$GPGSV,4,2,15,07,13,040,33,13,75,277,40,15,41,255,18,20,36,306,43*73
$GPGSV,4,3,15,21,11,319,21,24,03,199,,29,21,268,23,30,35,060,26*77
$GPGSV,4,4,15,42,48,170,,50,48,170,,193,,,32*44
$GSENS, 0.025,-0.207, 0.953
$GSENS, 0.015,-0.207, 0.949
$GSENS, 0.037,-0.207, 0.949
$GSENS, 0.029,-0.201, 0.955
$GSENS, 0.031,-0.197, 0.949
$GPRMC,082708.00,A,3540.32142,N,13921.78766,E,0.045,,061016,,,A*70
$GPGGA,082708.00,3540.32142,N,13921.78766,E,1,08,1.21,121.5,M,38.9,M,,*52
$GPGSV,4,1,15,02,42,168,30,04,74,014,41,05,68,040,35,06,07,152,07*7E
$GPGSV,4,2,15,07,13,040,33,13,75,277,40,15,41,255,19,20,36,306,43*72
$GPGSV,4,3,15,21,11,319,19,24,03,199,,29,21,268,23,30,35,060,25*7F
$GPGSV,4,4,15,42,48,170,,50,48,170,,193,,,32*44
$GSENS, 0.027,-0.205, 0.949
$GSENS, 0.029,-0.193, 0.951
$GSENS, 0.021,-0.199, 0.945
$GSENS, 0.033,-0.207, 0.949
$GSENS, 0.017,-0.207, 0.949
$GPRMC,082708.00,A,3540.32142,N,13921.78766,E,0.045,,061016,,,A*70
$GPGGA,082708.00,3540.32142,N,13921.78766,E,1,08,1.21,121.5,M,38.9,M,,*52
$GPGSV,4,1,15,02,42,168,30,04,74,014,41,05,68,040,35,06,07,152,07*7E
$GPGSV,4,2,15,07,13,040,33,13,75,277,40,15,41,255,19,20,36,306,43*72
$GPGSV,4,3,15,21,11,319,19,24,03,199,,29,21,268,23,30,35,060,25*7F
$GPGSV,4,4,15,42,48,170,,50,48,170,,193,,,32*44
$GSENS, 0.029,-0.201, 0.951
$GSENS, 0.033,-0.203, 0.949
$GSENS, 0.021,-0.199, 0.945
$GSENS, 0.025,-0.209, 0.953
$GSENS, 0.017,-0.209, 0.947
$GPRMC,082709.00,A,3540.32135,N,13921.78775,E,0.020,,061016,,,A*70
$GPGGA,082709.00,3540.32135,N,13921.78775,E,1,08,1.21,121.5,M,38.9,M,,*51
$GPGSV,4,1,15,02,42,168,30,04,74,014,41,05,68,040,35,06,07,152,09*70
$GPGSV,4,2,15,07,13,040,32,13,75,277,40,15,41,256,21,20,36,306,43*7B
$GPGSV,4,3,15,21,11,319,20,24,03,199,,29,21,268,23,30,35,060,26*76
$GPGSV,4,4,15,42,48,170,,50,48,170,,193,,,32*44
$GSENS, 0.031,-0.199, 0.953
$GSENS, 0.025,-0.209, 0.949
$GSENS, 0.029,-0.197, 0.949
$GSENS, 0.031,-0.199, 0.951
$GSENS, 0.023,-0.201, 0.949
$GPRMC,082709.00,A,3540.32135,N,13921.78775,E,0.020,,061016,,,A*70
$GPGGA,082709.00,3540.32135,N,13921.78775,E,1,08,1.21,121.5,M,38.9,M,,*51
$GPGSV,4,1,15,02,42,168,30,04,74,014,41,05,68,040,35,06,07,152,09*70
$GPGSV,4,2,15,07,13,040,32,13,75,277,40,15,41,256,21,20,36,306,43*7B
$GPGSV,4,3,15,21,11,319,20,24,03,199,,29,21,268,23,30,35,060,26*76
$GPGSV,4,4,15,42,48,170,,50,48,170,,193,,,32*44
$GSENS, 0.027,-0.205, 0.955
$GSENS, 0.035,-0.205, 0.953
$GSENS, 0.029,-0.195, 0.953
$GSENS, 0.027,-0.209, 0.951
$GSENS, 0.017,-0.205, 0.949
$GPRMC,082710.00,A,3540.32123,N,13921.78783,E,0.061,,061016,,,A*73
$GPGGA,082710.00,3540.32123,N,13921.78783,E,1,09,1.21,121.4,M,38.9,M,,*57
$GPGSA,A,3,13,05,02,30,15,07,20,29,21,,,,2.25,1.21,1.89*0A
$GPGSV,4,1,15,02,42,168,30,04,74,014,40,05,68,040,35,06,07,152,09*71
$GPGSV,4,2,15,07,13,040,31,13,75,277,40,15,41,256,22,20,36,306,43*7B
$GPGSV,4,3,15,21,11,319,20,24,03,199,,29,21,268,25,30,35,060,28*7E
$GPGSV,4,4,15,42,48,170,,50,48,170,,193,,,32*44
$GSENS, 0.039,-0.201, 0.955
$GSENS, 0.031,-0.205, 0.953
$GSENS, 0.031,-0.193, 0.947
$GSENS, 0.035,-0.207, 0.955
$GSENS, 0.017,-0.207, 0.949
$GPRMC,082710.00,A,3540.32123,N,13921.78783,E,0.061,,061016,,,A*73
$GPGGA,082710.00,3540.32123,N,13921.78783,E,1,09,1.21,121.4,M,38.9,M,,*57
$GPGSA,A,3,13,05,02,30,15,07,20,29,21,,,,2.25,1.21,1.89*0A
$GPGSV,4,1,15,02,42,168,30,04,74,014,40,05,68,040,35,06,07,152,09*71
$GPGSV,4,2,15,07,13,040,31,13,75,277,40,15,41,256,22,20,36,306,43*7B
$GPGSV,4,3,15,21,11,319,20,24,03,199,,29,21,268,25,30,35,060,28*7E
$GPGSV,4,4,15,42,48,170,,50,48,170,,193,,,32*44
$GSENS, 0.031,-0.201, 0.953
$GSENS, 0.039,-0.199, 0.955
$GSENS, 0.029,-0.205, 0.949
$GSENS, 0.041,-0.205, 0.949
$GSENS, 0.031,-0.201, 0.953
$GPRMC,082711.00,A,3540.32112,N,13921.78789,E,0.036,,061016,,,A*78
$GPGGA,082711.00,3540.32112,N,13921.78789,E,1,09,1.21,121.5,M,38.9,M,,*5F
$GPGSV,4,1,15,02,42,168,29,04,74,014,40,05,68,040,35,06,07,152,08*78
$GPGSV,4,2,15,07,13,040,31,13,75,277,40,15,41,256,23,20,36,306,43*7A
$GPGSV,4,3,15,21,11,319,19,24,03,199,,29,21,268,25,30,35,060,28*74
$GPGSV,4,4,15,42,48,170,,50,48,170,,193,,,32*44
$GSENS, 0.017,-0.205, 0.949
$GSENS, 0.035,-0.201, 0.951
$GSENS, 0.031,-0.205, 0.951
$GSENS, 0.015,-0.201, 0.947
$GSENS, 0.033,-0.203, 0.951
$GPRMC,082711.00,A,3540.32112,N,13921.78789,E,0.036,,061016,,,A*78
$GPGGA,082711.00,3540.32112,N,13921.78789,E,1,09,1.21,121.5,M,38.9,M,,*5F
$GPGSV,4,1,15,02,42,168,29,04,74,014,40,05,68,040,35,06,07,152,08*78
$GPGSV,4,2,15,07,13,040,31,13,75,277,40,15,41,256,23,20,36,306,43*7A
$GPGSV,4,3,15,21,11,319,19,24,03,199,,29,21,268,25,30,35,060,28*74
$GPGSV,4,4,15,42,48,170,,50,48,170,,193,,,32*44
$GSENS, 0.039,-0.205, 0.955
$GSENS, 0.025,-0.205, 0.951
$GSENS, 0.031,-0.201, 0.949
$GSENS, 0.039,-0.205, 0.953
$GSENS, 0.027,-0.205, 0.949
$GPRMC,082712.00,A,3540.32104,N,13921.78798,E,0.089,,061016,,,A*78
$GPGGA,082712.00,3540.32104,N,13921.78798,E,1,09,1.21,121.6,M,38.9,M,,*58
$GPGSV,4,1,15,02,42,168,30,04,74,014,40,05,68,040,35,06,07,152,08*70
$GPGSV,4,2,15,07,13,040,32,13,75,277,40,15,41,256,23,20,36,306,43*79
$GPGSV,4,3,15,21,11,319,19,24,03,199,,29,21,268,26,30,35,060,28*77
$GPGSV,4,4,15,42,48,170,,50,48,170,,193,,,32*44
$GSENS, 0.027,-0.195, 0.947
$GSENS, 0.039,-0.197, 0.947
$GSENS, 0.019,-0.207, 0.949
$GSENS, 0.035,-0.197, 0.953
$GSENS, 0.035,-0.205, 0.953
$GPRMC,082712.00,A,3540.32104,N,13921.78798,E,0.089,,061016,,,A*78
$GPGGA,082712.00,3540.32104,N,13921.78798,E,1,09,1.21,121.6,M,38.9,M,,*58
$GPGSV,4,1,15,02,42,168,30,04,74,014,40,05,68,040,35,06,07,152,08*70
$GPGSV,4,2,15,07,13,040,32,13,75,277,40,15,41,256,23,20,36,306,43*79
$GPGSV,4,3,15,21,11,319,19,24,03,199,,29,21,268,26,30,35,060,28*77
$GPGSV,4,4,15,42,48,170,,50,48,170,,193,,,32*44
$GSENS, 0.023,-0.193, 0.947
$GSENS, 0.035,-0.209, 0.949
$GSENS, 0.025,-0.205, 0.947
$GSENS, 0.035,-0.211, 0.951
$GSENS, 0.023,-0.207, 0.945
$GPRMC,082713.00,A,3540.32100,N,13921.78805,E,0.047,,061016,,,A*74
$GPGGA,082713.00,3540.32100,N,13921.78805,E,1,09,1.21,121.7,M,38.9,M,,*57
$GPGSV,4,1,15,02,42,168,30,04,74,014,40,05,68,040,35,06,07,152,08*70
$GPGSV,4,2,15,07,13,040,32,13,75,277,40,15,41,256,23,20,36,306,42*78
$GPGSV,4,3,15,21,11,319,18,24,03,199,,29,21,268,26,30,35,060,28*76
$GPGSV,4,4,15,42,48,170,,50,48,170,,193,,,31*47
$GSENS, 0.031,-0.207, 0.949
$GSENS, 0.033,-0.211, 0.951
$GSENS, 0.023,-0.201, 0.955
$GSENS, 0.031,-0.203, 0.953
$GSENS, 0.025,-0.207, 0.949
$GPRMC,082713.00,A,3540.32100,N,13921.78805,E,0.047,,061016,,,A*74
$GPGGA,082713.00,3540.32100,N,13921.78805,E,1,09,1.21,121.7,M,38.9,M,,*57
$GPGSV,4,1,15,02,42,168,30,04,74,014,40,05,68,040,35,06,07,152,08*70
$GPGSV,4,2,15,07,13,040,32,13,75,277,40,15,41,256,23,20,36,306,42*78
$GPGSV,4,3,15,21,11,319,18,24,03,199,,29,21,268,26,30,35,060,28*76
$GPGSV,4,4,15,42,48,170,,50,48,170,,193,,,31*47
$GSENS, 0.023,-0.199, 0.949
$GSENS, 0.031,-0.201, 0.949
$GSENS, 0.015,-0.207, 0.949
$GSENS, 0.029,-0.203, 0.953
$GSENS, 0.021,-0.212, 0.951
$GPRMC,082714.00,A,3540.32098,N,13921.78811,E,0.106,,061016,,,A*72
$GPGGA,082714.00,3540.32098,N,13921.78811,E,1,09,1.21,121.8,M,38.9,M,,*5A
$GPGSA,A,3,13,05,02,30,15,07,20,29,21,,,,2.25,1.21,1.89*0A
$GPGSV,4,1,15,02,42,168,30,04,74,014,40,05,68,040,35,06,07,152,08*70
$GPGSV,4,2,15,07,13,040,32,13,75,277,41,15,41,256,23,20,36,306,42*79
$GPGSV,4,3,15,21,11,319,18,24,03,199,,29,21,268,26,30,35,060,28*76
$GPGSV,4,4,15,42,48,170,,50,48,170,,193,,,31*47
$GSENS, 0.019,-0.211, 0.951
$GSENS, 0.031,-0.201, 0.945
$GSENS, 0.031,-0.211, 0.947
$GSENS, 0.015,-0.199, 0.947
$GSENS, 0.029,-0.201, 0.955
$GPRMC,082714.00,A,3540.32098,N,13921.78811,E,0.106,,061016,,,A*72
$GPGGA,082714.00,3540.32098,N,13921.78811,E,1,09,1.21,121.8,M,38.9,M,,*5A
$GPGSA,A,3,13,05,02,30,15,07,20,29,21,,,,2.25,1.21,1.89*0A
$GPGSV,4,1,15,02,42,168,30,04,74,014,40,05,68,040,35,06,07,152,08*70
$GPGSV,4,2,15,07,13,040,32,13,75,277,41,15,41,256,23,20,36,306,42*79
$GPGSV,4,3,15,21,11,319,18,24,03,199,,29,21,268,26,30,35,060,28*76
$GPGSV,4,4,15,42,48,170,,50,48,170,,193,,,31*47
$GSENS, 0.029,-0.203, 0.953
$GSENS, 0.037,-0.197, 0.951
$GSENS, 0.025,-0.220, 0.947
$GSENS, 0.017,-0.211, 0.943
$GSENS, 0.037,-0.201, 0.957
$GPRMC,082715.00,A,3540.32097,N,13921.78817,E,0.074,,061016,,,A*7E
$GPGGA,082715.00,3540.32097,N,13921.78817,E,1,10,1.21,121.8,M,38.9,M,,*5A
$GPGSV,4,1,15,02,42,168,31,04,74,014,40,05,68,040,35,06,07,152,13*7B
$GPGSV,4,2,15,07,13,040,32,13,75,277,41,15,41,256,22,20,36,306,41*7B
$GPGSV,4,3,15,21,11,319,19,24,03,199,,29,21,268,28,30,35,060,28*79
$GPGSV,4,4,15,42,48,170,,50,48,170,,193,,,31*47
$GSENS, 0.029,-0.203, 0.949
$GSENS, 0.021,-0.199, 0.949
$GSENS, 0.033,-0.197, 0.951
$GSENS, 0.031,-0.199, 0.957
$GSENS, 0.021,-0.207, 0.941
$GPRMC,082715.00,A,3540.32097,N,13921.78817,E,0.074,,061016,,,A*7E
$GPGGA,082715.00,3540.32097,N,13921.78817,E,1,10,1.21,121.8,M,38.9,M,,*5A
$GPGSV,4,1,15,02,42,168,31,04,74,014,40,05,68,040,35,06,07,152,13*7B
$GPGSV,4,2,15,07,13,040,32,13,75,277,41,15,41,256,22,20,36,306,41*7B
$GPGSV,4,3,15,21,11,319,19,24,03,199,,29,21,268,28,30,35,060,28*79
$GPGSV,4,4,15,42,48,170,,50,48,170,,193,,,31*47
$GSENS, 0.031,-0.199, 0.947
$GSENS, 0.027,-0.211, 0.951
$GSENS, 0.013,-0.203, 0.949
$GSENS, 0.025,-0.203, 0.951
$GSENS, 0.031,-0.203, 0.951
$GPRMC,082716.00,A,3540.32095,N,13921.78825,E,0.020,,061016,,,A*7F
$GPGGA,082716.00,3540.32095,N,13921.78825,E,1,10,1.21,121.8,M,38.9,M,,*5A
$GPGSV,4,1,15,02,42,168,31,04,74,014,40,05,68,040,35,06,07,152,13*7B
$GPGSV,4,2,15,07,13,040,32,13,75,277,41,15,41,256,21,20,36,306,41*78
$GPGSV,4,3,15,21,11,319,19,24,03,199,,29,21,268,28,30,35,060,28*79
$GPGSV,4,4,15,42,48,170,,50,48,170,,193,,,31*47
$GSENS, 0.015,-0.205, 0.949
$GSENS, 0.027,-0.193, 0.953
$GSENS, 0.033,-0.201, 0.955
$GSENS, 0.021,-0.199, 0.947
$GSENS, 0.037,-0.205, 0.949
$GPRMC,082716.00,A,3540.32095,N,13921.78825,E,0.020,,061016,,,A*7F
$GPGGA,082716.00,3540.32095,N,13921.78825,E,1,10,1.21,121.8,M,38.9,M,,*5A
$GPGSV,4,1,15,02,42,168,31,04,74,014,40,05,68,040,35,06,07,152,13*7B
$GPGSV,4,2,15,07,13,040,32,13,75,277,41,15,41,256,21,20,36,306,41*78
$GPGSV,4,3,15,21,11,319,19,24,03,199,,29,21,268,28,30,35,060,28*79
$GPGSV,4,4,15,42,48,170,,50,48,170,,193,,,31*47
$GSENS, 0.035,-0.205, 0.957
$GSENS, 0.023,-0.197, 0.947
$GSENS, 0.029,-0.195, 0.955
$GSENS, 0.031,-0.201, 0.951
$GSENS, 0.021,-0.199, 0.949
$GPRMC,082717.00,A,3540.32092,N,13921.78831,E,0.034,,061016,,,A*79
$GPGGA,082717.00,3540.32092,N,13921.78831,E,1,10,1.21,122.0,M,38.9,M,,*52
$GPGSV,4,1,15,02,42,168,31,04,74,014,40,05,68,040,35,06,07,152,13*7B
$GPGSV,4,2,15,07,13,040,33,13,75,277,41,15,41,256,20,20,36,306,41*78
$GPGSV,4,3,15,21,11,319,19,24,03,199,,29,21,268,29,30,35,060,28*78
$GPGSV,4,4,15,42,48,170,,50,48,170,,193,,,31*47
$GSENS, 0.033,-0.211, 0.957
$GSENS, 0.027,-0.209, 0.941
$GSENS, 0.031,-0.197, 0.947
$GSENS, 0.033,-0.203, 0.949
$GSENS, 0.013,-0.203, 0.949
$GPRMC,082717.00,A,3540.32092,N,13921.78831,E,0.034,,061016,,,A*79
$GPGGA,082717.00,3540.32092,N,13921.78831,E,1,10,1.21,122.0,M,38.9,M,,*52
$GPGSV,4,1,15,02,42,168,31,04,74,014,40,05,68,040,35,06,07,152,13*7B
$GPGSV,4,2,15,07,13,040,33,13,75,277,41,15,41,256,20,20,36,306,41*78
$GPGSV,4,3,15,21,11,319,19,24,03,199,,29,21,268,29,30,35,060,28*78
$GPGSV,4,4,15,42,48,170,,50,48,170,,193,,,31*47
$GSENS, 0.023,-0.211, 0.943
$GSENS, 0.035,-0.195, 0.949
$GSENS, 0.029,-0.203, 0.953
$GSENS, 0.015,-0.193, 0.945
$GSENS, 0.041,-0.203, 0.951
$GPRMC,082718.00,A,3540.32101,N,13921.78842,E,0.074,,061016,,,A*7D
$GPGGA,082718.00,3540.32101,N,13921.78842,E,1,10,1.12,122.4,M,38.9,M,,*56
$GPGSA,A,3,13,05,02,30,15,07,20,06,29,21,,,1.95,1.12,1.59*09
$GPGSV,4,1,15,02,42,168,31,04,74,014,40,05,68,040,35,06,07,152,13*7B
$GPGSV,4,2,15,07,13,040,33,13,75,277,40,15,41,256,21,20,36,306,40*79
$GPGSV,4,3,15,21,11,319,19,24,03,199,,29,21,268,29,30,35,060,28*78
$GPGSV,4,4,15,42,48,170,,50,48,170,,193,,,31*47
$GSENS, 0.039,-0.205, 0.953
$GSENS, 0.021,-0.199, 0.947
$GSENS, 0.027,-0.203, 0.951
$GSENS, 0.023,-0.199, 0.951
$GSENS, 0.031,-0.197, 0.951
$GPRMC,082718.00,A,3540.32101,N,13921.78842,E,0.074,,061016,,,A*7D
$GPGGA,082718.00,3540.32101,N,13921.78842,E,1,10,1.12,122.4,M,38.9,M,,*56
$GPGSA,A,3,13,05,02,30,15,07,20,06,29,21,,,1.95,1.12,1.59*09
$GPGSV,4,1,15,02,42,168,31,04,74,014,40,05,68,040,35,06,07,152,13*7B
$GPGSV,4,2,15,07,13,040,33,13,75,277,40,15,41,256,21,20,36,306,40*79
$GPGSV,4,3,15,21,11,319,19,24,03,199,,29,21,268,29,30,35,060,28*78
$GPGSV,4,4,15,42,48,170,,50,48,170,,193,,,31*47
$GSENS, 0.033,-0.203, 0.957
$GSENS, 0.023,-0.203, 0.945
$GSENS, 0.027,-0.199, 0.949
$GSENS, 0.019,-0.209, 0.949
$GSENS, 0.031,-0.207, 0.953
$GPRMC,082719.00,A,3540.32110,N,13921.78853,E,0.059,,061016,,,A*73
$GPGGA,082719.00,3540.32110,N,13921.78853,E,1,10,1.12,122.7,M,38.9,M,,*54
$GPGSV,4,1,15,02,42,168,31,04,74,014,40,05,68,040,35,06,07,152,13*7B
$GPGSV,4,2,15,07,13,040,33,13,75,277,40,15,41,256,21,20,36,306,40*79
$GPGSV,4,3,15,21,11,319,19,24,03,199,,29,21,268,29,30,35,060,28*78
$GPGSV,4,4,15,42,48,170,,50,48,170,,193,,,31*47
$GSENS, 0.033,-0.203, 0.957
$GSENS, 0.031,-0.201, 0.949
$GSENS, 0.031,-0.205, 0.951
$GSENS, 0.021,-0.201, 0.949
$GSENS, 0.039,-0.203, 0.957
$GPRMC,082719.00,A,3540.32110,N,13921.78853,E,0.059,,061016,,,A*73
$GPGGA,082719.00,3540.32110,N,13921.78853,E,1,10,1.12,122.7,M,38.9,M,,*54
$GPGSV,4,1,15,02,42,168,31,04,74,014,40,05,68,040,35,06,07,152,13*7B
$GPGSV,4,2,15,07,13,040,33,13,75,277,40,15,41,256,21,20,36,306,40*79
$GPGSV,4,3,15,21,11,319,19,24,03,199,,29,21,268,29,30,35,060,28*78
$GPGSV,4,4,15,42,48,170,,50,48,170,,193,,,31*47
$GSENS, 0.031,-0.205, 0.955
$GSENS, 0.025,-0.195, 0.953
$GSENS, 0.033,-0.205, 0.949
$GSENS, 0.029,-0.201, 0.953
$GSENS, 0.039,-0.199, 0.955
$GPRMC,082720.00,A,3540.32122,N,13921.78867,E,0.009,,061016,,,A*7A
$GPGGA,082720.00,3540.32122,N,13921.78867,E,1,10,1.12,123.0,M,38.9,M,,*5E
$GPGSV,4,1,15,02,42,168,31,04,74,014,40,05,68,040,35,06,07,152,13*7B
$GPGSV,4,2,15,07,13,040,34,13,75,277,40,15,41,256,22,20,36,306,39*73
$GPGSV,4,3,15,21,11,319,18,24,03,199,15,29,21,268,30,30,35,060,27*7A
$GPGSV,4,4,15,42,48,170,,50,48,170,,193,,,32*44
$GSENS, 0.039,-0.205, 0.953
$GSENS, 0.019,-0.195, 0.953
$GSENS, 0.029,-0.201, 0.955
$GSENS, 0.019,-0.207, 0.947
$GSENS, 0.035,-0.197, 0.955
$GPRMC,082720.00,A,3540.32122,N,13921.78867,E,0.009,,061016,,,A*7A
$GPGGA,082720.00,3540.32122,N,13921.78867,E,1,10,1.12,123.0,M,38.9,M,,*5E
$GPGSV,4,1,15,02,42,168,31,04,74,014,40,05,68,040,35,06,07,152,13*7B
$GPGSV,4,2,15,07,13,040,34,13,75,277,40,15,41,256,22,20,36,306,39*73
$GPGSV,4,3,15,21,11,319,18,24,03,199,15,29,21,268,30,30,35,060,27*7A
$GPGSV,4,4,15,42,48,170,,50,48,170,,193,,,32*44
$GSENS, 0.025,-0.207, 0.951
$GSENS, 0.029,-0.211, 0.957
$GSENS, 0.025,-0.211, 0.953
$GSENS, 0.015,-0.209, 0.949
$GSENS, 0.027,-0.205, 0.947
$GPRMC,082721.00,A,3540.32131,N,13921.78876,E,0.088,,061016,,,A*70
$GPGGA,082721.00,3540.32131,N,13921.78876,E,1,10,1.12,123.4,M,38.9,M,,*59
$GPGSV,4,1,15,02,42,168,32,04,74,014,40,05,68,040,36,06,07,152,14*7C
$GPGSV,4,2,15,07,13,040,33,13,75,277,40,15,41,256,22,20,36,306,38*75
$GPGSV,4,3,15,21,11,319,18,24,03,199,13,29,21,268,30,30,35,060,26*7D
$GPGSV,4,4,15,42,48,170,,50,48,170,,193,,,32*44
$GSENS, 0.029,-0.203, 0.949
$GSENS, 0.025,-0.205, 0.949
$GSENS, 0.021,-0.199, 0.949
$GSENS, 0.039,-0.199, 0.957
$GSENS, 0.033,-0.199, 0.957
$GPRMC,082721.00,A,3540.32131,N,13921.78876,E,0.088,,061016,,,A*70
$GPGGA,082721.00,3540.32131,N,13921.78876,E,1,10,1.12,123.4,M,38.9,M,,*59
$GPGSV,4,1,15,02,42,168,32,04,74,014,40,05,68,040,36,06,07,152,14*7C
$GPGSV,4,2,15,07,13,040,33,13,75,277,40,15,41,256,22,20,36,306,38*75
$GPGSV,4,3,15,21,11,319,18,24,03,199,13,29,21,268,30,30,35,060,26*7D
$GPGSV,4,4,15,42,48,170,,50,48,170,,193,,,32*44
$GSENS, 0.039,-0.193, 0.947
$GSENS, 0.029,-0.209, 0.947
$GSENS, 0.021,-0.195, 0.947
$GSENS, 0.027,-0.203, 0.953
$GSENS, 0.027,-0.211, 0.947
$GPRMC,082722.00,A,3540.32139,N,13921.78884,E,0.077,,061016,,,A*76
$GPGGA,082722.00,3540.32139,N,13921.78884,E,1,10,1.12,123.8,M,38.9,M,,*53
$GPGSA,A,3,13,05,02,30,15,07,20,06,29,21,,,1.94,1.12,1.59*08
$GPGSV,4,1,15,02,42,168,32,04,74,014,40,05,68,040,35,06,07,152,14*7F
$GPGSV,4,2,15,07,13,040,33,13,75,277,40,15,41,256,25,20,36,306,38*72
$GPGSV,4,3,15,21,11,319,18,24,03,199,10,29,21,268,30,30,35,060,27*7F
$GPGSV,4,4,15,42,48,170,,50,48,170,,193,,,31*47
$GSENS, 0.035,-0.195, 0.947
$GSENS, 0.027,-0.209, 0.949
$GSENS, 0.029,-0.195, 0.951
$GSENS, 0.025,-0.209, 0.953
$GSENS, 0.027,-0.199, 0.943
$GPRMC,082722.00,A,3540.32139,N,13921.78884,E,0.077,,061016,,,A*76
$GPGGA,082722.00,3540.32139,N,13921.78884,E,1,10,1.12,123.8,M,38.9,M,,*53
$GPGSA,A,3,13,05,02,30,15,07,20,06,29,21,,,1.94,1.12,1.59*08
$GPGSV,4,1,15,02,42,168,32,04,74,014,40,05,68,040,35,06,07,152,14*7F
$GPGSV,4,2,15,07,13,040,33,13,75,277,40,15,41,256,25,20,36,306,38*72
$GPGSV,4,3,15,21,11,319,18,24,03,199,10,29,21,268,30,30,35,060,27*7F
$GPGSV,4,4,15,42,48,170,,50,48,170,,193,,,31*47
$GSENS, 0.025,-0.203, 0.949
$GSENS, 0.023,-0.203, 0.951
$GSENS, 0.027,-0.207, 0.953
$GSENS, 0.029,-0.212, 0.949
$GSENS, 0.031,-0.191, 0.951
$GPRMC,082723.00,A,3540.32152,N,13921.78893,E,0.024,,061016,,,A*7A
$GPGGA,082723.00,3540.32152,N,13921.78893,E,1,10,1.12,124.2,M,38.9,M,,*54
$GPGSV,4,1,15,02,42,168,32,04,74,014,41,05,68,040,35,06,07,152,14*7E
$GPGSV,4,2,15,07,13,040,33,13,75,277,40,15,41,256,25,20,36,306,38*72
$GPGSV,4,3,15,21,11,319,18,24,03,199,10,29,21,268,30,30,35,060,29*71
$GPGSV,4,4,15,42,48,170,,50,48,170,,193,,,31*47
$GSENS, 0.035,-0.199, 0.949
$GSENS, 0.023,-0.207, 0.947
$GSENS, 0.033,-0.199, 0.949
$GSENS, 0.027,-0.205, 0.949
$GSENS, 0.025,-0.203, 0.957
$GPRMC,082723.00,A,3540.32152,N,13921.78893,E,0.024,,061016,,,A*7A
$GPGGA,082723.00,3540.32152,N,13921.78893,E,1,10,1.12,124.2,M,38.9,M,,*54
$GPGSV,4,1,15,02,42,168,32,04,74,014,41,05,68,040,35,06,07,152,14*7E
$GPGSV,4,2,15,07,13,040,33,13,75,277,40,15,41,256,25,20,36,306,38*72
$GPGSV,4,3,15,21,11,319,18,24,03,199,10,29,21,268,30,30,35,060,29*71
$GPGSV,4,4,15,42,48,170,,50,48,170,,193,,,31*47
$GSENS, 0.029,-0.211, 0.959
$GSENS, 0.025,-0.197, 0.951
$GSENS, 0.035,-0.203, 0.951
$GSENS, 0.025,-0.205, 0.951
$GSENS, 0.041,-0.199, 0.953
$GPRMC,082724.00,A,3540.32165,N,13921.78903,E,0.037,,061016,,,A*73
$GPGGA,082724.00,3540.32165,N,13921.78903,E,1,10,1.12,124.6,M,38.9,M,,*5B
$GPGSV,4,1,15,02,42,168,32,04,74,014,41,05,68,040,35,06,07,152,14*7E
$GPGSV,4,2,15,07,13,040,33,13,75,277,41,15,41,256,26,20,36,306,37*7F
$GPGSV,4,3,15,21,11,319,17,24,03,199,11,29,21,268,30,30,35,060,28*7E
$GPGSV,4,4,15,42,48,170,,50,48,170,,193,,,31*47
$GSENS, 0.037,-0.205, 0.951
$GSENS, 0.021,-0.199, 0.949
$GSENS, 0.029,-0.203, 0.953
$GSENS, 0.021,-0.205, 0.947
$GSENS, 0.031,-0.201, 0.949
$GPRMC,082724.00,A,3540.32165,N,13921.78903,E,0.037,,061016,,,A*73
$GPGGA,082724.00,3540.32165,N,13921.78903,E,1,10,1.12,124.6,M,38.9,M,,*5B
$GPGSV,4,1,15,02,42,168,32,04,74,014,41,05,68,040,35,06,07,152,14*7E
$GPGSV,4,2,15,07,13,040,33,13,75,277,41,15,41,256,26,20,36,306,37*7F
$GPGSV,4,3,15,21,11,319,17,24,03,199,11,29,21,268,30,30,35,060,28*7E
$GPGSV,4,4,15,42,48,170,,50,48,170,,193,,,31*47
$GSENS, 0.025,-0.205, 0.949
$GSENS, 0.029,-0.201, 0.951
$GSENS, 0.027,-0.211, 0.951
$GSENS, 0.021,-0.193, 0.947
$GSENS, 0.029,-0.203, 0.949
$GPRMC,082725.00,A,3540.32177,N,13921.78913,E,0.018,,061016,,,A*7D
$GPGGA,082725.00,3540.32177,N,13921.78913,E,1,10,1.12,124.9,M,38.9,M,,*57
$GPGSV,4,1,15,02,42,168,33,04,74,014,40,05,68,040,35,06,07,152,14*7E
$GPGSV,4,2,15,07,13,040,34,13,75,277,41,15,41,256,26,20,36,306,37*78
$GPGSV,4,3,15,21,11,319,15,24,03,199,12,29,21,268,30,30,35,060,28*7F
$GPGSV,4,4,15,42,48,170,,50,48,170,,193,,,31*47
$GSENS, 0.017,-0.201, 0.951
$GSENS, 0.025,-0.203, 0.947
$GSENS, 0.025,-0.201, 0.951
$GSENS, 0.033,-0.205, 0.945
$GSENS, 0.033,-0.205, 0.945
$GPRMC,082725.00,A,3540.32177,N,13921.78913,E,0.018,,061016,,,A*7D
$GPGGA,082725.00,3540.32177,N,13921.78913,E,1,10,1.12,124.9,M,38.9,M,,*57
$GPGSV,4,1,15,02,42,168,33,04,74,014,40,05,68,040,35,06,07,152,14*7E
$GPGSV,4,2,15,07,13,040,34,13,75,277,41,15,41,256,26,20,36,306,37*78
$GPGSV,4,3,15,21,11,319,15,24,03,199,12,29,21,268,30,30,35,060,28*7F
$GPGSV,4,4,15,42,48,170,,50,48,170,,193,,,31*47
$GSENS, 0.025,-0.199, 0.955
$GSENS, 0.031,-0.211, 0.953
$GSENS, 0.015,-0.201, 0.941
$GSENS, 0.027,-0.203, 0.955
$GSENS, 0.019,-0.211, 0.949
$GPRMC,082726.00,A,3540.32189,N,13921.78920,E,0.005,,061016,,,A*73
$GPGGA,082726.00,3540.32189,N,13921.78920,E,1,10,1.12,125.3,M,38.9,M,,*5E
$GPGSA,A,3,13,05,02,30,15,07,20,06,29,21,,,1.94,1.12,1.59*08
$GPGSV,4,1,15,02,42,168,33,04,74,014,40,05,68,040,35,06,07,152,14*7E
$GPGSV,4,2,15,07,13,040,34,13,75,277,41,15,41,256,26,20,36,306,36*79
$GPGSV,4,3,15,21,11,319,12,24,03,199,12,29,21,268,30,30,35,060,28*78
$GPGSV,4,4,15,42,48,170,,50,48,170,,193,,,31*47
$GSENS, 0.031,-0.199, 0.955
$GSENS, 0.037,-0.203, 0.949
$GSENS, 0.031,-0.191, 0.955
$GSENS, 0.027,-0.201, 0.951
$GSENS, 0.019,-0.209, 0.949
$GPRMC,082726.00,A,3540.32189,N,13921.78920,E,0.005,,061016,,,A*73
$GPGGA,082726.00,3540.32189,N,13921.78920,E,1,10,1.12,125.3,M,38.9,M,,*5E
$GPGSA,A,3,13,05,02,30,15,07,20,06,29,21,,,1.94,1.12,1.59*08
$GPGSV,4,1,15,02,42,168,33,04,74,014,40,05,68,040,35,06,07,152,14*7E
$GPGSV,4,2,15,07,13,040,34,13,75,277,41,15,41,256,26,20,36,306,36*79
$GPGSV,4,3,15,21,11,319,12,24,03,199,12,29,21,268,30,30,35,060,28*78
$GPGSV,4,4,15,42,48,170,,50,48,170,,193,,,31*47
$GSENS, 0.039,-0.195, 0.951
$GSENS, 0.029,-0.205, 0.949
$GSENS, 0.025,-0.201, 0.949
$GSENS, 0.019,-0.207, 0.947
$GSENS, 0.033,-0.199, 0.951
$GPRMC,082727.00,A,3540.32207,N,13921.78929,E,0.037,,061016,,,A*7F
$GPGGA,082727.00,3540.32207,N,13921.78929,E,1,09,1.12,125.7,M,38.9,M,,*5F
$GPGSV,4,1,15,02,42,168,34,04,74,014,40,05,68,040,35,06,07,152,*7C
$GPGSV,4,2,15,07,13,040,34,13,75,277,41,15,41,256,27,20,36,306,35*7B
$GPGSV,4,3,15,21,11,319,10,24,03,199,11,29,21,268,30,30,35,060,28*79
$GPGSV,4,4,15,42,48,170,,50,48,170,,193,,,31*47
$GSENS, 0.031,-0.207, 0.951
$GSENS, 0.029,-0.201, 0.949
$GSENS, 0.027,-0.211, 0.949
$GSENS, 0.023,-0.207, 0.943
$GSENS, 0.031,-0.207, 0.957
$GPRMC,082727.00,A,3540.32207,N,13921.78929,E,0.037,,061016,,,A*7F
$GPGGA,082727.00,3540.32207,N,13921.78929,E,1,09,1.12,125.7,M,38.9,M,,*5F
$GPGSV,4,1,15,02,42,168,34,04,74,014,40,05,68,040,35,06,07,152,*7C
$GPGSV,4,2,15,07,13,040,34,13,75,277,41,15,41,256,27,20,36,306,35*7B
$GPGSV,4,3,15,21,11,319,10,24,03,199,11,29,21,268,30,30,35,060,28*79
$GPGSV,4,4,15,42,48,170,,50,48,170,,193,,,31*47
$GSENS, 0.029,-0.203, 0.953
$GSENS, 0.033,-0.199, 0.951
$GSENS, 0.035,-0.209, 0.951
$GSENS, 0.021,-0.199, 0.949
$GSENS, 0.033,-0.203, 0.957
$GPRMC,082728.00,A,3540.32225,N,13921.78936,E,0.017,,061016,,,A*7C
$GPGGA,082728.00,3540.32225,N,13921.78936,E,1,08,1.12,126.0,M,38.9,M,,*5B
$GPGSV,4,1,15,02,42,168,34,04,74,014,40,05,68,040,35,06,07,152,*7C
$GPGSV,4,2,15,07,13,040,34,13,75,277,41,15,41,256,27,20,36,306,34*7A
$GPGSV,4,3,15,21,11,319,09,24,03,199,09,29,21,268,29,30,35,060,28*70
$GPGSV,4,4,15,42,48,170,,50,48,170,,193,,,31*47
$GSENS, 0.025,-0.205, 0.951
$GSENS, 0.023,-0.201, 0.951
$GSENS, 0.029,-0.203, 0.949
$GSENS, 0.031,-0.205, 0.951
$GSENS, 0.029,-0.209, 0.953
$GPRMC,082728.00,A,3540.32225,N,13921.78936,E,0.017,,061016,,,A*7C
$GPGGA,082728.00,3540.32225,N,13921.78936,E,1,08,1.12,126.0,M,38.9,M,,*5B
$GPGSV,4,1,15,02,42,168,34,04,74,014,40,05,68,040,35,06,07,152,*7C
$GPGSV,4,2,15,07,13,040,34,13,75,277,41,15,41,256,27,20,36,306,34*7A
$GPGSV,4,3,15,21,11,319,09,24,03,199,09,29,21,268,29,30,35,060,28*70
$GPGSV,4,4,15,42,48,170,,50,48,170,,193,,,31*47
$GSENS, 0.033,-0.199, 0.957
$GSENS, 0.033,-0.203, 0.957
$GSENS, 0.025,-0.195, 0.951
$GSENS, 0.029,-0.201, 0.957
$GSENS, 0.019,-0.203, 0.949
$GPRMC,082729.00,A,3540.32241,N,13921.78940,E,0.059,,061016,,,A*74
$GPGGA,082729.00,3540.32241,N,13921.78940,E,1,08,1.12,126.3,M,38.9,M,,*5A
$GPGSV,4,1,15,02,42,168,34,04,74,014,40,05,68,040,35,06,07,152,*7C
$GPGSV,4,2,15,07,13,040,34,13,75,277,41,15,41,256,26,20,36,306,33*7C
$GPGSV,4,3,15,21,11,319,09,24,03,199,09,29,21,268,28,30,35,060,28*71
$GPGSV,4,4,15,42,48,170,,50,48,170,,193,,,31*47
$GSENS, 0.033,-0.203, 0.949
$GSENS, 0.027,-0.209, 0.951
$GSENS, 0.031,-0.199, 0.955
$GSENS, 0.029,-0.207, 0.949
$GSENS, 0.021,-0.199, 0.949
$GPRMC,082729.00,A,3540.32241,N,13921.78940,E,0.059,,061016,,,A*74
$GPGGA,082729.00,3540.32241,N,13921.78940,E,1,08,1.12,126.3,M,38.9,M,,*5A
$GPGSV,4,1,15,02,42,168,34,04,74,014,40,05,68,040,35,06,07,152,*7C
$GPGSV,4,2,15,07,13,040,34,13,75,277,41,15,41,256,26,20,36,306,33*7C
$GPGSV,4,3,15,21,11,319,09,24,03,199,09,29,21,268,28,30,35,060,28*71
$GPGSV,4,4,15,42,48,170,,50,48,170,,193,,,31*47
$GSENS, 0.031,-0.205, 0.953
$GSENS, 0.027,-0.211, 0.951
$GSENS, 0.021,-0.203, 0.949
$GSENS, 0.031,-0.199, 0.953
$GSENS, 0.025,-0.207, 0.949
$GPRMC,082730.00,A,3540.32256,N,13921.78944,E,0.062,,061016,,,A*76
$GPGGA,082730.00,3540.32256,N,13921.78944,E,1,08,1.12,126.6,M,38.9,M,,*55
$GPGSA,A,3,13,05,02,30,15,07,20,29,,,,,1.94,1.12,1.59*0D
$GPGSV,4,1,15,02,42,168,34,04,74,014,40,05,68,040,35,06,07,152,*7C
$GPGSV,4,2,15,07,13,040,34,13,75,277,41,15,41,256,26,20,36,306,32*7D
$GPGSV,4,3,15,21,11,319,09,24,03,199,09,29,21,268,27,30,35,060,28*7E
$GPGSV,4,4,15,42,48,170,,50,48,170,,193,,,31*47
$GSENS, 0.029,-0.199, 0.941
$GSENS, 0.037,-0.199, 0.949
$GSENS, 0.023,-0.203, 0.947
$GSENS, 0.033,-0.203, 0.947
$GSENS, 0.033,-0.201, 0.947
$GPRMC,082730.00,A,3540.32256,N,13921.78944,E,0.062,,061016,,,A*76
$GPGGA,082730.00,3540.32256,N,13921.78944,E,1,08,1.12,126.6,M,38.9,M,,*55
$GPGSA,A,3,13,05,02,30,15,07,20,29,,,,,1.94,1.12,1.59*0D
$GPGSV,4,1,15,02,42,168,34,04,74,014,40,05,68,040,35,06,07,152,*7C
$GPGSV,4,2,15,07,13,040,34,13,75,277,41,15,41,256,26,20,36,306,32*7D
$GPGSV,4,3,15,21,11,319,09,24,03,199,09,29,21,268,27,30,35,060,28*7E
$GPGSV,4,4,15,42,48,170,,50,48,170,,193,,,31*47
$GSENS, 0.017,-0.193, 0.955
$GSENS, 0.033,-0.199, 0.957
$GSENS, 0.021,-0.209, 0.945
$GSENS, 0.039,-0.201, 0.951
$GSENS, 0.021,-0.218, 0.951
$GPRMC,082731.00,A,3540.32272,N,13921.78944,E,0.096,,061016,,,A*7A
$GPGGA,082731.00,3540.32272,N,13921.78944,E,1,08,1.12,126.7,M,38.9,M,,*53
$GPGSV,4,1,15,02,42,168,35,04,74,014,40,05,68,040,35,06,07,152,*7D
$GPGSV,4,2,15,07,13,040,34,13,75,277,41,15,41,256,26,20,36,306,31*7E
$GPGSV,4,3,15,21,11,319,08,24,03,199,09,29,21,268,27,30,35,060,28*7F
$GPGSV,4,4,15,42,48,170,,50,48,170,,193,,,31*47
$GSENS, 0.021,-0.199, 0.949
$GSENS, 0.035,-0.205, 0.953
$GSENS, 0.025,-0.201, 0.949
$GSENS, 0.035,-0.205, 0.953
$GSENS, 0.019,-0.201, 0.947
$GPRMC,082731.00,A,3540.32272,N,13921.78944,E,0.096,,061016,,,A*7A
$GPGGA,082731.00,3540.32272,N,13921.78944,E,1,08,1.12,126.7,M,38.9,M,,*53
$GPGSV,4,1,15,02,42,168,35,04,74,014,40,05,68,040,35,06,07,152,*7D
$GPGSV,4,2,15,07,13,040,34,13,75,277,41,15,41,256,26,20,36,306,31*7E
$GPGSV,4,3,15,21,11,319,08,24,03,199,09,29,21,268,27,30,35,060,28*7F
$GPGSV,4,4,15,42,48,170,,50,48,170,,193,,,31*47
$GSENS, 0.029,-0.201, 0.957
$GSENS, 0.023,-0.203, 0.945
$GSENS, 0.044,-0.201, 0.955
$GSENS, 0.035,-0.207, 0.949
$GSENS, 0.033,-0.199, 0.949
$GPRMC,082732.00,A,3540.32285,N,13921.78946,E,0.029,,061016,,,A*77
$GPGGA,082732.00,3540.32285,N,13921.78946,E,1,08,1.12,126.8,M,38.9,M,,*55
$GPGSV,4,1,15,02,42,168,35,04,74,014,40,05,68,040,35,06,07,152,*7D
$GPGSV,4,2,15,07,13,040,34,13,75,277,41,15,41,256,25,20,36,306,30*7C
$GPGSV,4,3,15,21,11,319,08,24,03,199,09,29,21,268,26,30,35,060,28*7E
$GPGSV,4,4,15,42,48,170,,50,48,170,,193,,,31*47
$GSENS, 0.029,-0.207, 0.949
$GSENS, 0.031,-0.199, 0.947
$GSENS, 0.033,-0.203, 0.949
$GSENS, 0.019,-0.203, 0.949
$GSENS, 0.035,-0.193, 0.955
$GPRMC,082732.00,A,3540.32285,N,13921.78946,E,0.029,,061016,,,A*77
$GPGGA,082732.00,3540.32285,N,13921.78946,E,1,08,1.12,126.8,M,38.9,M,,*55
$GPGSV,4,1,15,02,42,168,35,04,74,014,40,05,68,040,35,06,07,152,*7D
$GPGSV,4,2,15,07,13,040,34,13,75,277,41,15,41,256,25,20,36,306,30*7C
$GPGSV,4,3,15,21,11,319,08,24,03,199,09,29,21,268,26,30,35,060,28*7E
$GPGSV,4,4,15,42,48,170,,50,48,170,,193,,,31*47
$GSENS, 0.027,-0.211, 0.951
$GSENS, 0.029,-0.195, 0.951
$GSENS, 0.035,-0.201, 0.951
$GSENS, 0.017,-0.205, 0.945
$GSENS, 0.027,-0.211, 0.953
$GPRMC,082733.00,A,3540.32297,N,13921.78951,E,0.068,,061016,,,A*76
$GPGGA,082733.00,3540.32297,N,13921.78951,E,1,09,1.12,127.0,M,38.9,M,,*59
$GPGSV,4,1,15,02,42,168,35,04,74,014,40,05,68,040,35,06,07,152,*7D
$GPGSV,4,2,15,07,13,040,34,13,75,277,41,15,41,256,25,20,36,306,29*74
$GPGSV,4,3,15,21,11,319,07,24,03,199,10,29,21,268,25,30,35,060,28*7A
$GPGSV,4,4,15,42,48,170,,50,48,170,,193,,,31*47
$GSENS, 0.027,-0.211, 0.951
$GSENS, 0.031,-0.199, 0.951
$GSENS, 0.027,-0.211, 0.951
$GSENS, 0.019,-0.199, 0.949
$GSENS, 0.033,-0.203, 0.955
$GPRMC,082733.00,A,3540.32297,N,13921.78951,E,0.068,,061016,,,A*76
$GPGGA,082733.00,3540.32297,N,13921.78951,E,1,09,1.12,127.0,M,38.9,M,,*59
$GPGSV,4,1,15,02,42,168,35,04,74,014,40,05,68,040,35,06,07,152,*7D
$GPGSV,4,2,15,07,13,040,34,13,75,277,41,15,41,256,25,20,36,306,29*74
$GPGSV,4,3,15,21,11,319,07,24,03,199,10,29,21,268,25,30,35,060,28*7A
$GPGSV,4,4,15,42,48,170,,50,48,170,,193,,,31*47
$GSENS, 0.031,-0.199, 0.949
$GSENS, 0.031,-0.207, 0.949
$GSENS, 0.019,-0.207, 0.953
$GSENS, 0.033,-0.207, 0.951
$GSENS, 0.025,-0.205, 0.955
$GPRMC,082734.00,A,3540.32308,N,13921.78952,E,0.042,,061016,,,A*7D
$GPGGA,082734.00,3540.32308,N,13921.78952,E,1,09,1.12,127.0,M,38.9,M,,*5A
$GPGSA,A,3,13,05,02,30,15,07,20,29,21,,,,1.94,1.12,1.59*0E
$GPGSV,4,1,15,02,42,168,35,04,74,014,40,05,68,040,35,06,07,152,*7D
$GPGSV,4,2,15,07,13,040,34,13,75,277,41,15,41,256,24,20,36,306,30*7D
$GPGSV,4,3,15,21,11,319,07,24,03,199,10,29,21,268,24,30,35,060,28*7B
$GPGSV,4,4,15,42,48,170,,50,48,170,,193,,,31*47
$GSENS, 0.027,-0.203, 0.953
$GSENS, 0.031,-0.205, 0.957
$GSENS, 0.011,-0.199, 0.945
$GSENS, 0.027,-0.211, 0.955
$GSENS, 0.029,-0.211, 0.957
$GPRMC,082734.00,A,3540.32308,N,13921.78952,E,0.042,,061016,,,A*7D
$GPGGA,082734.00,3540.32308,N,13921.78952,E,1,09,1.12,127.0,M,38.9,M,,*5A
$GPGSA,A,3,13,05,02,30,15,07,20,29,21,,,,1.94,1.12,1.59*0E
$GPGSV,4,1,15,02,42,168,35,04,74,014,40,05,68,040,35,06,07,152,*7D
$GPGSV,4,2,15,07,13,040,34,13,75,277,41,15,41,256,24,20,36,306,30*7D
$GPGSV,4,3,15,21,11,319,07,24,03,199,10,29,21,268,24,30,35,060,28*7B
$GPGSV,4,4,15,42,48,170,,50,48,170,,193,,,31*47
$GSENS, 0.033,-0.199, 0.951
$GSENS, 0.033,-0.203, 0.951
$GSENS, 0.025,-0.195, 0.953
$GSENS, 0.033,-0.199, 0.957
$GSENS, 0.013,-0.203, 0.949
$GPRMC,082735.00,A,3540.32315,N,13921.78949,E,0.042,,061016,,,A*7A
$GPGGA,082735.00,3540.32315,N,13921.78949,E,1,08,1.21,127.0,M,38.9,M,,*5C
$GPGSV,4,1,15,02,42,168,35,04,74,014,40,05,68,040,35,06,07,152,*7D
$GPGSV,4,2,15,07,13,040,34,13,75,277,41,15,41,256,24,20,36,306,30*7D
$GPGSV,4,3,15,21,11,319,07,24,03,199,10,29,21,268,22,30,35,060,28*7D
$GPGSV,4,4,15,42,48,170,,50,48,170,,193,,,31*47
$GSENS, 0.037,-0.207, 0.949
$GSENS, 0.035,-0.201, 0.947
$GSENS, 0.031,-0.201, 0.951
$GSENS, 0.039,-0.209, 0.949
$GSENS, 0.017,-0.201, 0.953
$GPRMC,082735.00,A,3540.32315,N,13921.78949,E,0.042,,061016,,,A*7A
$GPGGA,082735.00,3540.32315,N,13921.78949,E,1,08,1.21,127.0,M,38.9,M,,*5C
$GPGSV,4,1,15,02,42,168,35,04,74,014,40,05,68,040,35,06,07,152,*7D
$GPGSV,4,2,15,07,13,040,34,13,75,277,41,15,41,256,24,20,36,306,30*7D
$GPGSV,4,3,15,21,11,319,07,24,03,199,10,29,21,268,22,30,35,060,28*7D
$GPGSV,4,4,15,42,48,170,,50,48,170,,193,,,31*47
$GSENS, 0.033,-0.203, 0.955
$GSENS, 0.031,-0.205, 0.957
$GSENS, 0.015,-0.199, 0.949
$GSENS, 0.029,-0.203, 0.953
$GSENS, 0.023,-0.203, 0.951
$GPRMC,082736.00,A,3540.32322,N,13921.78945,E,0.038,,061016,,,A*7C
$GPGGA,082736.00,3540.32322,N,13921.78945,E,1,08,1.21,126.9,M,38.9,M,,*5F
$GPGSV,4,1,15,02,42,168,34,04,74,014,40,05,68,040,36,06,07,152,*7F
$GPGSV,4,2,15,07,13,040,35,13,75,277,41,15,41,256,23,20,36,306,31*7A
$GPGSV,4,3,15,21,11,319,07,24,03,199,10,29,21,268,20,30,35,060,28*7F
$GPGSV,4,4,15,42,48,170,,50,48,170,,193,,,32*44
$GSENS, 0.029,-0.197, 0.945
$GSENS, 0.031,-0.201, 0.953
$GSENS, 0.029,-0.201, 0.957
$GSENS, 0.031,-0.201, 0.951
$GSENS, 0.029,-0.199, 0.953
$GPRMC,082736.00,A,3540.32322,N,13921.78945,E,0.038,,061016,,,A*7C
$GPGGA,082736.00,3540.32322,N,13921.78945,E,1,08,1.21,126.9,M,38.9,M,,*5F
$GPGSV,4,1,15,02,42,168,34,04,74,014,40,05,68,040,36,06,07,152,*7F
$GPGSV,4,2,15,07,13,040,35,13,75,277,41,15,41,256,23,20,36,306,31*7A
$GPGSV,4,3,15,21,11,319,07,24,03,199,10,29,21,268,20,30,35,060,28*7F
$GPGSV,4,4,15,42,48,170,,50,48,170,,193,,,32*44
$GSENS, 0.029,-0.211, 0.951
$GSENS, 0.025,-0.209, 0.949
$GSENS, 0.037,-0.203, 0.957
$GSENS, 0.023,-0.211, 0.949
$GSENS, 0.013,-0.203, 0.943
$GPRMC,082737.00,A,3540.32329,N,13921.78938,E,0.071,,061016,,,A*71
$GPGGA,082737.00,3540.32329,N,13921.78938,E,1,08,1.12,126.7,M,38.9,M,,*51
$GPGSV,4,1,15,02,42,168,34,04,74,014,40,05,68,040,36,06,07,152,*7F
$GPGSV,4,2,15,07,13,040,35,13,75,277,41,15,41,256,23,20,36,306,32*79
$GPGSV,4,3,15,21,11,319,07,24,03,199,10,29,21,268,,30,35,060,29*7C
$GPGSV,4,4,15,42,48,170,,50,48,170,,193,,,32*44
$GSENS, 0.031,-0.211, 0.955
$GSENS, 0.027,-0.211, 0.951
$GSENS, 0.027,-0.197, 0.947
$GSENS, 0.035,-0.207, 0.947
$GSENS, 0.021,-0.211, 0.949
$GPRMC,082737.00,A,3540.32329,N,13921.78938,E,0.071,,061016,,,A*71
$GPGGA,082737.00,3540.32329,N,13921.78938,E,1,08,1.12,126.7,M,38.9,M,,*51
$GPGSV,4,1,15,02,42,168,34,04,74,014,40,05,68,040,36,06,07,152,*7F
$GPGSV,4,2,15,07,13,040,35,13,75,277,41,15,41,256,23,20,36,306,32*79
$GPGSV,4,3,15,21,11,319,07,24,03,199,10,29,21,268,,30,35,060,29*7C
$GPGSV,4,4,15,42,48,170,,50,48,170,,193,,,32*44
$GSENS, 0.029,-0.201, 0.949
$GSENS, 0.029,-0.211, 0.957
$GSENS, 0.021,-0.207, 0.941
$GSENS, 0.025,-0.201, 0.953
$GSENS, 0.035,-0.199, 0.949
$GPRMC,082738.00,A,3540.32337,N,13921.78928,E,0.108,,061016,,,A*7F
$GPGGA,082738.00,3540.32337,N,13921.78928,E,1,08,1.12,126.5,M,38.9,M,,*52
$GPGSA,A,3,13,05,02,30,15,07,20,21,,,,,1.97,1.12,1.62*0E
$GPGSV,4,1,15,02,42,168,34,04,74,014,40,05,68,040,36,06,07,152,*7F
$GPGSV,4,2,15,07,13,040,35,13,75,277,41,15,41,256,22,20,36,306,32*78
$GPGSV,4,3,15,21,11,319,07,24,03,199,10,29,21,268,,30,35,060,29*7C
$GPGSV,4,4,15,42,48,170,,50,48,170,,193,,,31*47
$GSENS, 0.019,-0.197, 0.949
$GSENS, 0.035,-0.207, 0.957
$GSENS, 0.029,-0.209, 0.949
$GSENS, 0.025,-0.195, 0.949
$GSENS, 0.031,-0.205, 0.953
$GPRMC,082738.00,A,3540.32337,N,13921.78928,E,0.108,,061016,,,A*7F
$GPGGA,082738.00,3540.32337,N,13921.78928,E,1,08,1.12,126.5,M,38.9,M,,*52
$GPGSA,A,3,13,05,02,30,15,07,20,21,,,,,1.97,1.12,1.62*0E
$GPGSV,4,1,15,02,42,168,34,04,74,014,40,05,68,040,36,06,07,152,*7F
$GPGSV,4,2,15,07,13,040,35,13,75,277,41,15,41,256,22,20,36,306,32*78
$GPGSV,4,3,15,21,11,319,07,24,03,199,10,29,21,268,,30,35,060,29*7C
$GPGSV,4,4,15,42,48,170,,50,48,170,,193,,,31*47
$GSENS, 0.025,-0.205, 0.951
$GSENS, 0.035,-0.199, 0.951
$GSENS, 0.029,-0.201, 0.951
$GSENS, 0.029,-0.201, 0.955
$GSENS, 0.031,-0.205, 0.955
$GPRMC,082739.00,A,3540.32344,N,13921.78922,E,0.061,,061016,,,A*7E
$GPGGA,082739.00,3540.32344,N,13921.78922,E,1,07,1.21,126.5,M,38.9,M,,*52
$GPGSV,4,1,15,02,42,168,34,04,74,014,40,05,68,040,35,06,07,152,*7C
$GPGSV,4,2,15,07,13,040,35,13,75,277,41,15,41,256,22,20,36,306,33*79
$GPGSV,4,3,15,21,11,319,08,24,03,199,09,29,21,268,,30,35,060,29*7B
$GPGSV,4,4,15,42,48,170,,50,48,170,,193,,,31*47
$GSENS, 0.027,-0.205, 0.949
$GSENS, 0.031,-0.201, 0.951
$GSENS, 0.027,-0.201, 0.949
$GSENS, 0.021,-0.203, 0.959
$GSENS, 0.017,-0.203, 0.955
$GPRMC,082739.00,A,3540.32344,N,13921.78922,E,0.061,,061016,,,A*7E
$GPGGA,082739.00,3540.32344,N,13921.78922,E,1,07,1.21,126.5,M,38.9,M,,*52
$GPGSV,4,1,15,02,42,168,34,04,74,014,40,05,68,040,35,06,07,152,*7C
$GPGSV,4,2,15,07,13,040,35,13,75,277,41,15,41,256,22,20,36,306,33*79
$GPGSV,4,3,15,21,11,319,08,24,03,199,09,29,21,268,,30,35,060,29*7B
$GPGSV,4,4,15,42,48,170,,50,48,170,,193,,,31*47
$GSENS, 0.039,-0.199, 0.957
$GSENS, 0.021,-0.201, 0.947
$GSENS, 0.033,-0.201, 0.953
$GSENS, 0.029,-0.203, 0.951
$GSENS, 0.031,-0.201, 0.949
$GPRMC,082740.00,A,3540.32350,N,13921.78915,E,0.068,,061016,,,A*78
$GPGGA,082740.00,3540.32350,N,13921.78915,E,1,07,1.21,126.4,M,38.9,M,,*5C
$GPGSV,4,1,15,02,42,168,34,04,74,014,40,05,68,040,35,06,07,152,*7C
$GPGSV,4,2,15,07,13,040,35,13,75,277,41,15,41,256,21,20,36,306,34*7D
$GPGSV,4,3,15,21,11,319,08,24,03,199,09,29,21,268,,30,35,060,29*7B
$GPGSV,4,4,15,42,48,170,,50,48,170,,193,,,31*47
$GSENS, 0.029,-0.201, 0.957
$GSENS, 0.013,-0.205, 0.941
$GSENS, 0.031,-0.201, 0.951
$GSENS, 0.031,-0.203, 0.949
$GSENS, 0.031,-0.197, 0.955
$GPRMC,082740.00,A,3540.32350,N,13921.78915,E,0.068,,061016,,,A*78
$GPGGA,082740.00,3540.32350,N,13921.78915,E,1,07,1.21,126.4,M,38.9,M,,*5C
$GPGSV,4,1,15,02,42,168,34,04,74,014,40,05,68,040,35,06,07,152,*7C
$GPGSV,4,2,15,07,13,040,35,13,75,277,41,15,41,256,21,20,36,306,34*7D
$GPGSV,4,3,15,21,11,319,08,24,03,199,09,29,21,268,,30,35,060,29*7B
$GPGSV,4,4,15,42,48,170,,50,48,170,,193,,,31*47
$GSENS, 0.033,-0.203, 0.957
$GSENS, 0.029,-0.193, 0.955
$GSENS, 0.037,-0.205, 0.951
$GSENS, 0.019,-0.199, 0.949
$GSENS, 0.027,-0.203, 0.951
$GPRMC,082741.00,A,3540.32356,N,13921.78906,E,0.054,,061016,,,A*72
$GPGGA,082741.00,3540.32356,N,13921.78906,E,1,07,1.21,126.2,M,38.9,M,,*5F
$GPGSV,4,1,15,02,42,168,34,04,74,014,40,05,68,040,35,06,07,152,*7C
$GPGSV,4,2,15,07,13,040,35,13,75,277,41,15,41,256,20,20,36,306,36*7E
$GPGSV,4,3,15,21,11,319,20,24,03,199,09,29,21,268,,30,35,060,29*71
$GPGSV,4,4,15,42,48,170,,50,48,170,,193,,,31*47
$GSENS, 0.031,-0.201, 0.947
$GSENS, 0.035,-0.207, 0.953
$GSENS, 0.013,-0.201, 0.953
$GSENS, 0.033,-0.199, 0.949
$GSENS, 0.039,-0.205, 0.949
$GPRMC,082741.00,A,3540.32356,N,13921.78906,E,0.054,,061016,,,A*72
$GPGGA,082741.00,3540.32356,N,13921.78906,E,1,07,1.21,126.2,M,38.9,M,,*5F
$GPGSV,4,1,15,02,42,168,34,04,74,014,40,05,68,040,35,06,07,152,*7C
$GPGSV,4,2,15,07,13,040,35,13,75,277,41,15,41,256,20,20,36,306,36*7E
$GPGSV,4,3,15,21,11,319,20,24,03,199,09,29,21,268,,30,35,060,29*71
$GPGSV,4,4,15,42,48,170,,50,48,170,,193,,,31*47
$GSENS, 0.023,-0.203, 0.943
$GSENS, 0.031,-0.205, 0.955
$GSENS, 0.027,-0.209, 0.949
$GSENS, 0.027,-0.195, 0.947
$GSENS, 0.042,-0.203, 0.949
$GPRMC,082742.00,A,3540.32362,N,13921.78896,E,0.060,,061016,,,A*79
$GPGGA,082742.00,3540.32362,N,13921.78896,E,1,07,1.21,126.0,M,38.9,M,,*51
$GPGSA,A,3,13,05,02,30,15,07,20,,,,,,2.24,1.21,1.89*03
$GPGSV,4,1,15,02,42,168,34,04,74,014,40,05,68,040,35,06,07,152,*7C
$GPGSV,4,2,15,07,13,040,35,13,75,277,41,15,41,256,19,20,36,306,37*75
$GPGSV,4,3,15,21,11,319,17,24,03,199,09,29,21,268,,30,35,060,29*75
$GPGSV,4,4,15,42,48,170,,50,48,170,,193,,,31*47
$GSENS, 0.021,-0.209, 0.943
$GSENS, 0.033,-0.203, 0.951
$GSENS, 0.021,-0.205, 0.947
$GSENS, 0.035,-0.203, 0.955
$GSENS, 0.035,-0.205, 0.955
$GPRMC,082742.00,A,3540.32362,N,13921.78896,E,0.060,,061016,,,A*79
$GPGGA,082742.00,3540.32362,N,13921.78896,E,1,07,1.21,126.0,M,38.9,M,,*51
$GPGSA,A,3,13,05,02,30,15,07,20,,,,,,2.24,1.21,1.89*03
$GPGSV,4,1,15,02,42,168,34,04,74,014,40,05,68,040,35,06,07,152,*7C
$GPGSV,4,2,15,07,13,040,35,13,75,277,41,15,41,256,19,20,36,306,37*75
$GPGSV,4,3,15,21,11,319,17,24,03,199,09,29,21,268,,30,35,060,29*75
$GPGSV,4,4,15,42,48,170,,50,48,170,,193,,,31*47
$GSENS, 0.039,-0.197, 0.951
$GSENS, 0.037,-0.199, 0.953
$GSENS, 0.031,-0.197, 0.947
$GSENS, 0.029,-0.203, 0.951
$GSENS, 0.025,-0.203, 0.949
$GPRMC,082743.00,A,3540.32368,N,13921.78882,E,0.039,,061016,,,A*7B
$GPGGA,082743.00,3540.32368,N,13921.78882,E,1,07,1.21,125.8,M,38.9,M,,*54
$GPGSV,4,1,15,02,42,168,34,04,74,014,40,05,68,041,35,06,07,152,*7D
$GPGSV,4,2,15,07,13,040,35,13,75,277,41,15,41,256,19,20,36,306,38*7A
$GPGSV,4,3,15,21,11,319,15,24,03,199,09,29,21,268,22,30,35,060,30*7F
$GPGSV,4,4,15,42,48,170,,50,48,170,,193,,,31*47
$GSENS, 0.033,-0.201, 0.955
$GSENS, 0.027,-0.203, 0.953
$GSENS, 0.035,-0.199, 0.951
$GSENS, 0.031,-0.203, 0.951
$GSENS, 0.029,-0.197, 0.947
$GPRMC,082743.00,A,3540.32368,N,13921.78882,E,0.039,,061016,,,A*7B
$GPGGA,082743.00,3540.32368,N,13921.78882,E,1,07,1.21,125.8,M,38.9,M,,*54
$GPGSV,4,1,15,02,42,168,34,04,74,014,40,05,68,041,35,06,07,152,*7D
