$GTRIP,00e6f662
$GPRMC,063916.00,A,3540.30340,N,13921.77473,E,0.000,,221116,,,A*72
$GPGGA,063916.00,3540.30340,N,13921.77473,E,1,08,1.37,188.7,M,38.9,M,,*50
$GPGSV,4,1,13,02,04,166,,04,40,049,33,05,46,112,31,13,58,029,31*75
$GPGSV,4,2,13,15,64,314,27,18,14,308,27,20,73,330,23,21,33,300,29*76
$GPGSV,4,3,13,24,39,204,21,28,15,069,,29,01,237,,30,09,040,*76
$GPGSV,4,4,13,193,83,175,25*7F
$GSENS, 0.132, 0.042,-0.965
$GSENS, 0.115, 0.042,-0.967
$GSENS, 0.125, 0.046,-0.965
$GSENS, 0.123, 0.050,-0.963
$GSENS, 0.117, 0.050,-0.965
$GPRMC,063916.00,A,3540.30340,N,13921.77473,E,0.000,,221116,,,A*72
$GPGGA,063916.00,3540.30340,N,13921.77473,E,1,08,1.37,188.7,M,38.9,M,,*50
$GPGSV,4,1,13,02,04,166,,04,40,049,33,05,46,112,31,13,58,029,31*75
$GPGSV,4,2,13,15,64,314,27,18,14,308,27,20,73,330,23,21,33,300,29*76
$GPGSV,4,3,13,24,39,204,21,28,15,069,,29,01,237,,30,09,040,*76
$GPGSV,4,4,13,193,83,175,25*7F
$GSENS, 0.119, 0.050,-0.959
$GSENS, 0.121, 0.046,-0.959
$GSENS, 0.121, 0.048,-0.963
$GSENS, 0.127, 0.041,-0.965
$GSENS, 0.125, 0.046,-0.963
$GPRMC,063917.00,A,3540.30340,N,13921.77473,E,0.000,,221116,,,A*73
$GPGGA,063917.00,3540.30340,N,13921.77473,E,1,08,1.37,188.7,M,38.9,M,,*51
$GPGSA,A,3,20,15,13,05,193,24,21,18,,,,,2.28,1.37,1.83*33
$GPGSV,4,1,13,02,04,166,,04,40,049,33,05,46,112,31,13,58,029,31*75
$GPGSV,4,2,13,15,64,314,27,18,14,308,27,20,73,330,23,21,33,300,28*77
$GPGSV,4,3,13,24,39,204,22,28,15,069,,29,01,237,,30,09,040,*75
$GPGSV,4,4,13,193,83,175,26*7C
$GSENS, 0.123, 0.048,-0.959
$GSENS, 0.123, 0.052,-0.963
$GSENS, 0.123, 0.052,-0.963
$GSENS, 0.119, 0.048,-0.965
$GSENS, 0.119, 0.052,-0.965
$GPRMC,063917.00,A,3540.30340,N,13921.77473,E,0.000,,221116,,,A*73
$GPGGA,063917.00,3540.30340,N,13921.77473,E,1,08,1.37,188.7,M,38.9,M,,*51
$GPGSA,A,3,20,15,13,05,193,24,21,18,,,,,2.28,1.37,1.83*33
$GPGSV,4,1,13,02,04,166,,04,40,049,33,05,46,112,31,13,58,029,31*75
$GPGSV,4,2,13,15,64,314,27,18,14,308,27,20,73,330,23,21,33,300,28*77
$GPGSV,4,3,13,24,39,204,22,28,15,069,,29,01,237,,30,09,040,*75
$GPGSV,4,4,13,193,83,175,26*7C
$GSENS, 0.119, 0.058,-0.965
$GSENS, 0.127, 0.042,-0.961
$GSENS, 0.125, 0.042,-0.965
$GSENS, 0.119, 0.050,-0.967
$GSENS, 0.119, 0.046,-0.965
$GPRMC,063918.00,A,3540.30340,N,13921.77473,E,0.000,,221116,,,A*7C
$GPGGA,063918.00,3540.30340,N,13921.77473,E,1,08,1.37,188.7,M,38.9,M,,*5E
$GPGSV,4,1,13,02,04,166,,04,40,049,33,05,46,112,31,13,58,029,31*75
$GPGSV,4,2,13,15,64,314,27,18,14,308,27,20,73,330,23,21,33,300,29*76
$GPGSV,4,3,13,24,39,204,21,28,15,069,,29,01,237,,30,09,040,*76
$GPGSV,4,4,13,193,83,175,25*7F
$GSENS, 0.115, 0.052,-0.961
$GSENS, 0.123, 0.039,-0.967
$GSENS, 0.123, 0.056,-0.965
$GSENS, 0.125, 0.041,-0.965
$GSENS, 0.119, 0.052,-0.963
$GPRMC,063918.00,A,3540.30340,N,13921.77473,E,0.000,,221116,,,A*7C
$GPGGA,063918.00,3540.30340,N,13921.77473,E,1,08,1.37,188.7,M,38.9,M,,*5E
$GPGSV,4,1,13,02,04,166,,04,40,049,33,05,46,112,31,13,58,029,31*75
$GPGSV,4,2,13,15,64,314,27,18,14,308,27,20,73,330,23,21,33,300,29*76
$GPGSV,4,3,13,24,39,204,21,28,15,069,,29,01,237,,30,09,040,*76
$GPGSV,4,4,13,193,83,175,25*7F
$GSENS, 0.121, 0.054,-0.959
$GSENS, 0.132, 0.039,-0.959
$GSENS, 0.117, 0.046,-0.965
$GSENS, 0.121, 0.054,-0.957
$GSENS, 0.123, 0.048,-0.963
$GPRMC,063919.00,A,3540.30340,N,13921.77473,E,0.000,,221116,,,A*7D
$GPGGA,063919.00,3540.30340,N,13921.77473,E,1,08,1.37,188.7,M,38.9,M,,*5F
$GPGSV,4,1,13,02,04,166,,04,40,049,33,05,46,112,31,13,58,029,31*75
$GPGSV,4,2,13,15,64,314,27,18,14,308,27,20,73,330,23,21,33,300,29*76
$GPGSV,4,3,13,24,39,204,21,28,15,069,,29,01,237,,30,09,040,*76
$GPGSV,4,4,13,193,83,175,25*7F
$GSENS, 0.123, 0.058,-0.957
$GSENS, 0.123, 0.052,-0.961
$GSENS, 0.123, 0.050,-0.967
$GSENS, 0.127, 0.035,-0.969
$GSENS, 0.119, 0.056,-0.963
$GPRMC,063919.00,A,3540.30340,N,13921.77473,E,0.000,,221116,,,A*7D
$GPGGA,063919.00,3540.30340,N,13921.77473,E,1,08,1.37,188.7,M,38.9,M,,*5F
$GPGSV,4,1,13,02,04,166,,04,40,049,33,05,46,112,31,13,58,029,31*75
$GPGSV,4,2,13,15,64,314,27,18,14,308,27,20,73,330,23,21,33,300,29*76
$GPGSV,4,3,13,24,39,204,21,28,15,069,,29,01,237,,30,09,040,*76
$GPGSV,4,4,13,193,83,175,25*7F
$GSENS, 0.128, 0.039,-0.963
$GSENS, 0.121, 0.039,-0.967
$GSENS, 0.119, 0.048,-0.963
$GSENS, 0.127, 0.042,-0.971
$GSENS, 0.125, 0.048,-0.965
$GPRMC,063920.00,A,3540.30340,N,13921.77473,E,0.000,,221116,,,A*77
$GPGGA,063920.00,3540.30340,N,13921.77473,E,1,08,1.37,188.7,M,38.9,M,,*55
$GPGSV,4,1,13,02,04,166,,04,40,049,33,05,46,112,30,13,58,029,31*74
$GPGSV,4,2,13,15,64,314,27,18,14,308,27,20,73,330,23,21,33,300,28*77
$GPGSV,4,3,13,24,39,204,22,28,15,069,,29,01,237,,30,09,040,*75
$GPGSV,4,4,13,193,83,175,25*7F
$GSENS, 0.119, 0.052,-0.965
$GSENS, 0.121, 0.048,-0.965
$GSENS, 0.123, 0.056,-0.959
$GSENS, 0.123, 0.048,-0.967
$GSENS, 0.127, 0.050,-0.961
$GPRMC,063920.00,A,3540.30340,N,13921.77473,E,0.000,,221116,,,A*77
$GPGGA,063920.00,3540.30340,N,13921.77473,E,1,08,1.37,188.7,M,38.9,M,,*55
$GPGSV,4,1,13,02,04,166,,04,40,049,33,05,46,112,30,13,58,029,31*74
$GPGSV,4,2,13,15,64,314,27,18,14,308,27,20,73,330,23,21,33,300,28*77
$GPGSV,4,3,13,24,39,204,22,28,15,069,,29,01,237,,30,09,040,*75
$GPGSV,4,4,13,193,83,175,25*7F
$GSENS, 0.121, 0.052,-0.957
$GSENS, 0.123, 0.046,-0.965
$GSENS, 0.125, 0.042,-0.963
$GSENS, 0.123, 0.046,-0.959
$GSENS, 0.121, 0.050,-0.963
$GPRMC,063921.00,A,3540.30340,N,13921.77473,E,0.000,,221116,,,A*76
$GPGGA,063921.00,3540.30340,N,13921.77473,E,1,08,1.37,188.7,M,38.9,M,,*54
$GPGSA,A,3,20,15,13,05,193,24,21,18,,,,,2.28,1.37,1.83*33
$GPGSV,4,1,13,02,04,166,,04,40,049,33,05,46,112,30,13,58,029,31*74
$GPGSV,4,2,13,15,64,314,27,18,14,308,28,20,73,330,23,21,33,300,28*78
$GPGSV,4,3,13,24,39,204,22,28,15,069,,29,01,237,,30,09,040,*75
$GPGSV,4,4,13,193,83,175,24*7E
$GSENS, 0.117, 0.052,-0.959
$GSENS, 0.123, 0.052,-0.965
$GSENS, 0.125, 0.042,-0.965
$GSENS, 0.119, 0.058,-0.965
$GSENS, 0.121, 0.052,-0.967
$GPRMC,063921.00,A,3540.30340,N,13921.77473,E,0.000,,221116,,,A*76
$GPGGA,063921.00,3540.30340,N,13921.77473,E,1,08,1.37,188.7,M,38.9,M,,*54
$GPGSA,A,3,20,15,13,05,193,24,21,18,,,,,2.28,1.37,1.83*33
$GPGSV,4,1,13,02,04,166,,04,40,049,33,05,46,112,30,13,58,029,31*74
$GPGSV,4,2,13,15,64,314,27,18,14,308,28,20,73,330,23,21,33,300,28*78
$GPGSV,4,3,13,24,39,204,22,28,15,069,,29,01,237,,30,09,040,*75
$GPGSV,4,4,13,193,83,175,24*7E
$GSENS, 0.121, 0.060,-0.965
$GSENS, 0.128, 0.037,-0.963
$GSENS, 0.123, 0.048,-0.967
$GSENS, 0.125, 0.054,-0.959
$GSENS, 0.123, 0.050,-0.957
$GPRMC,063922.00,A,3540.30340,N,13921.77473,E,0.000,,221116,,,A*75
$GPGGA,063922.00,3540.30340,N,13921.77473,E,1,08,1.37,188.7,M,38.9,M,,*57
$GPGSV,4,1,13,02,04,166,,04,40,049,34,05,46,112,31,13,58,029,31*72
$GPGSV,4,2,13,15,64,314,27,18,14,308,28,20,73,330,23,21,33,300,28*78
$GPGSV,4,3,13,24,39,204,22,28,15,069,,29,01,237,,30,09,040,*75
$GPGSV,4,4,13,193,83,175,24*7E
$GSENS, 0.123, 0.058,-0.961
$GSENS, 0.130, 0.029,-0.969
$GSENS, 0.123, 0.052,-0.965
$GSENS, 0.127, 0.044,-0.965
$GSENS, 0.123, 0.060,-0.963
$GPRMC,063922.00,A,3540.30340,N,13921.77473,E,0.000,,221116,,,A*75
$GPGGA,063922.00,3540.30340,N,13921.77473,E,1,08,1.37,188.7,M,38.9,M,,*57
$GPGSV,4,1,13,02,04,166,,04,40,049,34,05,46,112,31,13,58,029,31*72
$GPGSV,4,2,13,15,64,314,27,18,14,308,28,20,73,330,23,21,33,300,28*78
$GPGSV,4,3,13,24,39,204,22,28,15,069,,29,01,237,,30,09,040,*75
$GPGSV,4,4,13,193,83,175,24*7E
$GSENS, 0.128, 0.046,-0.973
$GSENS, 0.128, 0.048,-0.963
$GSENS, 0.121, 0.054,-0.963
$GSENS, 0.123, 0.041,-0.967
$GSENS, 0.127, 0.048,-0.961
$GPRMC,063923.00,A,3540.30340,N,13921.77473,E,0.000,,221116,,,A*74
$GPGGA,063923.00,3540.30340,N,13921.77473,E,1,08,1.37,188.7,M,38.9,M,,*56
$GPGSV,4,1,13,02,04,166,,04,40,049,34,05,46,112,31,13,58,029,28*7A
$GPGSV,4,2,13,15,64,314,27,18,14,308,27,20,73,330,23,21,33,300,28*77
$GPGSV,4,3,13,24,39,204,22,28,15,069,,29,01,237,,30,09,040,*75
$GPGSV,4,4,13,193,83,175,24*7E
$GSENS, 0.127, 0.048,-0.967
$GSENS, 0.128, 0.041,-0.971
$GSENS, 0.127, 0.050,-0.957
$GSENS, 0.119, 0.044,-0.967
$GSENS, 0.128, 0.044,-0.969
$GPRMC,063923.00,A,3540.30340,N,13921.77473,E,0.000,,221116,,,A*74
$GPGGA,063923.00,3540.30340,N,13921.77473,E,1,08,1.37,188.7,M,38.9,M,,*56
$GPGSV,4,1,13,02,04,166,,04,40,049,34,05,46,112,31,13,58,029,28*7A
$GPGSV,4,2,13,15,64,314,27,18,14,308,27,20,73,330,23,21,33,300,28*77
$GPGSV,4,3,13,24,39,204,22,28,15,069,,29,01,237,,30,09,040,*75
$GPGSV,4,4,13,193,83,175,24*7E
$GSENS, 0.128, 0.048,-0.961
$GSENS, 0.127, 0.042,-0.959
$GSENS, 0.117, 0.052,-0.967
$GSENS, 0.119, 0.060,-0.957
$GSENS, 0.128, 0.041,-0.963
$GPRMC,063924.00,A,3540.30340,N,13921.77473,E,0.000,,221116,,,A*73
$GPGGA,063924.00,3540.30340,N,13921.77473,E,1,08,1.37,188.7,M,38.9,M,,*51
$GPGSV,4,1,13,02,04,166,,04,40,049,34,05,46,112,31,13,58,029,29*7B
$GPGSV,4,2,13,15,64,314,27,18,14,308,28,20,73,330,24,21,33,300,28*7F
$GPGSV,4,3,13,24,39,204,21,28,15,069,,29,01,237,,30,09,040,*76
$GPGSV,4,4,13,193,83,175,25*7F
$GSENS, 0.125, 0.039,-0.967
$GSENS, 0.117, 0.048,-0.963
$GSENS, 0.125, 0.046,-0.957
$GSENS, 0.125, 0.041,-0.969
$GSENS, 0.117, 0.054,-0.963
$GPRMC,063924.00,A,3540.30340,N,13921.77473,E,0.000,,221116,,,A*73
$GPGGA,063924.00,3540.30340,N,13921.77473,E,1,08,1.37,188.7,M,38.9,M,,*51
$GPGSV,4,1,13,02,04,166,,04,40,049,34,05,46,112,31,13,58,029,29*7B
$GPGSV,4,2,13,15,64,314,27,18,14,308,28,20,73,330,24,21,33,300,28*7F
$GPGSV,4,3,13,24,39,204,21,28,15,069,,29,01,237,,30,09,040,*76
$GPGSV,4,4,13,193,83,175,25*7F
$GSENS, 0.123, 0.056,-0.961
$GSENS, 0.125, 0.046,-0.969
$GSENS, 0.117, 0.052,-0.969
$GSENS, 0.123, 0.048,-0.969
$GSENS, 0.128, 0.044,-0.965
$GPRMC,063925.00,A,3540.30340,N,13921.77473,E,0.000,,221116,,,A*72
$GPGGA,063925.00,3540.30340,N,13921.77473,E,1,08,1.37,188.7,M,38.9,M,,*50
$GPGSA,A,3,20,15,13,05,193,24,21,18,,,,,2.28,1.37,1.83*33
$GPGSV,4,1,13,02,04,166,,04,40,049,34,05,46,112,31,13,58,029,30*73
$GPGSV,4,2,13,15,64,314,27,18,14,308,28,20,73,330,24,21,33,300,28*7F
$GPGSV,4,3,13,24,39,204,22,28,15,069,,29,01,237,,30,09,040,*75
$GPGSV,4,4,13,193,83,175,25*7F
$GSENS, 0.115, 0.060,-0.963
$GSENS, 0.115, 0.048,-0.969
$GSENS, 0.127, 0.042,-0.961
$GSENS, 0.111, 0.058,-0.961
$GSENS, 0.117, 0.052,-0.965
$GPRMC,063925.00,A,3540.30340,N,13921.77473,E,0.000,,221116,,,A*72
$GPGGA,063925.00,3540.30340,N,13921.77473,E,1,08,1.37,188.7,M,38.9,M,,*50
$GPGSA,A,3,20,15,13,05,193,24,21,18,,,,,2.28,1.37,1.83*33
$GPGSV,4,1,13,02,04,166,,04,40,049,34,05,46,112,31,13,58,029,30*73
$GPGSV,4,2,13,15,64,314,27,18,14,308,28,20,73,330,24,21,33,300,28*7F
$GPGSV,4,3,13,24,39,204,22,28,15,069,,29,01,237,,30,09,040,*75
$GPGSV,4,4,13,193,83,175,25*7F
$GSENS, 0.125, 0.048,-0.957
$GSENS, 0.127, 0.048,-0.965
$GSENS, 0.117, 0.054,-0.961
$GSENS, 0.127, 0.042,-0.963
$GSENS, 0.125, 0.046,-0.971
$GPRMC,063926.00,A,3540.30340,N,13921.77473,E,0.000,,221116,,,A*71
$GPGGA,063926.00,3540.30340,N,13921.77473,E,1,08,1.37,188.7,M,38.9,M,,*53
$GPGSV,4,1,13,02,04,166,,04,40,049,34,05,46,112,31,13,58,029,30*73
$GPGSV,4,2,13,15,64,314,27,18,14,308,27,20,73,330,24,21,33,300,29*71
$GPGSV,4,3,13,24,39,204,22,28,15,069,,29,01,237,,30,09,040,*75
$GPGSV,4,4,13,193,83,175,25*7F
$GSENS, 0.125, 0.048,-0.963
$GSENS, 0.132, 0.044,-0.959
$GSENS, 0.121, 0.042,-0.967
$GSENS, 0.123, 0.060,-0.955
$GSENS, 0.123, 0.048,-0.967
$GPRMC,063926.00,A,3540.30340,N,13921.77473,E,0.000,,221116,,,A*71
$GPGGA,063926.00,3540.30340,N,13921.77473,E,1,08,1.37,188.7,M,38.9,M,,*53
$GPGSV,4,1,13,02,04,166,,04,40,049,34,05,46,112,31,13,58,029,30*73
$GPGSV,4,2,13,15,64,314,27,18,14,308,27,20,73,330,24,21,33,300,29*71
$GPGSV,4,3,13,24,39,204,22,28,15,069,,29,01,237,,30,09,040,*75
$GPGSV,4,4,13,193,83,175,25*7F
$GSENS, 0.128, 0.037,-0.961
$GSENS, 0.125, 0.052,-0.961
$GSENS, 0.119, 0.054,-0.965
$GSENS, 0.125, 0.039,-0.967
$GSENS, 0.119, 0.054,-0.967
$GPRMC,063927.00,A,3540.30340,N,13921.77473,E,0.000,,221116,,,A*70
$GPGGA,063927.00,3540.30340,N,13921.77473,E,1,08,1.37,188.7,M,38.9,M,,*52
$GPGSV,4,1,13,02,04,166,,04,40,049,34,05,46,112,31,13,58,029,30*73
$GPGSV,4,2,13,15,64,314,27,18,14,308,27,20,73,330,24,21,33,300,29*71
$GPGSV,4,3,13,24,39,204,21,28,15,069,,29,01,237,,30,09,040,*76
$GPGSV,4,4,13,193,83,175,26*7C
$GSENS, 0.121, 0.056,-0.961
$GSENS, 0.121, 0.046,-0.965
$GSENS, 0.123, 0.056,-0.961
$GSENS, 0.121, 0.052,-0.965
$GSENS, 0.121, 0.046,-0.961
$GPRMC,063927.00,A,3540.30340,N,13921.77473,E,0.000,,221116,,,A*70
$GPGGA,063927.00,3540.30340,N,13921.77473,E,1,08,1.37,188.7,M,38.9,M,,*52
$GPGSV,4,1,13,02,04,166,,04,40,049,34,05,46,112,31,13,58,029,30*73
$GPGSV,4,2,13,15,64,314,27,18,14,308,27,20,73,330,24,21,33,300,29*71
$GPGSV,4,3,13,24,39,204,21,28,15,069,,29,01,237,,30,09,040,*76
$GPGSV,4,4,13,193,83,175,26*7C
$GSENS, 0.119, 0.060,-0.961
$GSENS, 0.117, 0.052,-0.967
$GSENS, 0.119, 0.058,-0.959
$GSENS, 0.121, 0.052,-0.969
$GSENS, 0.119, 0.060,-0.965
$GPRMC,063928.00,A,3540.30340,N,13921.77473,E,0.000,,221116,,,A*7F
$GPGGA,063928.00,3540.30340,N,13921.77473,E,1,08,1.37,188.7,M,38.9,M,,*5D
$GPGSV,4,1,13,02,03,166,,04,40,049,34,05,46,112,31,13,58,029,30*74
$GPGSV,4,2,13,15,64,314,27,18,14,308,27,20,73,330,24,21,33,300,29*71
$GPGSV,4,3,13,24,39,204,21,28,15,069,,29,01,237,,30,09,040,*76
$GPGSV,4,4,13,193,83,175,25*7F
$GSENS, 0.121, 0.060,-0.961
$GSENS, 0.127, 0.050,-0.959
$GSENS, 0.119, 0.044,-0.969
$GSENS, 0.121, 0.058,-0.965
$GSENS, 0.127, 0.046,-0.967
$GPRMC,063928.00,A,3540.30340,N,13921.77473,E,0.000,,221116,,,A*7F
$GPGGA,063928.00,3540.30340,N,13921.77473,E,1,08,1.37,188.7,M,38.9,M,,*5D
$GPGSV,4,1,13,02,03,166,,04,40,049,34,05,46,112,31,13,58,029,30*74
$GPGSV,4,2,13,15,64,314,27,18,14,308,27,20,73,330,24,21,33,300,29*71
$GPGSV,4,3,13,24,39,204,21,28,15,069,,29,01,237,,30,09,040,*76
$GPGSV,4,4,13,193,83,175,25*7F
$GSENS, 0.117, 0.056,-0.961
$GSENS, 0.125, 0.054,-0.965
$GSENS, 0.128, 0.050,-0.955
$GSENS, 0.115, 0.062,-0.961
$GSENS, 0.123, 0.052,-0.965
$GPRMC,063929.00,A,3540.30340,N,13921.77473,E,0.000,,221116,,,A*7E
$GPGGA,063929.00,3540.30340,N,13921.77473,E,1,08,1.37,188.7,M,38.9,M,,*5C
$GPGSA,A,3,20,15,13,05,193,24,21,18,,,,,2.28,1.37,1.83*33
$GPGSV,4,1,13,02,03,166,,04,40,049,34,05,46,112,31,13,58,029,30*74
$GPGSV,4,2,13,15,64,314,26,18,14,308,26,20,73,330,24,21,33,300,28*70
$GPGSV,4,3,13,24,39,204,21,28,15,069,,29,01,237,,30,09,040,*76
$GPGSV,4,4,13,193,83,175,25*7F
$GSENS, 0.123, 0.050,-0.963
$GSENS, 0.119, 0.054,-0.963
$GSENS, 0.127, 0.042,-0.967
$GSENS, 0.123, 0.056,-0.957
$GSENS, 0.128, 0.050,-0.969
$GPRMC,063929.00,A,3540.30340,N,13921.77473,E,0.000,,221116,,,A*7E
$GPGGA,063929.00,3540.30340,N,13921.77473,E,1,08,1.37,188.7,M,38.9,M,,*5C
$GPGSA,A,3,20,15,13,05,193,24,21,18,,,,,2.28,1.37,1.83*33
$GPGSV,4,1,13,02,03,166,,04,40,049,34,05,46,112,31,13,58,029,30*74
$GPGSV,4,2,13,15,64,314,26,18,14,308,26,20,73,330,24,21,33,300,28*70
$GPGSV,4,3,13,24,39,204,21,28,15,069,,29,01,237,,30,09,040,*76
$GPGSV,4,4,13,193,83,175,25*7F
$GSENS, 0.113, 0.052,-0.961
$GSENS, 0.127, 0.054,-0.961
$GSENS, 0.123, 0.044,-0.971
$GSENS, 0.121, 0.052,-0.971
$GSENS, 0.119, 0.048,-0.973
$GPRMC,063930.00,A,3540.30340,N,13921.77473,E,0.000,,221116,,,A*76
$GPGGA,063930.00,3540.30340,N,13921.77473,E,1,08,1.37,188.7,M,38.9,M,,*54
$GPGSV,4,1,13,02,03,166,,04,40,049,34,05,46,112,31,13,58,029,29*7C
$GPGSV,4,2,13,15,64,314,26,18,14,308,26,20,73,330,24,21,33,300,28*70
$GPGSV,4,3,13,24,39,204,20,28,15,069,,29,01,237,,30,09,040,*77
$GPGSV,4,4,13,193,83,175,25*7F
$GSENS, 0.130, 0.048,-0.959
$GSENS, 0.121, 0.052,-0.959
$GSENS, 0.121, 0.054,-0.963
$GSENS, 0.123, 0.046,-0.959
$GSENS, 0.119, 0.048,-0.965
$GPRMC,063930.00,A,3540.30340,N,13921.77473,E,0.000,,221116,,,A*76
$GPGGA,063930.00,3540.30340,N,13921.77473,E,1,08,1.37,188.7,M,38.9,M,,*54
$GPGSV,4,1,13,02,03,166,,04,40,049,34,05,46,112,31,13,58,029,29*7C
$GPGSV,4,2,13,15,64,314,26,18,14,308,26,20,73,330,24,21,33,300,28*70
$GPGSV,4,3,13,24,39,204,20,28,15,069,,29,01,237,,30,09,040,*77
$GPGSV,4,4,13,193,83,175,25*7F
$GSENS, 0.121, 0.046,-0.965
$GSENS, 0.121, 0.046,-0.961
$GSENS, 0.121, 0.041,-0.967
$GSENS, 0.119, 0.050,-0.959
$GSENS, 0.134, 0.037,-0.967
$GPRMC,063931.00,A,3540.30340,N,13921.77473,E,0.000,,221116,,,A*77
$GPGGA,063931.00,3540.30340,N,13921.77473,E,1,08,1.37,188.7,M,38.9,M,,*55
$GPGSV,4,1,13,02,03,166,,04,40,049,35,05,45,112,32,13,58,029,30*75
$GPGSV,4,2,13,15,64,314,27,18,14,308,27,20,73,330,26,21,33,300,29*73
$GPGSV,4,3,13,24,39,204,21,28,15,069,,29,01,237,,30,09,040,*76
$GPGSV,4,4,13,193,83,175,26*7C
$GSENS, 0.125, 0.046,-0.961
$GSENS, 0.123, 0.042,-0.975
$GSENS, 0.119, 0.050,-0.969
$GSENS, 0.125, 0.052,-0.963
$GSENS, 0.115, 0.052,-0.963
$GPRMC,063931.00,A,3540.30340,N,13921.77473,E,0.000,,221116,,,A*77
$GPGGA,063931.00,3540.30340,N,13921.77473,E,1,08,1.37,188.7,M,38.9,M,,*55
$GPGSV,4,1,13,02,03,166,,04,40,049,35,05,45,112,32,13,58,029,30*75
$GPGSV,4,2,13,15,64,314,27,18,14,308,27,20,73,330,26,21,33,300,29*73
$GPGSV,4,3,13,24,39,204,21,28,15,069,,29,01,237,,30,09,040,*76
$GPGSV,4,4,13,193,83,175,26*7C
$GSENS, 0.121, 0.046,-0.965
$GSENS, 0.119, 0.060,-0.963
$GSENS, 0.128, 0.050,-0.965
$GSENS, 0.119, 0.050,-0.965
$GSENS, 0.119, 0.054,-0.957
$GPRMC,063932.00,A,3540.30340,N,13921.77473,E,0.000,,221116,,,A*74
$GPGGA,063932.00,3540.30340,N,13921.77473,E,1,08,1.37,188.7,M,38.9,M,,*56
$GPGSV,4,1,13,02,03,166,,04,40,049,35,05,45,112,32,13,58,029,30*75
$GPGSV,4,2,13,15,64,314,27,18,14,308,27,20,73,330,26,21,33,300,29*73
$GPGSV,4,3,13,24,39,204,22,28,15,069,,29,01,237,,30,09,040,*75
$GPGSV,4,4,13,193,83,175,25*7F
$GSENS, 0.119, 0.044,-0.965
$GSENS, 0.121, 0.054,-0.955
$GSENS, 0.127, 0.052,-0.963
$GSENS, 0.130, 0.039,-0.959
$GSENS, 0.123, 0.050,-0.967
$GPRMC,063932.00,A,3540.30340,N,13921.77473,E,0.000,,221116,,,A*74
$GPGGA,063932.00,3540.30340,N,13921.77473,E,1,08,1.37,188.7,M,38.9,M,,*56
$GPGSV,4,1,13,02,03,166,,04,40,049,35,05,45,112,32,13,58,029,30*75
$GPGSV,4,2,13,15,64,314,27,18,14,308,27,20,73,330,26,21,33,300,29*73
$GPGSV,4,3,13,24,39,204,22,28,15,069,,29,01,237,,30,09,040,*75
$GPGSV,4,4,13,193,83,175,25*7F
$GSENS, 0.121, 0.054,-0.965
$GSENS, 0.125, 0.052,-0.967
$GSENS, 0.127, 0.037,-0.971
$GSENS, 0.125, 0.046,-0.957
$GSENS, 0.127, 0.048,-0.969
$GPRMC,063933.00,A,3540.30340,N,13921.77473,E,0.000,,221116,,,A*75
$GPGGA,063933.00,3540.30340,N,13921.77473,E,1,08,1.37,188.7,M,38.9,M,,*57
$GPGSA,A,3,20,15,13,05,193,24,21,18,,,,,2.28,1.37,1.83*33
$GPGSV,4,1,13,02,03,166,,04,40,049,35,05,45,112,32,13,58,029,30*75
$GPGSV,4,2,13,15,64,314,27,18,14,308,26,20,73,330,26,21,33,300,29*72
$GPGSV,4,3,13,24,39,204,22,28,15,069,,29,01,237,,30,09,040,*75
$GPGSV,4,4,13,193,83,175,25*7F
$GSENS, 0.119, 0.046,-0.957
$GSENS, 0.117, 0.054,-0.953
$GSENS, 0.121, 0.060,-0.961
$GSENS, 0.119, 0.044,-0.959
$GSENS, 0.121, 0.058,-0.961
$GPRMC,063933.00,A,3540.30340,N,13921.77473,E,0.000,,221116,,,A*75
$GPGGA,063933.00,3540.30340,N,13921.77473,E,1,08,1.37,188.7,M,38.9,M,,*57
$GPGSA,A,3,20,15,13,05,193,24,21,18,,,,,2.28,1.37,1.83*33
$GPGSV,4,1,13,02,03,166,,04,40,049,35,05,45,112,32,13,58,029,30*75
$GPGSV,4,2,13,15,64,314,27,18,14,308,26,20,73,330,26,21,33,300,29*72
$GPGSV,4,3,13,24,39,204,22,28,15,069,,29,01,237,,30,09,040,*75
$GPGSV,4,4,13,193,83,175,25*7F
$GSENS, 0.123, 0.041,-0.965
$GSENS, 0.121, 0.056,-0.961
$GSENS, 0.121, 0.044,-0.967
$GSENS, 0.121, 0.054,-0.959
$GSENS, 0.115, 0.048,-0.963
$GPRMC,063934.00,A,3540.30340,N,13921.77473,E,0.000,,221116,,,A*72
$GPGGA,063934.00,3540.30340,N,13921.77473,E,1,08,1.37,188.7,M,38.9,M,,*50
$GPGSV,4,1,13,02,03,166,,04,40,049,35,05,45,112,31,13,58,029,30*76
$GPGSV,4,2,13,15,64,314,27,18,14,308,26,20,73,330,26,21,33,300,29*72
$GPGSV,4,3,13,24,39,204,22,28,15,069,,29,01,237,,30,09,040,*75
$GPGSV,4,4,13,193,83,175,25*7F
$GSENS, 0.128, 0.048,-0.953
$GSENS, 0.121, 0.039,-0.965
$GSENS, 0.125, 0.052,-0.963
$GSENS, 0.121, 0.042,-0.959
$GSENS, 0.121, 0.048,-0.965
$GPRMC,063934.00,A,3540.30340,N,13921.77473,E,0.000,,221116,,,A*72
$GPGGA,063934.00,3540.30340,N,13921.77473,E,1,08,1.37,188.7,M,38.9,M,,*50
$GPGSV,4,1,13,02,03,166,,04,40,049,35,05,45,112,31,13,58,029,30*76
$GPGSV,4,2,13,15,64,314,27,18,14,308,26,20,73,330,26,21,33,300,29*72
$GPGSV,4,3,13,24,39,204,22,28,15,069,,29,01,237,,30,09,040,*75
$GPGSV,4,4,13,193,83,175,25*7F
$GSENS, 0.119, 0.048,-0.967
$GSENS, 0.123, 0.042,-0.963
$GSENS, 0.117, 0.046,-0.963
$GSENS, 0.127, 0.046,-0.965
$GSENS, 0.121, 0.044,-0.963
$GPRMC,063935.00,A,3540.30340,N,13921.77473,E,0.000,,221116,,,A*73
$GPGGA,063935.00,3540.30340,N,13921.77473,E,1,08,1.37,188.7,M,38.9,M,,*51
$GPGSV,4,1,13,02,03,166,,04,40,049,35,05,45,112,32,13,58,029,30*75
$GPGSV,4,2,13,15,64,314,27,18,14,308,26,20,73,330,26,21,33,300,29*72
$GPGSV,4,3,13,24,39,204,22,28,15,069,,29,01,237,,30,09,040,*75
$GPGSV,4,4,13,193,83,175,25*7F
$GSENS, 0.121, 0.042,-0.961
$GSENS, 0.125, 0.052,-0.963
$GSENS, 0.119, 0.056,-0.957
$GSENS, 0.123, 0.039,-0.963
$GSENS, 0.127, 0.044,-0.965
$GPRMC,063935.00,A,3540.30340,N,13921.77473,E,0.000,,221116,,,A*73
$GPGGA,063935.00,3540.30340,N,13921.77473,E,1,08,1.37,188.7,M,38.9,M,,*51
$GPGSV,4,1,13,02,03,166,,04,40,049,35,05,45,112,32,13,58,029,30*75
$GPGSV,4,2,13,15,64,314,27,18,14,308,26,20,73,330,26,21,33,300,29*72
$GPGSV,4,3,13,24,39,204,22,28,15,069,,29,01,237,,30,09,040,*75
$GPGSV,4,4,13,193,83,175,25*7F
$GSENS, 0.121, 0.048,-0.967
$GSENS, 0.128, 0.046,-0.961
$GSENS, 0.117, 0.054,-0.965
$GSENS, 0.117, 0.052,-0.963
$GSENS, 0.115, 0.048,-0.971
$GPRMC,063936.00,A,3540.30340,N,13921.77473,E,0.000,,221116,,,A*70
$GPGGA,063936.00,3540.30340,N,13921.77473,E,1,08,1.37,188.7,M,38.9,M,,*52
$GPGSV,4,1,13,02,03,166,,04,40,049,35,05,45,112,32,13,58,029,31*74
$GPGSV,4,2,13,15,64,314,27,18,14,308,25,20,73,330,25,21,33,300,28*73
$GPGSV,4,3,13,24,39,204,22,28,15,069,,29,01,237,,30,09,040,*75
$GPGSV,4,4,13,193,83,175,25*7F
$GSENS, 0.119, 0.042,-0.963
$GSENS, 0.117, 0.056,-0.959
$GSENS, 0.125, 0.044,-0.961
$GSENS, 0.123, 0.046,-0.961
$GSENS, 0.123, 0.052,-0.957
$GPRMC,063936.00,A,3540.30340,N,13921.77473,E,0.000,,221116,,,A*70
$GPGGA,063936.00,3540.30340,N,13921.77473,E,1,08,1.37,188.7,M,38.9,M,,*52
$GPGSV,4,1,13,02,03,166,,04,40,049,35,05,45,112,32,13,58,029,31*74
$GPGSV,4,2,13,15,64,314,27,18,14,308,25,20,73,330,25,21,33,300,28*73
$GPGSV,4,3,13,24,39,204,22,28,15,069,,29,01,237,,30,09,040,*75
$GPGSV,4,4,13,193,83,175,25*7F
$GSENS, 0.117, 0.052,-0.965
$GSENS, 0.127, 0.050,-0.959
$GSENS, 0.121, 0.054,-0.965
$GSENS, 0.117, 0.050,-0.959
$GSENS, 0.127, 0.046,-0.967
$GPRMC,063937.00,A,3540.30340,N,13921.77473,E,0.000,,221116,,,A*71
$GPGGA,063937.00,3540.30340,N,13921.77473,E,1,08,1.37,188.7,M,38.9,M,,*53
$GPGSA,A,3,20,15,13,05,193,24,21,18,,,,,2.28,1.37,1.83*33
$GPGSV,4,1,13,02,03,166,,04,40,049,35,05,45,112,31,13,58,029,31*77
$GPGSV,4,2,13,15,64,314,27,18,14,308,25,20,73,330,25,21,33,300,28*73
$GPGSV,4,3,13,24,39,204,23,28,15,069,,29,01,237,,30,09,040,*74
$GPGSV,4,4,13,193,83,175,24*7E
$GSENS, 0.125, 0.039,-0.973
$GSENS, 0.123, 0.044,-0.965
$GSENS, 0.121, 0.050,-0.963
$GSENS, 0.119, 0.050,-0.959
$GSENS, 0.128, 0.044,-0.963
$GPRMC,063937.00,A,3540.30340,N,13921.77473,E,0.000,,221116,,,A*71
$GPGGA,063937.00,3540.30340,N,13921.77473,E,1,08,1.37,188.7,M,38.9,M,,*53
$GPGSA,A,3,20,15,13,05,193,24,21,18,,,,,2.28,1.37,1.83*33
$GPGSV,4,1,13,02,03,166,,04,40,049,35,05,45,112,31,13,58,029,31*77
$GPGSV,4,2,13,15,64,314,27,18,14,308,25,20,73,330,25,21,33,300,28*73
$GPGSV,4,3,13,24,39,204,23,28,15,069,,29,01,237,,30,09,040,*74
$GPGSV,4,4,13,193,83,175,24*7E
$GSENS, 0.117, 0.052,-0.963
$GSENS, 0.125, 0.042,-0.961
$GSENS, 0.119, 0.054,-0.959
$GSENS, 0.125, 0.046,-0.967
$GSENS, 0.123, 0.054,-0.959
$GPRMC,063938.00,A,3540.30340,N,13921.77473,E,0.000,,221116,,,A*7E
$GPGGA,063938.00,3540.30340,N,13921.77473,E,1,08,1.37,188.7,M,38.9,M,,*5C
$GPGSV,4,1,13,02,03,166,,04,40,049,34,05,45,112,31,13,58,029,26*70
$GPGSV,4,2,13,15,64,314,27,18,14,308,25,20,73,330,25,21,33,300,28*73
$GPGSV,4,3,13,24,39,204,23,28,15,069,,29,01,237,,30,09,040,*74
$GPGSV,4,4,13,193,83,175,24*7E
$GSENS, 0.128, 0.044,-0.969
$GSENS, 0.125, 0.039,-0.961
$GSENS, 0.119, 0.056,-0.963
$GSENS, 0.123, 0.048,-0.959
$GSENS, 0.125, 0.044,-0.971
$GPRMC,063938.00,A,3540.30340,N,13921.77473,E,0.000,,221116,,,A*7E
$GPGGA,063938.00,3540.30340,N,13921.77473,E,1,08,1.37,188.7,M,38.9,M,,*5C
$GPGSV,4,1,13,02,03,166,,04,40,049,34,05,45,112,31,13,58,029,26*70
$GPGSV,4,2,13,15,64,314,27,18,14,308,25,20,73,330,25,21,33,300,28*73
$GPGSV,4,3,13,24,39,204,23,28,15,069,,29,01,237,,30,09,040,*74
$GPGSV,4,4,13,193,83,175,24*7E
$GSENS, 0.123, 0.048,-0.965
$GSENS, 0.115, 0.042,-0.967
$GSENS, 0.115, 0.054,-0.965
$GSENS, 0.123, 0.050,-0.957
$GSENS, 0.121, 0.050,-0.967
$GPRMC,063939.00,A,3540.30340,N,13921.77473,E,0.000,,221116,,,A*7F
$GPGGA,063939.00,3540.30340,N,13921.77473,E,1,08,1.37,188.7,M,38.9,M,,*5D
$GPGSV,4,1,13,02,03,166,,04,40,049,34,05,45,112,31,13,58,029,30*77
$GPGSV,4,2,13,15,64,314,28,18,14,308,24,20,73,330,26,21,33,300,28*7E
$GPGSV,4,3,13,24,39,204,23,28,15,069,,29,01,237,,30,09,040,*74
$GPGSV,4,4,13,193,83,175,24*7E
$GSENS, 0.127, 0.046,-0.959
$GSENS, 0.121, 0.044,-0.969
$GSENS, 0.125, 0.048,-0.961
$GSENS, 0.125, 0.048,-0.959
$GSENS, 0.128, 0.042,-0.975
$GPRMC,063939.00,A,3540.30340,N,13921.77473,E,0.000,,221116,,,A*7F
$GPGGA,063939.00,3540.30340,N,13921.77473,E,1,08,1.37,188.7,M,38.9,M,,*5D
$GPGSV,4,1,13,02,03,166,,04,40,049,34,05,45,112,31,13,58,029,30*77
$GPGSV,4,2,13,15,64,314,28,18,14,308,24,20,73,330,26,21,33,300,28*7E
$GPGSV,4,3,13,24,39,204,23,28,15,069,,29,01,237,,30,09,040,*74
$GPGSV,4,4,13,193,83,175,24*7E
$GSENS, 0.125, 0.044,-0.969
$GSENS, 0.127, 0.042,-0.967
$GSENS, 0.123, 0.039,-0.969
$GSENS, 0.117, 0.050,-0.963
$GSENS, 0.127, 0.042,-0.961
$GPRMC,063940.00,A,3540.30340,N,13921.77473,E,0.000,,221116,,,A*71
$GPGGA,063940.00,3540.30340,N,13921.77473,E,1,08,1.37,188.7,M,38.9,M,,*53
$GPGSV,4,1,13,02,03,166,,04,40,049,34,05,45,112,31,13,58,029,30*77
$GPGSV,4,2,13,15,64,314,27,18,14,308,23,20,73,330,26,21,33,300,28*76
$GPGSV,4,3,13,24,39,204,23,28,15,069,,29,01,237,,30,09,040,*74
$GPGSV,4,4,13,193,83,175,24*7E
$GSENS, 0.117, 0.052,-0.961
$GSENS, 0.119, 0.048,-0.961
$GSENS, 0.125, 0.052,-0.959
$GSENS, 0.125, 0.037,-0.969
$GSENS, 0.128, 0.044,-0.961
$GPRMC,063940.00,A,3540.30340,N,13921.77473,E,0.000,,221116,,,A*71
$GPGGA,063940.00,3540.30340,N,13921.77473,E,1,08,1.37,188.7,M,38.9,M,,*53
$GPGSV,4,1,13,02,03,166,,04,40,049,34,05,45,112,31,13,58,029,30*77
$GPGSV,4,2,13,15,64,314,27,18,14,308,23,20,73,330,26,21,33,300,28*76
$GPGSV,4,3,13,24,39,204,23,28,15,069,,29,01,237,,30,09,040,*74
$GPGSV,4,4,13,193,83,175,24*7E
$GSENS, 0.127, 0.044,-0.969
$GSENS, 0.123, 0.048,-0.969
$GSENS, 0.121, 0.054,-0.959
$GSENS, 0.123, 0.042,-0.969
$GSENS, 0.119, 0.044,-0.963
$GPRMC,063941.00,A,3540.30340,N,13921.77473,E,0.000,,221116,,,A*70
$GPGGA,063941.00,3540.30340,N,13921.77473,E,1,08,1.37,188.7,M,38.9,M,,*52
$GPGSA,A,3,20,15,13,05,193,24,21,18,,,,,2.28,1.37,1.83*33
$GPGSV,4,1,13,02,03,166,,04,40,049,34,05,45,112,31,13,58,029,30*77
$GPGSV,4,2,13,15,64,314,27,18,14,308,25,20,73,330,26,21,33,300,28*70
$GPGSV,4,3,13,24,39,204,24,28,15,069,,29,01,237,,30,09,040,13*71
$GPGSV,4,4,13,193,83,175,25*7F
$GSENS, 0.128, 0.048,-0.961
$GSENS, 0.115, 0.054,-0.967
$GSENS, 0.119, 0.054,-0.955
$GSENS, 0.119, 0.044,-0.963
$GSENS, 0.119, 0.046,-0.963
$GPRMC,063941.00,A,3540.30340,N,13921.77473,E,0.000,,221116,,,A*70
$GPGGA,063941.00,3540.30340,N,13921.77473,E,1,08,1.37,188.7,M,38.9,M,,*52
$GPGSA,A,3,20,15,13,05,193,24,21,18,,,,,2.28,1.37,1.83*33
$GPGSV,4,1,13,02,03,166,,04,40,049,34,05,45,112,31,13,58,029,30*77
$GPGSV,4,2,13,15,64,314,27,18,14,308,25,20,73,330,26,21,33,300,28*70
$GPGSV,4,3,13,24,39,204,24,28,15,069,,29,01,237,,30,09,040,13*71
$GPGSV,4,4,13,193,83,175,25*7F
$GSENS, 0.121, 0.046,-0.961
$GSENS, 0.121, 0.052,-0.961
$GSENS, 0.117, 0.056,-0.961
$GSENS, 0.119, 0.048,-0.965
$GSENS, 0.125, 0.048,-0.961
$GPRMC,063942.00,A,3540.30340,N,13921.77473,E,0.000,,221116,,,A*73
$GPGGA,063942.00,3540.30340,N,13921.77473,E,1,08,1.37,188.7,M,38.9,M,,*51
$GPGSV,4,1,13,02,03,166,,04,40,049,34,05,45,112,31,13,58,029,30*77
$GPGSV,4,2,13,15,64,314,27,18,14,308,24,20,73,330,25,21,33,300,28*72
$GPGSV,4,3,13,24,39,204,25,28,15,069,,29,01,237,,30,09,040,12*71
$GPGSV,4,4,13,193,83,175,25*7F
$GSENS, 0.125, 0.042,-0.969
$GSENS, 0.127, 0.044,-0.959
$GSENS, 0.132, 0.037,-0.973
$GSENS, 0.128, 0.044,-0.967
$GSENS, 0.117, 0.052,-0.967
$GPRMC,063942.00,A,3540.30340,N,13921.77473,E,0.000,,221116,,,A*73
$GPGGA,063942.00,3540.30340,N,13921.77473,E,1,08,1.37,188.7,M,38.9,M,,*51
$GPGSV,4,1,13,02,03,166,,04,40,049,34,05,45,112,31,13,58,029,30*77
$GPGSV,4,2,13,15,64,314,27,18,14,308,24,20,73,330,25,21,33,300,28*72
$GPGSV,4,3,13,24,39,204,25,28,15,069,,29,01,237,,30,09,040,12*71
$GPGSV,4,4,13,193,83,175,25*7F
$GSENS, 0.123, 0.046,-0.965
$GSENS, 0.127, 0.044,-0.959
$GSENS, 0.125, 0.056,-0.965
$GSENS, 0.119, 0.054,-0.969
$GSENS, 0.130, 0.052,-0.957
$GPRMC,063943.00,A,3540.30340,N,13921.77473,E,0.000,,221116,,,A*72
$GPGGA,063943.00,3540.30340,N,13921.77473,E,1,08,1.37,188.7,M,38.9,M,,*50
$GPGSV,4,1,13,02,03,166,,04,40,049,34,05,45,112,31,13,58,029,29*7F
$GPGSV,4,2,13,15,64,314,27,18,14,308,24,20,73,330,25,21,33,300,28*72
$GPGSV,4,3,13,24,39,204,25,28,15,069,,29,01,237,,30,09,040,12*71
$GPGSV,4,4,13,193,83,175,26*7C
$GSENS, 0.121, 0.058,-0.965
$GSENS, 0.123, 0.050,-0.971
$GSENS, 0.123, 0.052,-0.961
$GSENS, 0.127, 0.050,-0.971
$GSENS, 0.119, 0.054,-0.967
$GPRMC,063943.00,A,3540.30340,N,13921.77473,E,0.000,,221116,,,A*72
$GPGGA,063943.00,3540.30340,N,13921.77473,E,1,08,1.37,188.7,M,38.9,M,,*50
$GPGSV,4,1,13,02,03,166,,04,40,049,34,05,45,112,31,13,58,029,29*7F
$GPGSV,4,2,13,15,64,314,27,18,14,308,24,20,73,330,25,21,33,300,28*72
$GPGSV,4,3,13,24,39,204,25,28,15,069,,29,01,237,,30,09,040,12*71
$GPGSV,4,4,13,193,83,175,26*7C
$GSENS, 0.127, 0.044,-0.969
$GSENS, 0.130, 0.046,-0.955
$GSENS, 0.117, 0.046,-0.961
$GSENS, 0.125, 0.044,-0.969
$GSENS, 0.125, 0.048,-0.961
$GPRMC,063944.00,A,3540.30340,N,13921.77473,E,0.000,,221116,,,A*75
$GPGGA,063944.00,3540.30340,N,13921.77473,E,1,08,1.37,188.7,M,38.9,M,,*57
$GPGSV,4,1,13,02,03,166,,04,40,049,34,05,45,112,32,13,58,029,29*7C
$GPGSV,4,2,13,15,64,314,27,18,15,308,24,20,73,330,25,21,33,300,28*73
$GPGSV,4,3,13,24,39,204,25,28,15,069,,29,01,237,,30,09,040,11*72
$GPGSV,4,4,13,193,83,175,26*7C
$GSENS, 0.117, 0.050,-0.963
$GSENS, 0.121, 0.060,-0.961
$GSENS, 0.123, 0.058,-0.961
$GSENS, 0.125, 0.048,-0.965
$GSENS, 0.125, 0.046,-0.969
$GPRMC,063944.00,A,3540.30340,N,13921.77473,E,0.000,,221116,,,A*75
$GPGGA,063944.00,3540.30340,N,13921.77473,E,1,08,1.37,188.7,M,38.9,M,,*57
$GPGSV,4,1,13,02,03,166,,04,40,049,34,05,45,112,32,13,58,029,29*7C
$GPGSV,4,2,13,15,64,314,27,18,15,308,24,20,73,330,25,21,33,300,28*73
$GPGSV,4,3,13,24,39,204,25,28,15,069,,29,01,237,,30,09,040,11*72
$GPGSV,4,4,13,193,83,175,26*7C
$GSENS, 0.123, 0.054,-0.961
$GSENS, 0.127, 0.054,-0.961
$GSENS, 0.121, 0.060,-0.959
$GSENS, 0.123, 0.056,-0.963
$GSENS, 0.128, 0.048,-0.955
$GPRMC,063945.00,A,3540.30340,N,13921.77473,E,0.000,,221116,,,A*74
$GPGGA,063945.00,3540.30340,N,13921.77473,E,1,09,1.08,188.7,M,38.9,M,,*5B
$GPGSA,A,3,20,15,13,05,193,24,21,18,30,,,,1.69,1.08,1.30*32
$GPGSV,4,1,13,02,03,166,,04,40,049,34,05,45,112,32,13,58,029,29*7C
$GPGSV,4,2,13,15,64,314,26,18,15,308,25,20,73,330,25,21,33,300,28*73
$GPGSV,4,3,13,24,39,204,24,28,15,069,,29,01,237,,30,09,040,13*71
$GPGSV,4,4,13,193,83,175,26*7C
$GSENS, 0.121, 0.060,-0.955
$GSENS, 0.125, 0.056,-0.965
$GSENS, 0.132, 0.035,-0.963
$GSENS, 0.127, 0.048,-0.963
$GSENS, 0.132, 0.041,-0.973
$GPRMC,063945.00,A,3540.30340,N,13921.77473,E,0.000,,221116,,,A*74
$GPGGA,063945.00,3540.30340,N,13921.77473,E,1,09,1.08,188.7,M,38.9,M,,*5B
$GPGSA,A,3,20,15,13,05,193,24,21,18,30,,,,1.69,1.08,1.30*32
$GPGSV,4,1,13,02,03,166,,04,40,049,34,05,45,112,32,13,58,029,29*7C
$GPGSV,4,2,13,15,64,314,26,18,15,308,25,20,73,330,25,21,33,300,28*73
$GPGSV,4,3,13,24,39,204,24,28,15,069,,29,01,237,,30,09,040,13*71
$GPGSV,4,4,13,193,83,175,26*7C
$GSENS, 0.130, 0.046,-0.959
$GSENS, 0.121, 0.044,-0.965
$GSENS, 0.119, 0.056,-0.963
$GSENS, 0.123, 0.048,-0.963
$GSENS, 0.125, 0.048,-0.965
$GPRMC,063946.00,A,3540.30340,N,13921.77473,E,0.000,,221116,,,A*77
$GPGGA,063946.00,3540.30340,N,13921.77473,E,1,09,1.08,188.7,M,38.9,M,,*58
$GPGSV,4,1,13,02,03,166,,04,40,049,34,05,45,112,33,13,58,029,29*7D
$GPGSV,4,2,13,15,64,314,26,18,15,308,24,20,74,330,25,21,33,300,28*75
$GPGSV,4,3,13,24,39,204,24,28,15,069,,29,01,237,,30,09,040,14*76
$GPGSV,4,4,13,193,83,175,25*7F
$GSENS, 0.119, 0.050,-0.967
$GSENS, 0.125, 0.052,-0.959
$GSENS, 0.125, 0.039,-0.973
$GSENS, 0.123, 0.042,-0.973
$GSENS, 0.125, 0.042,-0.971
$GPRMC,063946.00,A,3540.30340,N,13921.77473,E,0.000,,221116,,,A*77
$GPGGA,063946.00,3540.30340,N,13921.77473,E,1,09,1.08,188.7,M,38.9,M,,*58
$GPGSV,4,1,13,02,03,166,,04,40,049,34,05,45,112,33,13,58,029,29*7D
$GPGSV,4,2,13,15,64,314,26,18,15,308,24,20,74,330,25,21,33,300,28*75
$GPGSV,4,3,13,24,39,204,24,28,15,069,,29,01,237,,30,09,040,14*76
$GPGSV,4,4,13,193,83,175,25*7F
$GSENS, 0.123, 0.044,-0.965
$GSENS, 0.119, 0.058,-0.963
$GSENS, 0.121, 0.052,-0.961
$GSENS, 0.127, 0.048,-0.959
$GSENS, 0.119, 0.046,-0.971
$GPRMC,063947.00,A,3540.30340,N,13921.77473,E,0.000,,221116,,,A*76
$GPGGA,063947.00,3540.30340,N,13921.77473,E,1,09,1.08,188.7,M,38.9,M,,*59
$GPGSV,4,1,13,02,03,166,,04,40,049,34,05,45,112,33,13,58,029,29*7D
$GPGSV,4,2,13,15,64,314,26,18,15,308,24,20,74,330,25,21,34,299,28*73
$GPGSV,4,3,13,24,39,204,24,28,15,069,,29,01,237,,30,09,040,15*77
$GPGSV,4,4,13,193,83,175,25*7F
$GSENS, 0.125, 0.054,-0.967
$GSENS, 0.127, 0.050,-0.951
$GSENS, 0.123, 0.054,-0.957
$GSENS, 0.121, 0.037,-0.977
$GSENS, 0.130, 0.042,-0.957
$GPRMC,063947.00,A,3540.30340,N,13921.77473,E,0.000,,221116,,,A*76
$GPGGA,063947.00,3540.30340,N,13921.77473,E,1,09,1.08,188.7,M,38.9,M,,*59
$GPGSV,4,1,13,02,03,166,,04,40,049,34,05,45,112,33,13,58,029,29*7D
$GPGSV,4,2,13,15,64,314,26,18,15,308,24,20,74,330,25,21,34,299,28*73
$GPGSV,4,3,13,24,39,204,24,28,15,069,,29,01,237,,30,09,040,15*77
$GPGSV,4,4,13,193,83,175,25*7F
$GSENS, 0.119, 0.054,-0.967
$GSENS, 0.125, 0.048,-0.973
$GSENS, 0.117, 0.060,-0.961
$GSENS, 0.119, 0.048,-0.969
$GSENS, 0.119, 0.060,-0.965
$GPRMC,063948.00,A,3540.30340,N,13921.77473,E,0.000,,221116,,,A*79
$GPGGA,063948.00,3540.30340,N,13921.77473,E,1,09,1.08,188.7,M,38.9,M,,*56
$GPGSV,4,1,13,02,03,166,,04,40,049,34,05,45,112,32,13,58,029,29*7C
$GPGSV,4,2,13,15,64,314,27,18,15,308,24,20,74,330,25,21,34,299,28*72
$GPGSV,4,3,13,24,39,204,24,28,15,069,,29,01,237,,30,09,040,15*77
$GPGSV,4,4,13,193,83,175,25*7F
$GSENS, 0.121, 0.052,-0.967
$GSENS, 0.125, 0.039,-0.975
$GSENS, 0.127, 0.039,-0.975
$GSENS, 0.117, 0.056,-0.965
$GSENS, 0.125, 0.046,-0.961
$GPRMC,063948.00,A,3540.30340,N,13921.77473,E,0.000,,221116,,,A*79
$GPGGA,063948.00,3540.30340,N,13921.77473,E,1,09,1.08,188.7,M,38.9,M,,*56
$GPGSV,4,1,13,02,03,166,,04,40,049,34,05,45,112,32,13,58,029,29*7C
$GPGSV,4,2,13,15,64,314,27,18,15,308,24,20,74,330,25,21,34,299,28*72
$GPGSV,4,3,13,24,39,204,24,28,15,069,,29,01,237,,30,09,040,15*77
$GPGSV,4,4,13,193,83,175,25*7F
$GSENS, 0.123, 0.056,-0.959
$GSENS, 0.128, 0.048,-0.969
$GSENS, 0.123, 0.044,-0.961
$GSENS, 0.123, 0.054,-0.971
$GSENS, 0.123, 0.048,-0.965
$GPRMC,063949.00,A,3540.30340,N,13921.77473,E,0.000,,221116,,,A*78
$GPGGA,063949.00,3540.30340,N,13921.77473,E,1,09,1.08,188.7,M,38.9,M,,*57
$GPGSA,A,3,20,15,13,05,193,24,21,18,30,,,,1.69,1.08,1.30*32
$GPGSV,4,1,13,02,03,166,,04,40,049,34,05,45,112,32,13,58,029,29*7C
$GPGSV,4,2,13,15,64,314,27,18,15,308,24,20,74,330,24,21,34,299,28*73
$GPGSV,4,3,13,24,39,204,25,28,15,069,,29,01,237,,30,09,040,15*76
$GPGSV,4,4,13,193,83,175,25*7F
$GSENS, 0.127, 0.044,-0.963
$GSENS, 0.125, 0.041,-0.973
$GSENS, 0.121, 0.052,-0.965
$GSENS, 0.121, 0.048,-0.963
$GSENS, 0.119, 0.060,-0.959
$GPRMC,063949.00,A,3540.30340,N,13921.77473,E,0.000,,221116,,,A*78
$GPGGA,063949.00,3540.30340,N,13921.77473,E,1,09,1.08,188.7,M,38.9,M,,*57
$GPGSA,A,3,20,15,13,05,193,24,21,18,30,,,,1.69,1.08,1.30*32
$GPGSV,4,1,13,02,03,166,,04,40,049,34,05,45,112,32,13,58,029,29*7C
$GPGSV,4,2,13,15,64,314,27,18,15,308,24,20,74,330,24,21,34,299,28*73
$GPGSV,4,3,13,24,39,204,25,28,15,069,,29,01,237,,30,09,040,15*76
$GPGSV,4,4,13,193,83,175,25*7F
$GSENS, 0.117, 0.054,-0.961
$GSENS, 0.127, 0.044,-0.961
$GSENS, 0.123, 0.050,-0.961
$GSENS, 0.125, 0.046,-0.967
$GSENS, 0.130, 0.046,-0.963
$GPRMC,063950.00,A,3540.30340,N,13921.77473,E,0.000,,221116,,,A*70
$GPGGA,063950.00,3540.30340,N,13921.77473,E,1,09,1.08,188.7,M,38.9,M,,*5F
$GPGSV,4,1,13,02,03,166,,04,40,049,34,05,45,112,33,13,58,029,29*7D
$GPGSV,4,2,13,15,64,314,27,18,15,308,24,20,74,330,24,21,34,299,28*73
$GPGSV,4,3,13,24,39,204,24,28,15,069,,29,01,237,,30,09,040,15*77
$GPGSV,4,4,13,193,83,175,25*7F
$GSENS, 0.119, 0.042,-0.965
$GSENS, 0.123, 0.037,-0.973
$GSENS, 0.121, 0.041,-0.973
$GSENS, 0.125, 0.042,-0.967
$GSENS, 0.127, 0.048,-0.961
$GPRMC,063950.00,A,3540.30340,N,13921.77473,E,0.000,,221116,,,A*70
$GPGGA,063950.00,3540.30340,N,13921.77473,E,1,09,1.08,188.7,M,38.9,M,,*5F
$GPGSV,4,1,13,02,03,166,,04,40,049,34,05,45,112,33,13,58,029,29*7D
$GPGSV,4,2,13,15,64,314,27,18,15,308,24,20,74,330,24,21,34,299,28*73
$GPGSV,4,3,13,24,39,204,24,28,15,069,,29,01,237,,30,09,040,15*77
$GPGSV,4,4,13,193,83,175,25*7F
$GSENS, 0.125, 0.050,-0.965
$GSENS, 0.119, 0.050,-0.955
$GSENS, 0.121, 0.054,-0.959
$GSENS, 0.117, 0.050,-0.959
$GSENS, 0.121, 0.042,-0.961
$GPRMC,063951.00,A,3540.30340,N,13921.77473,E,0.000,,221116,,,A*71
$GPGGA,063951.00,3540.30340,N,13921.77473,E,1,09,1.08,188.7,M,38.9,M,,*5E
$GPGSV,4,1,13,02,03,166,,04,40,049,34,05,45,112,33,13,58,029,29*7D
$GPGSV,4,2,13,15,64,314,28,18,15,308,25,20,74,330,24,21,34,299,28*7D
$GPGSV,4,3,13,24,39,204,24,28,15,069,,29,01,237,,30,09,040,15*77
$GPGSV,4,4,13,193,83,175,26*7C
$GSENS, 0.127, 0.042,-0.963
$GSENS, 0.127, 0.042,-0.961
$GSENS, 0.127, 0.041,-0.965
$GSENS, 0.127, 0.046,-0.961
$GSENS, 0.125, 0.048,-0.961
$GPRMC,063951.00,A,3540.30340,N,13921.77473,E,0.000,,221116,,,A*71
$GPGGA,063951.00,3540.30340,N,13921.77473,E,1,09,1.08,188.7,M,38.9,M,,*5E
$GPGSV,4,1,13,02,03,166,,04,40,049,34,05,45,112,33,13,58,029,29*7D
$GPGSV,4,2,13,15,64,314,28,18,15,308,25,20,74,330,24,21,34,299,28*7D
$GPGSV,4,3,13,24,39,204,24,28,15,069,,29,01,237,,30,09,040,15*77
$GPGSV,4,4,13,193,83,175,26*7C
$GSENS, 0.123, 0.048,-0.965
$GSENS, 0.117, 0.054,-0.953
$GSENS, 0.119, 0.054,-0.959
$GSENS, 0.127, 0.044,-0.967
$GSENS, 0.117, 0.050,-0.967
$GPRMC,063952.00,A,3540.30340,N,13921.77473,E,0.000,,221116,,,A*72
$GPGGA,063952.00,3540.30340,N,13921.77473,E,1,09,1.08,188.7,M,38.9,M,,*5D
$GPGSV,4,1,13,02,03,166,,04,40,049,34,05,45,112,33,13,58,029,29*7D
$GPGSV,4,2,13,15,64,314,28,18,15,308,25,20,74,330,24,21,34,299,28*7D
$GPGSV,4,3,13,24,39,204,23,28,15,069,,29,01,237,,30,09,040,15*70
$GPGSV,4,4,13,193,83,175,26*7C
$GSENS, 0.127, 0.048,-0.955
$GSENS, 0.127, 0.042,-0.959
$GSENS, 0.125, 0.042,-0.965
$GSENS, 0.127, 0.048,-0.959
$GSENS, 0.119, 0.052,-0.963
$GPRMC,063952.00,A,3540.30340,N,13921.77473,E,0.000,,221116,,,A*72
$GPGGA,063952.00,3540.30340,N,13921.77473,E,1,09,1.08,188.7,M,38.9,M,,*5D
$GPGSV,4,1,13,02,03,166,,04,40,049,34,05,45,112,33,13,58,029,29*7D
$GPGSV,4,2,13,15,64,314,28,18,15,308,25,20,74,330,24,21,34,299,28*7D
$GPGSV,4,3,13,24,39,204,23,28,15,069,,29,01,237,,30,09,040,15*70
$GPGSV,4,4,13,193,83,175,26*7C
$GSENS, 0.121, 0.044,-0.963
$GSENS, 0.121, 0.046,-0.961
$GSENS, 0.123, 0.042,-0.971
$GSENS, 0.121, 0.054,-0.959
$GSENS, 0.121, 0.046,-0.961
$GPRMC,063953.00,A,3540.30340,N,13921.77473,E,0.000,,221116,,,A*73
$GPGGA,063953.00,3540.30340,N,13921.77473,E,1,09,1.08,188.7,M,38.9,M,,*5C
$GPGSA,A,3,20,15,13,05,193,24,21,18,30,,,,1.69,1.08,1.30*32
$GPGSV,4,1,13,02,03,166,,04,40,049,34,05,45,112,30,13,58,029,29*7E
$GPGSV,4,2,13,15,64,314,28,18,15,308,25,20,74,330,23,21,34,299,28*7A
$GPGSV,4,3,13,24,39,204,23,28,15,069,,29,01,237,,30,09,040,15*70
$GPGSV,4,4,13,193,83,175,26*7C
$GSENS, 0.119, 0.042,-0.963
$GSENS, 0.123, 0.050,-0.957
$GSENS, 0.121, 0.050,-0.963
$GSENS, 0.127, 0.050,-0.965
$GSENS, 0.121, 0.046,-0.961
$GPRMC,063953.00,A,3540.30340,N,13921.77473,E,0.000,,221116,,,A*73
$GPGGA,063953.00,3540.30340,N,13921.77473,E,1,09,1.08,188.7,M,38.9,M,,*5C
$GPGSA,A,3,20,15,13,05,193,24,21,18,30,,,,1.69,1.08,1.30*32
$GPGSV,4,1,13,02,03,166,,04,40,049,34,05,45,112,30,13,58,029,29*7E
$GPGSV,4,2,13,15,64,314,28,18,15,308,25,20,74,330,23,21,34,299,28*7A
$GPGSV,4,3,13,24,39,204,23,28,15,069,,29,01,237,,30,09,040,15*70
$GPGSV,4,4,13,193,83,175,26*7C
$GSENS, 0.121, 0.054,-0.957
$GSENS, 0.125, 0.046,-0.953
$GSENS, 0.123, 0.052,-0.963
$GSENS, 0.123, 0.052,-0.963
$GSENS, 0.125, 0.048,-0.965
$GPRMC,063954.00,A,3540.30340,N,13921.77473,E,0.000,,221116,,,A*74
$GPGGA,063954.00,3540.30340,N,13921.77473,E,1,09,1.08,188.7,M,38.9,M,,*5B
$GPGSV,4,1,13,02,03,166,,04,40,049,34,05,45,112,32,13,58,029,29*7C
$GPGSV,4,2,13,15,64,314,28,18,15,308,25,20,74,330,23,21,34,299,28*7A
$GPGSV,4,3,13,24,39,204,22,28,15,068,,29,01,237,,30,09,040,14*71
$GPGSV,4,4,13,193,83,175,26*7C
$GSENS, 0.123, 0.046,-0.969
$GSENS, 0.121, 0.046,-0.967
$GSENS, 0.123, 0.050,-0.969
$GSENS, 0.121, 0.044,-0.963
$GSENS, 0.127, 0.041,-0.969
$GPRMC,063954.00,A,3540.30340,N,13921.77473,E,0.000,,221116,,,A*74
$GPGGA,063954.00,3540.30340,N,13921.77473,E,1,09,1.08,188.7,M,38.9,M,,*5B
$GPGSV,4,1,13,02,03,166,,04,40,049,34,05,45,112,32,13,58,029,29*7C
$GPGSV,4,2,13,15,64,314,28,18,15,308,25,20,74,330,23,21,34,299,28*7A
$GPGSV,4,3,13,24,39,204,22,28,15,068,,29,01,237,,30,09,040,14*71
$GPGSV,4,4,13,193,83,175,26*7C
$GSENS, 0.123, 0.056,-0.961
$GSENS, 0.125, 0.042,-0.959
$GSENS, 0.113, 0.052,-0.967
$GSENS, 0.119, 0.048,-0.967
$GSENS, 0.119, 0.052,-0.959
$GPRMC,063955.00,A,3540.30340,N,13921.77473,E,0.000,,221116,,,A*75
$GPGGA,063955.00,3540.30340,N,13921.77473,E,1,09,1.08,188.7,M,38.9,M,,*5A
$GPGSV,4,1,13,02,03,166,,04,40,049,34,05,45,112,32,13,58,029,29*7C
$GPGSV,4,2,13,15,64,314,28,18,15,308,25,20,74,330,23,21,34,299,28*7A
$GPGSV,4,3,13,24,39,204,21,28,15,068,,29,01,237,,30,09,040,13*75
$GPGSV,4,4,13,193,83,175,26*7C
$GSENS, 0.125, 0.042,-0.969
$GSENS, 0.117, 0.048,-0.969
$GSENS, 0.121, 0.048,-0.965
$GSENS, 0.119, 0.041,-0.961
$GSENS, 0.121, 0.050,-0.961
$GPRMC,063955.00,A,3540.30340,N,13921.77473,E,0.000,,221116,,,A*75
$GPGGA,063955.00,3540.30340,N,13921.77473,E,1,09,1.08,188.7,M,38.9,M,,*5A
$GPGSV,4,1,13,02,03,166,,04,40,049,34,05,45,112,32,13,58,029,29*7C
$GPGSV,4,2,13,15,64,314,28,18,15,308,25,20,74,330,23,21,34,299,28*7A
$GPGSV,4,3,13,24,39,204,21,28,15,068,,29,01,237,,30,09,040,13*75
$GPGSV,4,4,13,193,83,175,26*7C
$GSENS, 0.119, 0.054,-0.961
$GSENS, 0.121, 0.042,-0.963
$GSENS, 0.125, 0.054,-0.965
$GSENS, 0.119, 0.054,-0.963
$GSENS, 0.117, 0.054,-0.961
$GPRMC,063956.00,A,3540.30340,N,13921.77473,E,0.000,,221116,,,A*76
$GPGGA,063956.00,3540.30340,N,13921.77473,E,1,09,1.08,188.7,M,38.9,M,,*59
$GPGSV,4,1,13,02,03,166,,04,40,049,34,05,45,112,32,13,58,029,29*7C
$GPGSV,4,2,13,15,64,314,28,18,15,308,26,20,74,330,24,21,34,299,27*71
$GPGSV,4,3,13,24,39,204,21,28,15,068,,29,01,237,,30,09,040,12*74
$GPGSV,4,4,13,193,83,175,26*7C
$GSENS, 0.119, 0.050,-0.971
$GSENS, 0.121, 0.052,-0.963
$GSENS, 0.123, 0.048,-0.967
$GSENS, 0.130, 0.033,-0.969
$GSENS, 0.121, 0.058,-0.955
$GPRMC,063956.00,A,3540.30340,N,13921.77473,E,0.000,,221116,,,A*76
$GPGGA,063956.00,3540.30340,N,13921.77473,E,1,09,1.08,188.7,M,38.9,M,,*59
$GPGSV,4,1,13,02,03,166,,04,40,049,34,05,45,112,32,13,58,029,29*7C
$GPGSV,4,2,13,15,64,314,28,18,15,308,26,20,74,330,24,21,34,299,27*71
$GPGSV,4,3,13,24,39,204,21,28,15,068,,29,01,237,,30,09,040,12*74
$GPGSV,4,4,13,193,83,175,26*7C
$GSENS, 0.121, 0.052,-0.965
$GSENS, 0.125, 0.044,-0.959
$GSENS, 0.117, 0.056,-0.965
$GSENS, 0.119, 0.052,-0.963
$GSENS, 0.125, 0.046,-0.961
$GPRMC,063957.00,A,3540.30340,N,13921.77473,E,0.000,,221116,,,A*77
$GPGGA,063957.00,3540.30340,N,13921.77473,E,1,09,1.08,188.7,M,38.9,M,,*58
$GPGSA,A,3,20,15,13,05,193,24,21,18,30,,,,1.69,1.08,1.30*32
$GPGSV,4,1,13,02,03,166,,04,40,049,34,05,45,112,32,13,58,029,30*74
$GPGSV,4,2,13,15,64,314,28,18,15,308,26,20,74,330,24,21,34,299,27*71
$GPGSV,4,3,13,24,39,204,20,28,15,068,,29,01,237,,30,09,040,13*74
$GPGSV,4,4,13,193,83,175,26*7C
$GSENS, 0.123, 0.052,-0.961
$GSENS, 0.115, 0.048,-0.961
$GSENS, 0.119, 0.052,-0.965
$GSENS, 0.127, 0.044,-0.959
$GSENS, 0.121, 0.056,-0.955
$GPRMC,063957.00,A,3540.30340,N,13921.77473,E,0.000,,221116,,,A*77
$GPGGA,063957.00,3540.30340,N,13921.77473,E,1,09,1.08,188.7,M,38.9,M,,*58
$GPGSA,A,3,20,15,13,05,193,24,21,18,30,,,,1.69,1.08,1.30*32
$GPGSV,4,1,13,02,03,166,,04,40,049,34,05,45,112,32,13,58,029,30*74
$GPGSV,4,2,13,15,64,314,28,18,15,308,26,20,74,330,24,21,34,299,27*71
$GPGSV,4,3,13,24,39,204,20,28,15,068,,29,01,237,,30,09,040,13*74
$GPGSV,4,4,13,193,83,175,26*7C
$GSENS, 0.121, 0.050,-0.971
$GSENS, 0.119, 0.048,-0.961
$GSENS, 0.123, 0.054,-0.967
$GSENS, 0.123, 0.052,-0.963
$GSENS, 0.125, 0.044,-0.967
$GPRMC,063958.00,A,3540.30340,N,13921.77473,E,0.000,,221116,,,A*78
$GPGGA,063958.00,3540.30340,N,13921.77473,E,1,09,1.08,188.7,M,38.9,M,,*57
$GPGSV,4,1,13,02,03,166,,04,40,049,34,05,45,112,32,13,58,029,26*73
$GPGSV,4,2,13,15,64,314,27,18,15,308,26,20,74,330,23,21,34,299,27*79
$GPGSV,4,3,13,24,39,204,20,28,15,068,,29,01,237,,30,09,040,14*73
$GPGSV,4,4,13,193,83,175,26*7C
$GSENS, 0.121, 0.050,-0.963
$GSENS, 0.123, 0.050,-0.963
$GSENS, 0.125, 0.046,-0.961
$GSENS, 0.125, 0.041,-0.969
$GSENS, 0.125, 0.044,-0.967
$GPRMC,063958.00,A,3540.30340,N,13921.77473,E,0.000,,221116,,,A*78
$GPGGA,063958.00,3540.30340,N,13921.77473,E,1,09,1.08,188.7,M,38.9,M,,*57
$GPGSV,4,1,13,02,03,166,,04,40,049,34,05,45,112,32,13,58,029,26*73
$GPGSV,4,2,13,15,64,314,27,18,15,308,26,20,74,330,23,21,34,299,27*79
$GPGSV,4,3,13,24,39,204,20,28,15,068,,29,01,237,,30,09,040,14*73
$GPGSV,4,4,13,193,83,175,26*7C
$GSENS, 0.121, 0.046,-0.967
$GSENS, 0.123, 0.044,-0.963
$GSENS, 0.121, 0.054,-0.969
$GSENS, 0.127, 0.041,-0.961
$GSENS, 0.119, 0.046,-0.961
$GPRMC,063959.00,A,3540.30340,N,13921.77473,E,0.000,,221116,,,A*79
$GPGGA,063959.00,3540.30340,N,13921.77473,E,1,09,1.08,188.7,M,38.9,M,,*56
$GPGSV,4,1,13,02,03,166,,04,40,049,34,05,45,112,32,13,58,029,31*75
$GPGSV,4,2,13,15,64,314,27,18,15,308,26,20,74,330,23,21,34,299,27*79
$GPGSV,4,3,13,24,39,204,19,28,15,068,,29,01,237,,30,09,040,14*79
$GPGSV,4,4,13,193,83,175,26*7C
$GSENS, 0.121, 0.050,-0.965
$GSENS, 0.123, 0.054,-0.967
$GSENS, 0.119, 0.054,-0.963
$GSENS, 0.123, 0.052,-0.963
$GSENS, 0.119, 0.048,-0.961
$GPRMC,063959.00,A,3540.30340,N,13921.77473,E,0.000,,221116,,,A*79
$GPGGA,063959.00,3540.30340,N,13921.77473,E,1,09,1.08,188.7,M,38.9,M,,*56
$GPGSV,4,1,13,02,03,166,,04,40,049,34,05,45,112,32,13,58,029,31*75
$GPGSV,4,2,13,15,64,314,27,18,15,308,26,20,74,330,23,21,34,299,27*79
$GPGSV,4,3,13,24,39,204,19,28,15,068,,29,01,237,,30,09,040,14*79
$GPGSV,4,4,13,193,83,175,26*7C
$GSENS, 0.121, 0.052,-0.965
$GSENS, 0.123, 0.046,-0.959
$GSENS, 0.125, 0.048,-0.959
$GSENS, 0.123, 0.052,-0.963
$GSENS, 0.123, 0.044,-0.955
$GPRMC,064000.00,A,3540.30340,N,13921.77473,E,0.000,,221116,,,A*7B
$GPGGA,064000.00,3540.30340,N,13921.77473,E,1,08,1.37,188.7,M,38.9,M,,*59
$GPGSV,4,1,13,02,03,166,,04,40,049,34,05,45,112,32,13,58,029,30*74
$GPGSV,4,2,13,15,64,314,27,18,15,308,26,20,74,330,24,21,34,299,26*7F
$GPGSV,4,3,13,24,39,204,19,28,15,068,,29,01,237,,30,09,040,13*7E
$GPGSV,4,4,13,193,83,175,26*7C
$GSENS, 0.119, 0.052,-0.965
$GSENS, 0.125, 0.056,-0.957
$GSENS, 0.123, 0.050,-0.967
$GSENS, 0.125, 0.048,-0.973
$GSENS, 0.119, 0.052,-0.963
$GPRMC,064000.00,A,3540.30340,N,13921.77473,E,0.000,,221116,,,A*7B
$GPGGA,064000.00,3540.30340,N,13921.77473,E,1,08,1.37,188.7,M,38.9,M,,*59
$GPGSV,4,1,13,02,03,166,,04,40,049,34,05,45,112,32,13,58,029,30*74
$GPGSV,4,2,13,15,64,314,27,18,15,308,26,20,74,330,24,21,34,299,26*7F
$GPGSV,4,3,13,24,39,204,19,28,15,068,,29,01,237,,30,09,040,13*7E
$GPGSV,4,4,13,193,83,175,26*7C
$GSENS, 0.128, 0.046,-0.959
$GSENS, 0.117, 0.042,-0.955
$GSENS, 0.121, 0.046,-0.973
$GSENS, 0.128, 0.054,-0.975
$GSENS, 0.117, 0.044,-0.957
$GPRMC,064001.00,A,3540.30340,N,13921.77473,E,0.000,,221116,,,A*7A
$GPGGA,064001.00,3540.30340,N,13921.77473,E,1,08,1.37,188.7,M,38.9,M,,*58
$GPGSA,A,3,20,15,13,05,193,24,21,18,,,,,2.28,1.37,1.83*33
$GPGSV,4,1,13,02,03,166,,04,40,049,34,05,45,112,31,13,58,029,30*77
$GPGSV,4,2,13,15,64,314,28,18,15,308,26,20,74,330,24,21,34,299,26*70
$GPGSV,4,3,13,24,39,204,19,28,15,068,,29,01,237,,30,09,040,10*7D
$GPGSV,4,4,13,193,83,175,27*7D
$GSENS, 0.123, 0.046,-0.963
$GSENS, 0.121, 0.044,-0.961
$GSENS, 0.127, 0.050,-0.963
$GSENS, 0.121, 0.042,-0.973
$GSENS, 0.127, 0.048,-0.965
$GPRMC,064001.00,A,3540.30340,N,13921.77473,E,0.000,,221116,,,A*7A
$GPGGA,064001.00,3540.30340,N,13921.77473,E,1,08,1.37,188.7,M,38.9,M,,*58
$GPGSA,A,3,20,15,13,05,193,24,21,18,,,,,2.28,1.37,1.83*33
$GPGSV,4,1,13,02,03,166,,04,40,049,34,05,45,112,31,13,58,029,30*77
$GPGSV,4,2,13,15,64,314,28,18,15,308,26,20,74,330,24,21,34,299,26*70
$GPGSV,4,3,13,24,39,204,19,28,15,068,,29,01,237,,30,09,040,10*7D
$GPGSV,4,4,13,193,83,175,27*7D
$GSENS, 0.117, 0.052,-0.965
$GSENS, 0.127, 0.048,-0.961
$GSENS, 0.125, 0.046,-0.959
$GSENS, 0.117, 0.052,-0.965
$GSENS, 0.123, 0.046,-0.961
$GPRMC,064002.00,A,3540.30340,N,13921.77473,E,0.000,,221116,,,A*79
$GPGGA,064002.00,3540.30340,N,13921.77473,E,1,08,1.37,188.7,M,38.9,M,,*5B
$GPGSV,4,1,13,02,03,166,,04,40,049,34,05,45,112,31,13,58,029,30*77
$GPGSV,4,2,13,15,64,314,27,18,15,308,26,20,74,330,24,21,34,299,26*7F
$GPGSV,4,3,13,24,39,204,18,28,15,068,,29,01,237,,30,09,040,09*74
$GPGSV,4,4,13,193,83,175,26*7C
$GSENS, 0.123, 0.054,-0.963
$GSENS, 0.121, 0.050,-0.965
$GSENS, 0.117, 0.052,-0.957
$GSENS, 0.125, 0.044,-0.963
$GSENS, 0.119, 0.052,-0.957
$GPRMC,064002.00,A,3540.30340,N,13921.77473,E,0.000,,221116,,,A*79
$GPGGA,064002.00,3540.30340,N,13921.77473,E,1,08,1.37,188.7,M,38.9,M,,*5B
$GPGSV,4,1,13,02,03,166,,04,40,049,34,05,45,112,31,13,58,029,30*77
$GPGSV,4,2,13,15,64,314,27,18,15,308,26,20,74,330,24,21,34,299,26*7F
$GPGSV,4,3,13,24,39,204,18,28,15,068,,29,01,237,,30,09,040,09*74
$GPGSV,4,4,13,193,83,175,26*7C
$GSENS, 0.125, 0.044,-0.959
$GSENS, 0.127, 0.041,-0.963
$GSENS, 0.125, 0.037,-0.971
$GSENS, 0.132, 0.041,-0.973
$GSENS, 0.119, 0.058,-0.957
$GPRMC,064003.00,A,3540.30340,N,13921.77473,E,0.000,,221116,,,A*78
$GPGGA,064003.00,3540.30340,N,13921.77473,E,1,08,1.37,188.7,M,38.9,M,,*5A
$GPGSV,4,1,13,02,03,166,,04,40,049,34,05,45,112,31,13,58,029,30*77
$GPGSV,4,2,13,15,64,314,27,18,15,308,26,20,74,330,24,21,34,299,26*7F
$GPGSV,4,3,13,24,39,204,17,28,15,068,,29,01,237,,30,09,040,08*7A
$GPGSV,4,4,13,193,83,175,26*7C
$GSENS, 0.119, 0.048,-0.963
$GSENS, 0.117, 0.044,-0.963
$GSENS, 0.127, 0.062,-0.965
$GSENS, 0.125, 0.048,-0.965
$GSENS, 0.123, 0.060,-0.967
$GPRMC,064003.00,A,3540.30340,N,13921.77473,E,0.000,,221116,,,A*78
$GPGGA,064003.00,3540.30340,N,13921.77473,E,1,08,1.37,188.7,M,38.9,M,,*5A
$GPGSV,4,1,13,02,03,166,,04,40,049,34,05,45,112,31,13,58,029,30*77
$GPGSV,4,2,13,15,64,314,27,18,15,308,26,20,74,330,24,21,34,299,26*7F
$GPGSV,4,3,13,24,39,204,17,28,15,068,,29,01,237,,30,09,040,08*7A
$GPGSV,4,4,13,193,83,175,26*7C
$GSENS, 0.119, 0.050,-0.965
$GSENS, 0.121, 0.044,-0.967
$GSENS, 0.125, 0.046,-0.965
$GSENS, 0.115, 0.054,-0.961
$GSENS, 0.121, 0.046,-0.963
$GPRMC,064004.00,A,3540.30340,N,13921.77473,E,0.000,,221116,,,A*7F
$GPGGA,064004.00,3540.30340,N,13921.77473,E,1,08,1.37,188.7,M,38.9,M,,*5D
$GPGSV,4,1,13,02,03,166,,04,40,049,34,05,45,112,31,13,58,029,31*76
$GPGSV,4,2,13,15,64,314,27,18,15,308,26,20,74,330,25,21,34,299,25*7D
$GPGSV,4,3,13,24,39,204,17,28,15,068,,29,01,237,,30,09,040,08*7A
$GPGSV,4,4,13,193,83,175,26*7C
$GSENS, 0.117, 0.056,-0.961
$GSENS, 0.125, 0.048,-0.963
$GSENS, 0.119, 0.050,-0.961
$GSENS, 0.121, 0.046,-0.961
$GSENS, 0.127, 0.048,-0.973
$GPRMC,064004.00,A,3540.30340,N,13921.77473,E,0.000,,221116,,,A*7F
$GPGGA,064004.00,3540.30340,N,13921.77473,E,1,08,1.37,188.7,M,38.9,M,,*5D
$GPGSV,4,1,13,02,03,166,,04,40,049,34,05,45,112,31,13,58,029,31*76
$GPGSV,4,2,13,15,64,314,27,18,15,308,26,20,74,330,25,21,34,299,25*7D
$GPGSV,4,3,13,24,39,204,17,28,15,068,,29,01,237,,30,09,040,08*7A
$GPGSV,4,4,13,193,83,175,26*7C
$GSENS, 0.125, 0.050,-0.973
$GSENS, 0.123, 0.042,-0.965
$GSENS, 0.123, 0.048,-0.967
$GSENS, 0.119, 0.060,-0.963
$GSENS, 0.128, 0.044,-0.961
$GPRMC,064005.00,A,3540.30340,N,13921.77473,E,0.000,,221116,,,A*7E
$GPGGA,064005.00,3540.30340,N,13921.77473,E,1,08,1.37,188.7,M,38.9,M,,*5C
$GPGSA,A,3,20,15,13,05,193,24,21,18,,,,,2.28,1.37,1.83*33
$GPGSV,4,1,13,02,03,166,,04,40,049,34,05,45,112,31,13,58,029,31*76
$GPGSV,4,2,13,15,64,314,28,18,15,308,26,20,74,330,25,21,34,299,25*72
$GPGSV,4,3,13,24,39,204,18,28,15,068,,29,01,237,,30,09,040,08*75
$GPGSV,4,4,13,193,83,175,26*7C
$GSENS, 0.119, 0.054,-0.959
$GSENS, 0.117, 0.056,-0.961
$GSENS, 0.123, 0.046,-0.969
$GSENS, 0.119, 0.052,-0.969
$GSENS, 0.125, 0.044,-0.969
$GPRMC,064005.00,A,3540.30340,N,13921.77473,E,0.000,,221116,,,A*7E
$GPGGA,064005.00,3540.30340,N,13921.77473,E,1,08,1.37,188.7,M,38.9,M,,*5C
$GPGSA,A,3,20,15,13,05,193,24,21,18,,,,,2.28,1.37,1.83*33
$GPGSV,4,1,13,02,03,166,,04,40,049,34,05,45,112,31,13,58,029,31*76
$GPGSV,4,2,13,15,64,314,28,18,15,308,26,20,74,330,25,21,34,299,25*72
$GPGSV,4,3,13,24,39,204,18,28,15,068,,29,01,237,,30,09,040,08*75
$GPGSV,4,4,13,193,83,175,26*7C
$GSENS, 0.128, 0.044,-0.959
$GSENS, 0.119, 0.048,-0.969
$GSENS, 0.123, 0.052,-0.963
$GSENS, 0.117, 0.054,-0.959
$GSENS, 0.121, 0.044,-0.967
$GPRMC,064006.00,A,3540.30340,N,13921.77473,E,0.000,,221116,,,A*7D
$GPGGA,064006.00,3540.30340,N,13921.77473,E,1,08,1.37,188.7,M,38.9,M,,*5F
$GPGSV,4,1,13,02,03,166,,04,40,049,34,05,45,112,31,13,58,029,30*77
$GPGSV,4,2,13,15,64,314,28,18,15,308,26,20,74,330,25,21,34,299,25*72
$GPGSV,4,3,13,24,39,204,18,28,15,068,,29,01,237,,30,09,040,08*75
$GPGSV,4,4,13,193,83,175,26*7C
$GSENS, 0.121, 0.062,-0.963
$GSENS, 0.123, 0.054,-0.965
$GSENS, 0.128, 0.054,-0.955
$GSENS, 0.127, 0.048,-0.967
$GSENS, 0.121, 0.054,-0.959
$GPRMC,064006.00,A,3540.30340,N,13921.77473,E,0.000,,221116,,,A*7D
$GPGGA,064006.00,3540.30340,N,13921.77473,E,1,08,1.37,188.7,M,38.9,M,,*5F
$GPGSV,4,1,13,02,03,166,,04,40,049,34,05,45,112,31,13,58,029,30*77
$GPGSV,4,2,13,15,64,314,28,18,15,308,26,20,74,330,25,21,34,299,25*72
$GPGSV,4,3,13,24,39,204,18,28,15,068,,29,01,237,,30,09,040,08*75
$GPGSV,4,4,13,193,83,175,26*7C
$GSENS, 0.123, 0.048,-0.963
$GSENS, 0.127, 0.050,-0.961
$GSENS, 0.123, 0.046,-0.965
$GSENS, 0.125, 0.050,-0.961
$GSENS, 0.123, 0.046,-0.961
$GPRMC,064007.00,A,3540.30340,N,13921.77473,E,0.000,,221116,,,A*7C
$GPGGA,064007.00,3540.30340,N,13921.77473,E,1,08,1.37,188.7,M,38.9,M,,*5E
$GPGSV,4,1,13,02,03,166,,04,40,049,34,05,45,112,31,13,58,029,30*77
$GPGSV,4,2,13,15,64,314,28,18,15,308,26,20,74,330,25,21,34,299,25*72
$GPGSV,4,3,13,24,39,204,18,28,15,068,,29,01,237,,30,09,040,08*75
$GPGSV,4,4,13,193,83,175,26*7C
$GSENS, 0.119, 0.050,-0.967
$GSENS, 0.125, 0.050,-0.967
$GSENS, 0.121, 0.052,-0.965
$GSENS, 0.119, 0.052,-0.963
$GSENS, 0.128, 0.052,-0.959
$GPRMC,064007.00,A,3540.30340,N,13921.77473,E,0.000,,221116,,,A*7C
$GPGGA,064007.00,3540.30340,N,13921.77473,E,1,08,1.37,188.7,M,38.9,M,,*5E
$GPGSV,4,1,13,02,03,166,,04,40,049,34,05,45,112,31,13,58,029,30*77
$GPGSV,4,2,13,15,64,314,28,18,15,308,26,20,74,330,25,21,34,299,25*72
$GPGSV,4,3,13,24,39,204,18,28,15,068,,29,01,237,,30,09,040,08*75
$GPGSV,4,4,13,193,83,175,26*7C
$GSENS, 0.123, 0.044,-0.969
$GSENS, 0.132, 0.046,-0.969
$GSENS, 0.119, 0.052,-0.965
$GSENS, 0.125, 0.046,-0.963
$GSENS, 0.119, 0.050,-0.963
$GPRMC,064008.00,A,3540.30340,N,13921.77473,E,0.000,,221116,,,A*73
$GPGGA,064008.00,3540.30340,N,13921.77473,E,1,08,1.37,188.7,M,38.9,M,,*51
$GPGSV,4,1,13,02,03,166,,04,40,049,34,05,45,112,31,13,58,029,30*77
$GPGSV,4,2,13,15,64,314,28,18,15,308,25,20,74,330,25,21,34,299,25*71
$GPGSV,4,3,13,24,39,204,18,28,15,068,,29,01,237,,30,09,040,08*75
$GPGSV,4,4,13,193,83,175,26*7C
$GSENS, 0.130, 0.035,-0.959
$GSENS, 0.125, 0.048,-0.961
$GSENS, 0.125, 0.052,-0.961
$GSENS, 0.121, 0.050,-0.965
$GSENS, 0.125, 0.046,-0.957
$GPRMC,064008.00,A,3540.30340,N,13921.77473,E,0.000,,221116,,,A*73
$GPGGA,064008.00,3540.30340,N,13921.77473,E,1,08,1.37,188.7,M,38.9,M,,*51
$GPGSV,4,1,13,02,03,166,,04,40,049,34,05,45,112,31,13,58,029,30*77
$GPGSV,4,2,13,15,64,314,28,18,15,308,25,20,74,330,25,21,34,299,25*71
$GPGSV,4,3,13,24,39,204,18,28,15,068,,29,01,237,,30,09,040,08*75
$GPGSV,4,4,13,193,83,175,26*7C
$GSENS, 0.117, 0.056,-0.969
$GSENS, 0.123, 0.056,-0.961
$GSENS, 0.127, 0.042,-0.963
$GSENS, 0.125, 0.046,-0.969
$GSENS, 0.123, 0.050,-0.969
$GPRMC,064009.00,A,3540.30340,N,13921.77473,E,0.000,,221116,,,A*72
$GPGGA,064009.00,3540.30340,N,13921.77473,E,1,08,1.37,188.7,M,38.9,M,,*50
$GPGSA,A,3,20,15,13,05,193,24,21,18,,,,,2.28,1.37,1.83*33
$GPGSV,4,1,13,02,03,166,,04,40,049,34,05,45,112,31,13,58,029,30*77
$GPGSV,4,2,13,15,64,314,28,18,15,308,26,20,74,330,25,21,34,299,25*72
$GPGSV,4,3,13,24,39,204,19,28,15,068,,29,01,237,,30,09,040,08*74
$GPGSV,4,4,13,193,83,175,26*7C
$GSENS, 0.125, 0.046,-0.967
$GSENS, 0.123, 0.050,-0.969
$GSENS, 0.119, 0.056,-0.959
$GSENS, 0.123, 0.048,-0.973
$GSENS, 0.128, 0.052,-0.957
$GPRMC,064009.00,A,3540.30340,N,13921.77473,E,0.000,,221116,,,A*72
$GPGGA,064009.00,3540.30340,N,13921.77473,E,1,08,1.37,188.7,M,38.9,M,,*50
$GPGSA,A,3,20,15,13,05,193,24,21,18,,,,,2.28,1.37,1.83*33
$GPGSV,4,1,13,02,03,166,,04,40,049,34,05,45,112,31,13,58,029,30*77
$GPGSV,4,2,13,15,64,314,28,18,15,308,26,20,74,330,25,21,34,299,25*72
$GPGSV,4,3,13,24,39,204,19,28,15,068,,29,01,237,,30,09,040,08*74
$GPGSV,4,4,13,193,83,175,26*7C
$GSENS, 0.121, 0.046,-0.978
$GSENS, 0.125, 0.048,-0.967
$GSENS, 0.125, 0.058,-0.963
$GSENS, 0.119, 0.056,-0.965
$GSENS, 0.121, 0.060,-0.963
$GPRMC,064010.00,A,3540.30340,N,13921.77473,E,0.000,,221116,,,A*7A
$GPGGA,064010.00,3540.30340,N,13921.77473,E,1,08,1.37,188.7,M,38.9,M,,*58
$GPGSV,4,1,13,02,03,166,,04,40,049,34,05,45,112,31,13,58,029,30*77
$GPGSV,4,2,13,15,64,314,28,18,15,308,25,20,74,330,25,21,34,299,25*71
$GPGSV,4,3,13,24,39,204,19,28,15,068,,29,01,237,,30,09,040,*7C
$GPGSV,4,4,13,193,83,175,26*7C
$GSENS, 0.123, 0.050,-0.953
$GSENS, 0.127, 0.048,-0.975
$GSENS, 0.121, 0.058,-0.961
$GSENS, 0.119, 0.044,-0.965
$GSENS, 0.125, 0.046,-0.965
$GPRMC,064010.00,A,3540.30340,N,13921.77473,E,0.000,,221116,,,A*7A
$GPGGA,064010.00,3540.30340,N,13921.77473,E,1,08,1.37,188.7,M,38.9,M,,*58
$GPGSV,4,1,13,02,03,166,,04,40,049,34,05,45,112,31,13,58,029,30*77
$GPGSV,4,2,13,15,64,314,28,18,15,308,25,20,74,330,25,21,34,299,25*71
$GPGSV,4,3,13,24,39,204,19,28,15,068,,29,01,237,,30,09,040,*7C
$GPGSV,4,4,13,193,83,175,26*7C
$GSENS, 0.121, 0.052,-0.963
$GSENS, 0.128, 0.050,-0.961
$GSENS, 0.119, 0.058,-0.963
$GSENS, 0.121, 0.058,-0.963
$GSENS, 0.125, 0.056,-0.953
$GPRMC,064011.00,A,3540.30340,N,13921.77473,E,0.000,,221116,,,A*7B
$GPGGA,064011.00,3540.30340,N,13921.77473,E,1,08,1.37,188.7,M,38.9,M,,*59
$GPGSV,4,1,13,02,03,166,,04,40,049,33,05,45,112,31,13,58,029,30*70
$GPGSV,4,2,13,15,64,314,29,18,15,308,25,20,74,330,25,21,34,299,25*70
$GPGSV,4,3,13,24,39,204,19,28,15,068,,29,01,237,,30,09,040,16*7B
$GPGSV,4,4,13,193,83,175,26*7C
$GSENS, 0.127, 0.052,-0.961
$GSENS, 0.115, 0.056,-0.961
$GSENS, 0.123, 0.052,-0.967
$GSENS, 0.130, 0.039,-0.977
$GSENS, 0.117, 0.052,-0.971
$GPRMC,064011.00,A,3540.30340,N,13921.77473,E,0.000,,221116,,,A*7B
$GPGGA,064011.00,3540.30340,N,13921.77473,E,1,08,1.37,188.7,M,38.9,M,,*59
$GPGSV,4,1,13,02,03,166,,04,40,049,33,05,45,112,31,13,58,029,30*70
$GPGSV,4,2,13,15,64,314,29,18,15,308,25,20,74,330,25,21,34,299,25*70
$GPGSV,4,3,13,24,39,204,19,28,15,068,,29,01,237,,30,09,040,16*7B
$GPGSV,4,4,13,193,83,175,26*7C
$GSENS, 0.119, 0.046,-0.965
$GSENS, 0.125, 0.044,-0.955
$GSENS, 0.123, 0.046,-0.961
$GSENS, 0.121, 0.046,-0.963
$GSENS, 0.125, 0.050,-0.957
$GPRMC,064012.00,A,3540.30340,N,13921.77473,E,0.000,,221116,,,A*78
$GPGGA,064012.00,3540.30340,N,13921.77473,E,1,08,1.37,188.7,M,38.9,M,,*5A
$GPGSV,4,1,13,02,03,166,,04,40,049,33,05,45,112,31,13,58,029,30*70
$GPGSV,4,2,13,15,64,314,28,18,15,308,25,20,74,330,25,21,34,299,25*71
$GPGSV,4,3,13,24,39,204,18,28,15,068,,29,01,237,,30,09,040,16*7A
$GPGSV,4,4,13,193,83,175,27*7D
$GSENS, 0.119, 0.041,-0.967
$GSENS, 0.121, 0.046,-0.963
$GSENS, 0.121, 0.048,-0.967
$GSENS, 0.125, 0.042,-0.961
$GSENS, 0.121, 0.050,-0.965
$GPRMC,064012.00,A,3540.30340,N,13921.77473,E,0.000,,221116,,,A*78
$GPGGA,064012.00,3540.30340,N,13921.77473,E,1,08,1.37,188.7,M,38.9,M,,*5A
$GPGSV,4,1,13,02,03,166,,04,40,049,33,05,45,112,31,13,58,029,30*70
$GPGSV,4,2,13,15,64,314,28,18,15,308,25,20,74,330,25,21,34,299,25*71
$GPGSV,4,3,13,24,39,204,18,28,15,068,,29,01,237,,30,09,040,16*7A
$GPGSV,4,4,13,193,83,175,27*7D
$GSENS, 0.127, 0.042,-0.961
$GSENS, 0.117, 0.058,-0.961
$GSENS, 0.119, 0.050,-0.965
