$GTRIP,1bd2b10f
$GPRMC,064427.00,A,3540.30916,N,13921.78362,E,0.000,,221116,,,A*7B
$GPGGA,064427.00,3540.30916,N,13921.78362,E,1,09,1.09,173.3,M,38.9,M,,*55
$GPGSV,4,1,13,02,02,166,,04,38,050,37,05,44,114,33,13,57,032,35*77
$GPGSV,4,2,13,15,65,319,32,18,16,308,31,20,76,332,27,21,34,297,28*71
$GPGSV,4,3,13,24,41,205,27,28,15,066,12,29,00,235,,30,07,040,22*7F
$GPGSV,4,4,13,193,82,176,26*7E
$GSENS, 0.117, 0.052,-0.967
$GSENS, 0.117, 0.054,-0.959
$GSENS, 0.121, 0.050,-0.959
$GSENS, 0.115, 0.048,-0.973
$GSENS, 0.121, 0.044,-0.965
$GPRMC,064427.00,A,3540.30916,N,13921.78362,E,0.000,,221116,,,A*7B
$GPGGA,064427.00,3540.30916,N,13921.78362,E,1,09,1.09,173.3,M,38.9,M,,*55
$GPGSV,4,1,13,02,02,166,,04,38,050,37,05,44,114,33,13,57,032,35*77
$GPGSV,4,2,13,15,65,319,32,18,16,308,31,20,76,332,27,21,34,297,28*71
$GPGSV,4,3,13,24,41,205,27,28,15,066,12,29,00,235,,30,07,040,22*7F
$GPGSV,4,4,13,193,82,176,26*7E
$GSENS, 0.121, 0.044,-0.963
$GSENS, 0.119, 0.054,-0.961
$GSENS, 0.115, 0.052,-0.961
$GSENS, 0.117, 0.046,-0.959
$GSENS, 0.121, 0.046,-0.961
$GPRMC,064428.00,A,3540.30916,N,13921.78362,E,0.000,,221116,,,A*74
$GPGGA,064428.00,3540.30916,N,13921.78362,E,1,09,1.09,173.3,M,38.9,M,,*5A
$GPGSA,A,3,20,15,13,05,193,24,21,18,30,,,,1.71,1.09,1.31*3B
$GPGSV,4,1,13,02,02,166,,04,38,050,37,05,44,114,34,13,57,032,36*73
$GPGSV,4,2,13,15,65,319,32,18,16,308,31,20,76,332,27,21,34,297,28*71
$GPGSV,4,3,13,24,41,205,27,28,15,066,12,29,00,235,,30,07,040,21*7C
$GPGSV,4,4,13,193,82,176,27*7F
$GSENS, 0.127, 0.046,-0.959
$GSENS, 0.115, 0.054,-0.961
$GSENS, 0.119, 0.046,-0.961
$GSENS, 0.121, 0.054,-0.967
$GSENS, 0.117, 0.054,-0.963
$GPRMC,064428.00,A,3540.30916,N,13921.78362,E,0.000,,221116,,,A*74
$GPGGA,064428.00,3540.30916,N,13921.78362,E,1,09,1.09,173.3,M,38.9,M,,*5A
$GPGSA,A,3,20,15,13,05,193,24,21,18,30,,,,1.71,1.09,1.31*3B
$GPGSV,4,1,13,02,02,166,,04,38,050,37,05,44,114,34,13,57,032,36*73
$GPGSV,4,2,13,15,65,319,32,18,16,308,31,20,76,332,27,21,34,297,28*71
$GPGSV,4,3,13,24,41,205,27,28,15,066,12,29,00,235,,30,07,040,21*7C
$GPGSV,4,4,13,193,82,176,27*7F
$GSENS, 0.119, 0.044,-0.961
$GSENS, 0.132, 0.048,-0.963
$GSENS, 0.121, 0.056,-0.965
$GSENS, 0.127, 0.052,-0.957
$GSENS, 0.127, 0.052,-0.959
$GPRMC,064429.00,A,3540.30916,N,13921.78362,E,0.000,,221116,,,A*75
$GPGGA,064429.00,3540.30916,N,13921.78362,E,1,09,1.09,173.3,M,38.9,M,,*5B
$GPGSV,4,1,13,02,02,166,,04,38,050,36,05,44,114,33,13,57,032,35*76
$GPGSV,4,2,13,15,65,319,31,18,16,308,30,20,76,332,26,21,34,297,28*72
$GPGSV,4,3,13,24,41,205,26,28,15,066,09,29,00,235,,30,07,040,21*77
$GPGSV,4,4,13,193,82,176,27*7F
$GSENS, 0.117, 0.050,-0.963
$GSENS, 0.132, 0.052,-0.963
$GSENS, 0.123, 0.050,-0.961
$GSENS, 0.115, 0.054,-0.965
$GSENS, 0.125, 0.039,-0.971
$GPRMC,064429.00,A,3540.30916,N,13921.78362,E,0.000,,221116,,,A*75
$GPGGA,064429.00,3540.30916,N,13921.78362,E,1,09,1.09,173.3,M,38.9,M,,*5B
$GPGSV,4,1,13,02,02,166,,04,38,050,36,05,44,114,33,13,57,032,35*76
$GPGSV,4,2,13,15,65,319,31,18,16,308,30,20,76,332,26,21,34,297,28*72
$GPGSV,4,3,13,24,41,205,26,28,15,066,09,29,00,235,,30,07,040,21*77
$GPGSV,4,4,13,193,82,176,27*7F
$GSENS, 0.121, 0.046,-0.957
$GSENS, 0.121, 0.058,-0.955
$GSENS, 0.119, 0.044,-0.965
$GSENS, 0.121, 0.060,-0.953
$GSENS, 0.127, 0.050,-0.967
$GPRMC,064430.00,A,3540.30916,N,13921.78362,E,0.000,,221116,,,A*7D
$GPGGA,064430.00,3540.30916,N,13921.78362,E,1,09,1.09,173.3,M,38.9,M,,*53
$GPGSV,4,1,13,02,02,166,,04,38,050,37,05,44,114,33,13,57,032,35*77
$GPGSV,4,2,13,15,65,319,31,18,16,308,30,20,76,332,26,21,34,297,29*73
$GPGSV,4,3,13,24,41,205,26,28,15,066,08,29,00,235,,30,07,040,21*76
$GPGSV,4,4,13,193,82,176,27*7F
$GSENS, 0.115, 0.052,-0.971
$GSENS, 0.123, 0.050,-0.969
$GSENS, 0.128, 0.046,-0.965
$GSENS, 0.121, 0.052,-0.965
$GSENS, 0.121, 0.050,-0.967
$GPRMC,064430.00,A,3540.30916,N,13921.78362,E,0.000,,221116,,,A*7D
$GPGGA,064430.00,3540.30916,N,13921.78362,E,1,09,1.09,173.3,M,38.9,M,,*53
$GPGSV,4,1,13,02,02,166,,04,38,050,37,05,44,114,33,13,57,032,35*77
$GPGSV,4,2,13,15,65,319,31,18,16,308,30,20,76,332,26,21,34,297,29*73
$GPGSV,4,3,13,24,41,205,26,28,15,066,08,29,00,235,,30,07,040,21*76
$GPGSV,4,4,13,193,82,176,27*7F
$GSENS, 0.123, 0.052,-0.959
$GSENS, 0.117, 0.052,-0.967
$GSENS, 0.115, 0.052,-0.963
$GSENS, 0.128, 0.050,-0.957
$GSENS, 0.119, 0.060,-0.965
$GPRMC,064431.00,A,3540.30916,N,13921.78362,E,0.000,,221116,,,A*7C
$GPGGA,064431.00,3540.30916,N,13921.78362,E,1,09,1.09,173.3,M,38.9,M,,*52
$GPGSV,4,1,13,02,02,166,,04,38,050,37,05,44,114,34,13,57,032,35*70
$GPGSV,4,2,13,15,65,319,32,18,16,308,31,20,76,332,27,21,34,297,29*70
$GPGSV,4,3,13,24,41,205,27,28,15,066,11,29,00,235,,30,07,040,22*7C
$GPGSV,4,4,13,193,82,176,27*7F
$GSENS, 0.117, 0.046,-0.969
$GSENS, 0.121, 0.042,-0.961
$GSENS, 0.123, 0.058,-0.963
$GSENS, 0.123, 0.054,-0.971
$GSENS, 0.128, 0.050,-0.959
$GPRMC,064431.00,A,3540.30916,N,13921.78362,E,0.000,,221116,,,A*7C
$GPGGA,064431.00,3540.30916,N,13921.78362,E,1,09,1.09,173.3,M,38.9,M,,*52
$GPGSV,4,1,13,02,02,166,,04,38,050,37,05,44,114,34,13,57,032,35*70
$GPGSV,4,2,13,15,65,319,32,18,16,308,31,20,76,332,27,21,34,297,29*70
$GPGSV,4,3,13,24,41,205,27,28,15,066,11,29,00,235,,30,07,040,22*7C
$GPGSV,4,4,13,193,82,176,27*7F
$GSENS, 0.121, 0.046,-0.969
$GSENS, 0.125, 0.042,-0.977
$GSENS, 0.119, 0.058,-0.969
$GSENS, 0.123, 0.042,-0.965
$GSENS, 0.123, 0.050,-0.967
$GPRMC,064432.00,A,3540.30916,N,13921.78362,E,0.000,,221116,,,A*7F
$GPGGA,064432.00,3540.30916,N,13921.78362,E,1,09,1.09,173.3,M,38.9,M,,*51
$GPGSA,A,3,20,15,13,05,193,24,21,18,30,,,,1.71,1.09,1.31*3B
$GPGSV,4,1,13,02,02,166,,04,38,050,37,05,44,114,34,13,57,032,35*70
$GPGSV,4,2,13,15,65,319,31,18,16,308,31,20,76,332,27,21,34,297,30*7B
$GPGSV,4,3,13,24,41,205,26,28,15,066,11,29,00,235,,30,07,040,21*7E
$GPGSV,4,4,13,193,82,176,27*7F
$GSENS, 0.121, 0.050,-0.969
$GSENS, 0.125, 0.054,-0.971
$GSENS, 0.127, 0.054,-0.971
$GSENS, 0.123, 0.050,-0.967
$GSENS, 0.123, 0.044,-0.959
$GPRMC,064432.00,A,3540.30916,N,13921.78362,E,0.000,,221116,,,A*7F
$GPGGA,064432.00,3540.30916,N,13921.78362,E,1,09,1.09,173.3,M,38.9,M,,*51
$GPGSA,A,3,20,15,13,05,193,24,21,18,30,,,,1.71,1.09,1.31*3B
$GPGSV,4,1,13,02,02,166,,04,38,050,37,05,44,114,34,13,57,032,35*70
$GPGSV,4,2,13,15,65,319,31,18,16,308,31,20,76,332,27,21,34,297,30*7B
$GPGSV,4,3,13,24,41,205,26,28,15,066,11,29,00,235,,30,07,040,21*7E
$GPGSV,4,4,13,193,82,176,27*7F
$GSENS, 0.125, 0.050,-0.971
$GSENS, 0.121, 0.056,-0.973
$GSENS, 0.121, 0.041,-0.963
$GSENS, 0.119, 0.046,-0.975
$GSENS, 0.119, 0.058,-0.963
$GPRMC,064433.00,A,3540.30916,N,13921.78362,E,0.000,,221116,,,A*7E
$GPGGA,064433.00,3540.30916,N,13921.78362,E,1,09,1.09,173.3,M,38.9,M,,*50
$GPGSV,4,1,13,02,02,166,,04,38,050,36,05,44,114,35,13,57,032,35*70
$GPGSV,4,2,13,15,65,319,32,18,16,308,30,20,76,332,27,21,34,297,30*79
$GPGSV,4,3,13,24,41,205,26,28,15,066,11,29,00,235,,30,07,040,21*7E
$GPGSV,4,4,13,193,82,176,26*7E
$GSENS, 0.123, 0.048,-0.961
$GSENS, 0.130, 0.037,-0.980
$GSENS, 0.123, 0.041,-0.971
$GSENS, 0.128, 0.048,-0.957
$GSENS, 0.123, 0.039,-0.978
$GPRMC,064433.00,A,3540.30916,N,13921.78362,E,0.000,,221116,,,A*7E
$GPGGA,064433.00,3540.30916,N,13921.78362,E,1,09,1.09,173.3,M,38.9,M,,*50
$GPGSV,4,1,13,02,02,166,,04,38,050,36,05,44,114,35,13,57,032,35*70
$GPGSV,4,2,13,15,65,319,32,18,16,308,30,20,76,332,27,21,34,297,30*79
$GPGSV,4,3,13,24,41,205,26,28,15,066,11,29,00,235,,30,07,040,21*7E
$GPGSV,4,4,13,193,82,176,26*7E
$GSENS, 0.123, 0.046,-0.965
$GSENS, 0.130, 0.050,-0.959
$GSENS, 0.121, 0.048,-0.973
$GSENS, 0.123, 0.042,-0.969
$GSENS, 0.119, 0.058,-0.967
$GPRMC,064434.00,A,3540.30916,N,13921.78362,E,0.000,,221116,,,A*79
$GPGGA,064434.00,3540.30916,N,13921.78362,E,1,09,1.09,173.3,M,38.9,M,,*57
$GPGSV,4,1,13,02,02,166,,04,38,050,37,05,44,114,35,13,57,032,35*71
$GPGSV,4,2,13,15,65,319,32,18,16,308,31,20,76,332,27,21,34,297,29*70
$GPGSV,4,3,13,24,41,205,26,28,15,066,10,29,00,235,,30,07,040,21*7F
$GPGSV,4,4,13,193,82,176,27*7F
$GSENS, 0.125, 0.044,-0.969
$GSENS, 0.121, 0.048,-0.969
$GSENS, 0.121, 0.054,-0.965
$GSENS, 0.125, 0.054,-0.965
$GSENS, 0.119, 0.060,-0.965
$GPRMC,064434.00,A,3540.30916,N,13921.78362,E,0.000,,221116,,,A*79
$GPGGA,064434.00,3540.30916,N,13921.78362,E,1,09,1.09,173.3,M,38.9,M,,*57
$GPGSV,4,1,13,02,02,166,,04,38,050,37,05,44,114,35,13,57,032,35*71
$GPGSV,4,2,13,15,65,319,32,18,16,308,31,20,76,332,27,21,34,297,29*70
$GPGSV,4,3,13,24,41,205,26,28,15,066,10,29,00,235,,30,07,040,21*7F
$GPGSV,4,4,13,193,82,176,27*7F
$GSENS, 0.119, 0.042,-0.969
$GSENS, 0.130, 0.048,-0.965
$GSENS, 0.119, 0.044,-0.971
$GSENS, 0.115, 0.054,-0.963
$GSENS, 0.128, 0.041,-0.971
$GPRMC,064435.00,A,3540.30916,N,13921.78362,E,0.000,,221116,,,A*78
$GPGGA,064435.00,3540.30916,N,13921.78362,E,1,09,1.09,173.3,M,38.9,M,,*56
$GPGSV,4,1,13,02,02,166,,04,38,050,37,05,44,114,35,13,57,032,35*71
$GPGSV,4,2,13,15,65,319,31,18,16,308,31,20,76,332,27,21,34,297,30*7B
$GPGSV,4,3,13,24,41,205,26,28,15,066,10,29,00,235,,30,07,040,22*7C
$GPGSV,4,4,13,193,82,176,27*7F
$GSENS, 0.123, 0.056,-0.967
$GSENS, 0.121, 0.046,-0.978
$GSENS, 0.125, 0.042,-0.969
$GSENS, 0.128, 0.048,-0.965
$GSENS, 0.123, 0.048,-0.967
$GPRMC,064435.00,A,3540.30916,N,13921.78362,E,0.000,,221116,,,A*78
$GPGGA,064435.00,3540.30916,N,13921.78362,E,1,09,1.09,173.3,M,38.9,M,,*56
$GPGSV,4,1,13,02,02,166,,04,38,050,37,05,44,114,35,13,57,032,35*71
$GPGSV,4,2,13,15,65,319,31,18,16,308,31,20,76,332,27,21,34,297,30*7B
$GPGSV,4,3,13,24,41,205,26,28,15,066,10,29,00,235,,30,07,040,22*7C
$GPGSV,4,4,13,193,82,176,27*7F
$GSENS, 0.121, 0.046,-0.965
$GSENS, 0.130, 0.050,-0.959
$GSENS, 0.134, 0.041,-0.975
$GSENS, 0.125, 0.048,-0.971
$GSENS, 0.119, 0.042,-0.971
$GPRMC,064436.00,A,3540.30916,N,13921.78362,E,0.000,,221116,,,A*7B
$GPGGA,064436.00,3540.30916,N,13921.78362,E,1,09,1.09,173.3,M,38.9,M,,*55
$GPGSA,A,3,20,15,13,05,193,24,21,18,30,,,,1.71,1.09,1.31*3B
$GPGSV,4,1,13,02,02,166,,04,38,050,37,05,44,114,35,13,57,032,35*71
$GPGSV,4,2,13,15,65,319,32,18,16,308,31,20,76,332,27,21,34,297,30*78
$GPGSV,4,3,13,24,41,205,26,28,15,066,10,29,00,235,,30,07,040,22*7C
$GPGSV,4,4,13,193,82,176,26*7E
$GSENS, 0.119, 0.058,-0.959
$GSENS, 0.119, 0.058,-0.965
$GSENS, 0.123, 0.048,-0.975
$GSENS, 0.121, 0.050,-0.965
$GSENS, 0.127, 0.044,-0.963
$GPRMC,064436.00,A,3540.30916,N,13921.78362,E,0.000,,221116,,,A*7B
$GPGGA,064436.00,3540.30916,N,13921.78362,E,1,09,1.09,173.3,M,38.9,M,,*55
$GPGSA,A,3,20,15,13,05,193,24,21,18,30,,,,1.71,1.09,1.31*3B
$GPGSV,4,1,13,02,02,166,,04,38,050,37,05,44,114,35,13,57,032,35*71
$GPGSV,4,2,13,15,65,319,32,18,16,308,31,20,76,332,27,21,34,297,30*78
$GPGSV,4,3,13,24,41,205,26,28,15,066,10,29,00,235,,30,07,040,22*7C
$GPGSV,4,4,13,193,82,176,26*7E
$GSENS, 0.121, 0.041,-0.967
$GSENS, 0.123, 0.046,-0.969
$GSENS, 0.117, 0.046,-0.967
$GSENS, 0.127, 0.042,-0.967
$GSENS, 0.119, 0.052,-0.965
$GPRMC,064437.00,A,3540.30916,N,13921.78362,E,0.000,,221116,,,A*7A
$GPGGA,064437.00,3540.30916,N,13921.78362,E,1,09,1.09,173.3,M,38.9,M,,*54
$GPGSV,4,1,13,02,02,166,,04,38,050,37,05,44,114,35,13,57,032,35*71
$GPGSV,4,2,13,15,65,319,31,18,16,308,31,20,76,332,27,21,34,297,30*7B
$GPGSV,4,3,13,24,41,205,26,28,15,066,10,29,00,235,,30,07,040,21*7F
$GPGSV,4,4,13,193,82,176,26*7E
$GSENS, 0.119, 0.046,-0.965
$GSENS, 0.123, 0.041,-0.959
$GSENS, 0.127, 0.044,-0.965
$GSENS, 0.119, 0.046,-0.965
$GSENS, 0.127, 0.044,-0.969
$GPRMC,064437.00,A,3540.30916,N,13921.78362,E,0.000,,221116,,,A*7A
$GPGGA,064437.00,3540.30916,N,13921.78362,E,1,09,1.09,173.3,M,38.9,M,,*54
$GPGSV,4,1,13,02,02,166,,04,38,050,37,05,44,114,35,13,57,032,35*71
$GPGSV,4,2,13,15,65,319,31,18,16,308,31,20,76,332,27,21,34,297,30*7B
$GPGSV,4,3,13,24,41,205,26,28,15,066,10,29,00,235,,30,07,040,21*7F
$GPGSV,4,4,13,193,82,176,26*7E
$GSENS, 0.121, 0.044,-0.963
$GSENS, 0.117, 0.044,-0.965
$GSENS, 0.117, 0.054,-0.963
$GSENS, 0.119, 0.052,-0.963
$GSENS, 0.123, 0.044,-0.967
$GPRMC,064438.00,A,3540.30916,N,13921.78362,E,0.000,,221116,,,A*75
$GPGGA,064438.00,3540.30916,N,13921.78362,E,1,09,1.09,173.3,M,38.9,M,,*5B
$GPGSV,4,1,13,02,02,166,,04,38,050,37,05,44,114,34,13,57,032,35*70
$GPGSV,4,2,13,15,65,319,31,18,16,308,31,20,76,332,27,21,34,297,30*7B
$GPGSV,4,3,13,24,41,205,26,28,15,066,10,29,00,235,,30,07,040,21*7F
$GPGSV,4,4,13,193,82,176,26*7E
$GSENS, 0.119, 0.052,-0.957
$GSENS, 0.119, 0.058,-0.965
$GSENS, 0.125, 0.048,-0.963
$GSENS, 0.123, 0.037,-0.971
$GSENS, 0.123, 0.042,-0.967
$GPRMC,064438.00,A,3540.30916,N,13921.78362,E,0.000,,221116,,,A*75
$GPGGA,064438.00,3540.30916,N,13921.78362,E,1,09,1.09,173.3,M,38.9,M,,*5B
$GPGSV,4,1,13,02,02,166,,04,38,050,37,05,44,114,34,13,57,032,35*70
$GPGSV,4,2,13,15,65,319,31,18,16,308,31,20,76,332,27,21,34,297,30*7B
$GPGSV,4,3,13,24,41,205,26,28,15,066,10,29,00,235,,30,07,040,21*7F
$GPGSV,4,4,13,193,82,176,26*7E
$GSENS, 0.123, 0.054,-0.965
$GSENS, 0.123, 0.056,-0.963
$GSENS, 0.115, 0.054,-0.959
$GSENS, 0.119, 0.056,-0.959
$GSENS, 0.127, 0.046,-0.967
$GPRMC,064439.00,A,3540.30916,N,13921.78362,E,0.000,,221116,,,A*74
$GPGGA,064439.00,3540.30916,N,13921.78362,E,1,09,1.09,173.3,M,38.9,M,,*5A
$GPGSV,4,1,13,02,02,166,,04,38,050,37,05,44,114,34,13,57,032,34*71
$GPGSV,4,2,13,15,65,319,30,18,16,308,31,20,76,332,27,21,34,297,29*72
$GPGSV,4,3,13,24,41,205,25,28,15,066,07,29,00,235,,30,07,040,20*7B
$GPGSV,4,4,13,193,82,176,26*7E
$GSENS, 0.128, 0.048,-0.963
$GSENS, 0.123, 0.046,-0.963
$GSENS, 0.123, 0.054,-0.957
$GSENS, 0.125, 0.050,-0.965
$GSENS, 0.119, 0.048,-0.961
$GPRMC,064439.00,A,3540.30916,N,13921.78362,E,0.000,,221116,,,A*74
$GPGGA,064439.00,3540.30916,N,13921.78362,E,1,09,1.09,173.3,M,38.9,M,,*5A
$GPGSV,4,1,13,02,02,166,,04,38,050,37,05,44,114,34,13,57,032,34*71
$GPGSV,4,2,13,15,65,319,30,18,16,308,31,20,76,332,27,21,34,297,29*72
$GPGSV,4,3,13,24,41,205,25,28,15,066,07,29,00,235,,30,07,040,20*7B
$GPGSV,4,4,13,193,82,176,26*7E
$GSENS, 0.115, 0.056,-0.957
$GSENS, 0.125, 0.046,-0.965
$GSENS, 0.117, 0.041,-0.965
$GSENS, 0.128, 0.041,-0.959
$GSENS, 0.117, 0.060,-0.965
$GPRMC,064440.00,A,3540.30916,N,13921.78362,E,0.000,,221116,,,A*7A
$GPGGA,064440.00,3540.30916,N,13921.78362,E,1,09,1.09,173.3,M,38.9,M,,*54
$GPGSA,A,3,20,15,13,05,193,24,21,18,30,,,,1.71,1.09,1.31*3B
$GPGSV,4,1,13,02,01,166,,04,38,050,37,05,44,114,34,13,57,032,35*73
$GPGSV,4,2,13,15,65,319,30,18,16,308,30,20,76,332,27,21,34,297,29*73
$GPGSV,4,3,13,24,41,205,26,28,15,066,07,29,00,235,,30,07,040,19*72
$GPGSV,4,4,13,193,82,176,26*7E
$GSENS, 0.123, 0.041,-0.963
$GSENS, 0.123, 0.050,-0.969
$GSENS, 0.123, 0.041,-0.971
$GSENS, 0.123, 0.048,-0.963
$GSENS, 0.119, 0.046,-0.973
$GPRMC,064440.00,A,3540.30916,N,13921.78362,E,0.000,,221116,,,A*7A
$GPGGA,064440.00,3540.30916,N,13921.78362,E,1,09,1.09,173.3,M,38.9,M,,*54
$GPGSA,A,3,20,15,13,05,193,24,21,18,30,,,,1.71,1.09,1.31*3B
$GPGSV,4,1,13,02,01,166,,04,38,050,37,05,44,114,34,13,57,032,35*73
$GPGSV,4,2,13,15,65,319,30,18,16,308,30,20,76,332,27,21,34,297,29*73
$GPGSV,4,3,13,24,41,205,26,28,15,066,07,29,00,235,,30,07,040,19*72
$GPGSV,4,4,13,193,82,176,26*7E
$GSENS, 0.127, 0.041,-0.963
$GSENS, 0.119, 0.048,-0.961
$GSENS, 0.130, 0.041,-0.969
$GSENS, 0.123, 0.050,-0.963
$GSENS, 0.115, 0.050,-0.961
$GPRMC,064441.00,A,3540.30916,N,13921.78362,E,0.000,,221116,,,A*7B
$GPGGA,064441.00,3540.30916,N,13921.78362,E,1,09,1.09,173.3,M,38.9,M,,*55
$GPGSV,4,1,13,02,01,166,,04,38,050,37,05,44,114,34,13,57,032,35*73
$GPGSV,4,2,13,15,65,319,30,18,16,308,30,20,76,332,27,21,34,297,29*73
$GPGSV,4,3,13,24,41,205,26,28,15,066,07,29,00,235,,30,07,040,19*72
$GPGSV,4,4,13,193,82,176,26*7E
$GSENS, 0.117, 0.052,-0.967
$GSENS, 0.123, 0.050,-0.953
$GSENS, 0.123, 0.052,-0.963
$GSENS, 0.115, 0.056,-0.967
$GSENS, 0.123, 0.046,-0.963
$GPRMC,064441.00,A,3540.30916,N,13921.78362,E,0.000,,221116,,,A*7B
$GPGGA,064441.00,3540.30916,N,13921.78362,E,1,09,1.09,173.3,M,38.9,M,,*55
$GPGSV,4,1,13,02,01,166,,04,38,050,37,05,44,114,34,13,57,032,35*73
$GPGSV,4,2,13,15,65,319,30,18,16,308,30,20,76,332,27,21,34,297,29*73
$GPGSV,4,3,13,24,41,205,26,28,15,066,07,29,00,235,,30,07,040,19*72
$GPGSV,4,4,13,193,82,176,26*7E
$GSENS, 0.121, 0.044,-0.957
$GSENS, 0.119, 0.058,-0.963
$GSENS, 0.119, 0.052,-0.967
$GSENS, 0.117, 0.042,-0.963
$GSENS, 0.121, 0.058,-0.967
$GPRMC,064442.00,A,3540.30916,N,13921.78362,E,0.000,,221116,,,A*78
$GPGGA,064442.00,3540.30916,N,13921.78362,E,1,09,1.09,173.3,M,38.9,M,,*56
$GPGSV,4,1,13,02,01,166,,04,38,051,37,05,44,114,35,13,57,032,35*73
$GPGSV,4,2,13,15,65,319,30,18,16,308,31,20,76,332,27,21,34,297,29*72
$GPGSV,4,3,13,24,41,205,26,28,15,066,08,29,00,235,,30,07,040,19*7D
$GPGSV,4,4,13,193,82,176,26*7E
$GSENS, 0.115, 0.052,-0.961
$GSENS, 0.115, 0.041,-0.963
$GSENS, 0.115, 0.048,-0.969
$GSENS, 0.125, 0.058,-0.959
$GSENS, 0.121, 0.048,-0.967
$GPRMC,064442.00,A,3540.30916,N,13921.78362,E,0.000,,221116,,,A*78
$GPGGA,064442.00,3540.30916,N,13921.78362,E,1,09,1.09,173.3,M,38.9,M,,*56
$GPGSV,4,1,13,02,01,166,,04,38,051,37,05,44,114,35,13,57,032,35*73
$GPGSV,4,2,13,15,65,319,30,18,16,308,31,20,76,332,27,21,34,297,29*72
$GPGSV,4,3,13,24,41,205,26,28,15,066,08,29,00,235,,30,07,040,19*7D
$GPGSV,4,4,13,193,82,176,26*7E
$GSENS, 0.117, 0.052,-0.963
$GSENS, 0.121, 0.050,-0.963
$GSENS, 0.123, 0.048,-0.969
$GSENS, 0.123, 0.052,-0.959
$GSENS, 0.123, 0.048,-0.965
$GPRMC,064443.00,A,3540.30916,N,13921.78362,E,0.000,,221116,,,A*79
$GPGGA,064443.00,3540.30916,N,13921.78362,E,1,09,1.09,173.3,M,38.9,M,,*57
$GPGSV,4,1,13,02,01,166,,04,38,051,37,05,44,115,35,13,57,032,36*71
$GPGSV,4,2,13,15,65,319,31,18,16,308,31,20,76,332,27,21,34,297,30*7B
$GPGSV,4,3,13,24,41,205,26,28,15,066,08,29,00,235,,30,07,040,19*7D
$GPGSV,4,4,13,193,82,176,26*7E
$GSENS, 0.115, 0.052,-0.957
$GSENS, 0.119, 0.046,-0.965
$GSENS, 0.119, 0.052,-0.965
$GSENS, 0.119, 0.044,-0.965
$GSENS, 0.121, 0.048,-0.965
$GPRMC,064443.00,A,3540.30916,N,13921.78362,E,0.000,,221116,,,A*79
$GPGGA,064443.00,3540.30916,N,13921.78362,E,1,09,1.09,173.3,M,38.9,M,,*57
$GPGSV,4,1,13,02,01,166,,04,38,051,37,05,44,115,35,13,57,032,36*71
$GPGSV,4,2,13,15,65,319,31,18,16,308,31,20,76,332,27,21,34,297,30*7B
$GPGSV,4,3,13,24,41,205,26,28,15,066,08,29,00,235,,30,07,040,19*7D
$GPGSV,4,4,13,193,82,176,26*7E
$GSENS, 0.121, 0.046,-0.967
$GSENS, 0.123, 0.054,-0.963
$GSENS, 0.119, 0.056,-0.959
$GSENS, 0.121, 0.048,-0.963
$GSENS, 0.119, 0.052,-0.967
$GPRMC,064444.00,A,3540.30916,N,13921.78362,E,0.000,,221116,,,A*7E
$GPGGA,064444.00,3540.30916,N,13921.78362,E,1,09,1.09,173.3,M,38.9,M,,*50
$GPGSA,A,3,20,15,13,05,193,24,21,18,30,,,,1.71,1.09,1.31*3B
$GPGSV,4,1,13,02,01,166,,04,38,051,37,05,44,115,35,13,57,032,36*71
$GPGSV,4,2,13,15,65,319,32,18,16,308,31,20,76,332,27,21,34,297,30*78
$GPGSV,4,3,13,24,41,205,26,28,15,066,08,29,00,235,,30,07,040,19*7D
$GPGSV,4,4,13,193,82,176,26*7E
$GSENS, 0.121, 0.050,-0.963
$GSENS, 0.121, 0.046,-0.959
$GSENS, 0.121, 0.050,-0.967
$GSENS, 0.123, 0.052,-0.965
$GSENS, 0.123, 0.054,-0.953
$GPRMC,064444.00,A,3540.30916,N,13921.78362,E,0.000,,221116,,,A*7E
$GPGGA,064444.00,3540.30916,N,13921.78362,E,1,09,1.09,173.3,M,38.9,M,,*50
$GPGSA,A,3,20,15,13,05,193,24,21,18,30,,,,1.71,1.09,1.31*3B
$GPGSV,4,1,13,02,01,166,,04,38,051,37,05,44,115,35,13,57,032,36*71
$GPGSV,4,2,13,15,65,319,32,18,16,308,31,20,76,332,27,21,34,297,30*78
$GPGSV,4,3,13,24,41,205,26,28,15,066,08,29,00,235,,30,07,040,19*7D
$GPGSV,4,4,13,193,82,176,26*7E
$GSENS, 0.121, 0.056,-0.963
$GSENS, 0.117, 0.052,-0.969
$GSENS, 0.123, 0.052,-0.963
$GSENS, 0.127, 0.044,-0.973
$GSENS, 0.119, 0.052,-0.961
$GPRMC,064445.00,A,3540.30916,N,13921.78362,E,0.000,,221116,,,A*7F
$GPGGA,064445.00,3540.30916,N,13921.78362,E,1,09,1.09,173.3,M,38.9,M,,*51
$GPGSV,4,1,13,02,01,166,,04,38,051,37,05,44,115,35,13,57,032,36*71
$GPGSV,4,2,13,15,65,319,31,18,16,308,31,20,76,332,27,21,34,297,29*73
$GPGSV,4,3,13,24,41,205,27,28,15,066,08,29,00,235,,30,07,040,19*7C
$GPGSV,4,4,13,193,82,176,26*7E
$GSENS, 0.117, 0.056,-0.959
$GSENS, 0.121, 0.046,-0.959
$GSENS, 0.121, 0.048,-0.965
$GSENS, 0.117, 0.048,-0.961
$GSENS, 0.125, 0.044,-0.967
$GPRMC,064445.00,A,3540.30916,N,13921.78362,E,0.000,,221116,,,A*7F
$GPGGA,064445.00,3540.30916,N,13921.78362,E,1,09,1.09,173.3,M,38.9,M,,*51
$GPGSV,4,1,13,02,01,166,,04,38,051,37,05,44,115,35,13,57,032,36*71
$GPGSV,4,2,13,15,65,319,31,18,16,308,31,20,76,332,27,21,34,297,29*73
$GPGSV,4,3,13,24,41,205,27,28,15,066,08,29,00,235,,30,07,040,19*7C
$GPGSV,4,4,13,193,82,176,26*7E
$GSENS, 0.123, 0.044,-0.973
$GSENS, 0.127, 0.046,-0.967
$GSENS, 0.123, 0.044,-0.969
$GSENS, 0.121, 0.046,-0.969
$GSENS, 0.113, 0.052,-0.959
$GPRMC,064446.00,A,3540.30916,N,13921.78362,E,0.000,,221116,,,A*7C
$GPGGA,064446.00,3540.30916,N,13921.78362,E,1,09,1.09,173.3,M,38.9,M,,*52
$GPGSV,4,1,13,02,01,166,,04,38,051,37,05,44,115,35,13,57,032,37*70
$GPGSV,4,2,13,15,65,319,31,18,16,308,31,20,76,332,27,21,34,297,29*73
$GPGSV,4,3,13,24,41,205,27,28,15,066,08,29,00,235,,30,07,040,19*7C
$GPGSV,4,4,13,193,82,176,27*7F
$GSENS, 0.121, 0.054,-0.963
$GSENS, 0.115, 0.046,-0.969
$GSENS, 0.123, 0.052,-0.959
$GSENS, 0.115, 0.050,-0.963
$GSENS, 0.119, 0.044,-0.957
$GPRMC,064446.00,A,3540.30916,N,13921.78362,E,0.000,,221116,,,A*7C
$GPGGA,064446.00,3540.30916,N,13921.78362,E,1,09,1.09,173.3,M,38.9,M,,*52
$GPGSV,4,1,13,02,01,166,,04,38,051,37,05,44,115,35,13,57,032,37*70
$GPGSV,4,2,13,15,65,319,31,18,16,308,31,20,76,332,27,21,34,297,29*73
$GPGSV,4,3,13,24,41,205,27,28,15,066,08,29,00,235,,30,07,040,19*7C
$GPGSV,4,4,13,193,82,176,27*7F
$GSENS, 0.121, 0.056,-0.965
$GSENS, 0.119, 0.054,-0.963
$GSENS, 0.115, 0.054,-0.959
$GSENS, 0.117, 0.044,-0.971
$GSENS, 0.119, 0.054,-0.961
$GPRMC,064447.00,A,3540.30916,N,13921.78362,E,0.000,,221116,,,A*7D
$GPGGA,064447.00,3540.30916,N,13921.78362,E,1,09,1.09,173.3,M,38.9,M,,*53
$GPGSV,4,1,13,02,01,166,,04,38,051,37,05,44,115,33,13,57,032,37*76
$GPGSV,4,2,13,15,65,319,30,18,16,308,30,20,76,332,27,21,34,297,28*72
$GPGSV,4,3,13,24,41,205,26,28,15,066,08,29,00,235,,30,07,040,18*7C
$GPGSV,4,4,13,193,82,176,26*7E
$GSENS, 0.121, 0.052,-0.963
$GSENS, 0.123, 0.042,-0.963
$GSENS, 0.121, 0.056,-0.957
$GSENS, 0.123, 0.052,-0.961
$GSENS, 0.125, 0.039,-0.961
$GPRMC,064447.00,A,3540.30916,N,13921.78362,E,0.000,,221116,,,A*7D
$GPGGA,064447.00,3540.30916,N,13921.78362,E,1,09,1.09,173.3,M,38.9,M,,*53
$GPGSV,4,1,13,02,01,166,,04,38,051,37,05,44,115,33,13,57,032,37*76
$GPGSV,4,2,13,15,65,319,30,18,16,308,30,20,76,332,27,21,34,297,28*72
$GPGSV,4,3,13,24,41,205,26,28,15,066,08,29,00,235,,30,07,040,18*7C
$GPGSV,4,4,13,193,82,176,26*7E
$GSENS, 0.123, 0.046,-0.961
$GSENS, 0.119, 0.054,-0.967
$GSENS, 0.123, 0.048,-0.967
$GSENS, 0.119, 0.054,-0.965
$GSENS, 0.117, 0.048,-0.963
$GPRMC,064448.00,A,3540.30916,N,13921.78362,E,0.000,,221116,,,A*72
$GPGGA,064448.00,3540.30916,N,13921.78362,E,1,09,1.09,173.3,M,38.9,M,,*5C
$GPGSA,A,3,20,15,13,05,193,24,21,18,30,,,,1.71,1.09,1.31*3B
$GPGSV,4,1,13,02,01,166,,04,38,051,37,05,44,115,34,13,57,032,37*71
$GPGSV,4,2,13,15,65,319,30,18,16,308,31,20,76,332,27,21,34,297,29*72
$GPGSV,4,3,13,24,41,205,26,28,15,066,08,29,00,235,,30,07,040,18*7C
$GPGSV,4,4,13,193,82,176,26*7E
$GSENS, 0.117, 0.056,-0.965
$GSENS, 0.123, 0.044,-0.967
$GSENS, 0.121, 0.050,-0.965
$GSENS, 0.111, 0.056,-0.957
$GSENS, 0.125, 0.044,-0.965
$GPRMC,064448.00,A,3540.30916,N,13921.78362,E,0.000,,221116,,,A*72
$GPGGA,064448.00,3540.30916,N,13921.78362,E,1,09,1.09,173.3,M,38.9,M,,*5C
$GPGSA,A,3,20,15,13,05,193,24,21,18,30,,,,1.71,1.09,1.31*3B
$GPGSV,4,1,13,02,01,166,,04,38,051,37,05,44,115,34,13,57,032,37*71
$GPGSV,4,2,13,15,65,319,30,18,16,308,31,20,76,332,27,21,34,297,29*72
$GPGSV,4,3,13,24,41,205,26,28,15,066,08,29,00,235,,30,07,040,18*7C
$GPGSV,4,4,13,193,82,176,26*7E
$GSENS, 0.121, 0.052,-0.967
$GSENS, 0.123, 0.056,-0.963
$GSENS, 0.121, 0.060,-0.961
$GSENS, 0.125, 0.052,-0.975
$GSENS, 0.123, 0.041,-0.967
$GPRMC,064449.00,A,3540.30916,N,13921.78362,E,0.000,,221116,,,A*73
$GPGGA,064449.00,3540.30916,N,13921.78362,E,1,09,1.09,173.3,M,38.9,M,,*5D
$GPGSV,4,1,13,02,01,166,,04,38,051,37,05,44,115,34,13,57,032,37*71
$GPGSV,4,2,13,15,65,319,30,18,16,308,31,20,76,332,27,21,34,297,29*72
$GPGSV,4,3,13,24,41,205,26,28,15,066,08,29,00,235,,30,07,040,18*7C
$GPGSV,4,4,13,193,82,176,26*7E
$GSENS, 0.113, 0.054,-0.961
$GSENS, 0.123, 0.056,-0.961
$GSENS, 0.121, 0.056,-0.961
$GSENS, 0.121, 0.046,-0.969
$GSENS, 0.121, 0.050,-0.961
$GPRMC,064449.00,A,3540.30916,N,13921.78362,E,0.000,,221116,,,A*73
$GPGGA,064449.00,3540.30916,N,13921.78362,E,1,09,1.09,173.3,M,38.9,M,,*5D
$GPGSV,4,1,13,02,01,166,,04,38,051,37,05,44,115,34,13,57,032,37*71
$GPGSV,4,2,13,15,65,319,30,18,16,308,31,20,76,332,27,21,34,297,29*72
$GPGSV,4,3,13,24,41,205,26,28,15,066,08,29,00,235,,30,07,040,18*7C
$GPGSV,4,4,13,193,82,176,26*7E
$GSENS, 0.117, 0.050,-0.963
$GSENS, 0.117, 0.052,-0.963
$GSENS, 0.127, 0.046,-0.961
$GSENS, 0.125, 0.052,-0.967
$GSENS, 0.117, 0.058,-0.955
$GPRMC,064450.00,A,3540.30916,N,13921.78362,E,0.000,,221116,,,A*7B
$GPGGA,064450.00,3540.30916,N,13921.78362,E,1,09,1.09,173.3,M,38.9,M,,*55
$GPGSV,4,1,13,02,01,166,,04,38,051,37,05,44,115,34,13,57,032,37*71
$GPGSV,4,2,13,15,65,319,30,18,16,308,31,20,76,332,27,21,34,297,29*72
$GPGSV,4,3,13,24,41,205,25,28,15,066,08,29,00,235,,30,07,040,18*7F
$GPGSV,4,4,13,193,82,176,26*7E
$GSENS, 0.123, 0.050,-0.963
$GSENS, 0.127, 0.048,-0.953
$GSENS, 0.117, 0.056,-0.965
$GSENS, 0.121, 0.058,-0.957
$GSENS, 0.127, 0.044,-0.961
$GPRMC,064450.00,A,3540.30916,N,13921.78362,E,0.000,,221116,,,A*7B
$GPGGA,064450.00,3540.30916,N,13921.78362,E,1,09,1.09,173.3,M,38.9,M,,*55
$GPGSV,4,1,13,02,01,166,,04,38,051,37,05,44,115,34,13,57,032,37*71
$GPGSV,4,2,13,15,65,319,30,18,16,308,31,20,76,332,27,21,34,297,29*72
$GPGSV,4,3,13,24,41,205,25,28,15,066,08,29,00,235,,30,07,040,18*7F
$GPGSV,4,4,13,193,82,176,26*7E
$GSENS, 0.117, 0.064,-0.957
$GSENS, 0.117, 0.058,-0.959
$GSENS, 0.127, 0.048,-0.959
$GSENS, 0.121, 0.050,-0.957
$GSENS, 0.113, 0.058,-0.961
$GPRMC,064451.00,A,3540.30916,N,13921.78362,E,0.000,,221116,,,A*7A
$GPGGA,064451.00,3540.30916,N,13921.78362,E,1,09,1.09,173.3,M,38.9,M,,*54
$GPGSV,4,1,13,02,01,166,,04,38,051,36,05,44,115,33,13,56,032,36*77
$GPGSV,4,2,13,15,65,319,29,18,16,308,30,20,76,332,27,21,34,297,29*7B
$GPGSV,4,3,13,24,41,205,25,28,15,066,07,29,00,235,,30,07,040,18*70
$GPGSV,4,4,13,193,82,176,26*7E
$GSENS, 0.128, 0.056,-0.955
$GSENS, 0.121, 0.052,-0.959
$GSENS, 0.121, 0.060,-0.957
$GSENS, 0.121, 0.050,-0.957
$GSENS, 0.127, 0.037,-0.971
$GPRMC,064451.00,A,3540.30916,N,13921.78362,E,0.000,,221116,,,A*7A
$GPGGA,064451.00,3540.30916,N,13921.78362,E,1,09,1.09,173.3,M,38.9,M,,*54
$GPGSV,4,1,13,02,01,166,,04,38,051,36,05,44,115,33,13,56,032,36*77
$GPGSV,4,2,13,15,65,319,29,18,16,308,30,20,76,332,27,21,34,297,29*7B
$GPGSV,4,3,13,24,41,205,25,28,15,066,07,29,00,235,,30,07,040,18*70
$GPGSV,4,4,13,193,82,176,26*7E
$GSENS, 0.127, 0.033,-0.969
$GSENS, 0.123, 0.052,-0.971
$GSENS, 0.128, 0.046,-0.965
$GSENS, 0.127, 0.048,-0.965
$GSENS, 0.121, 0.058,-0.957
$GPRMC,064452.00,A,3540.30916,N,13921.78362,E,0.000,,221116,,,A*79
$GPGGA,064452.00,3540.30916,N,13921.78362,E,1,09,1.09,173.3,M,38.9,M,,*57
$GPGSA,A,3,20,15,13,05,193,24,21,18,30,,,,1.71,1.09,1.31*3B
$GPGSV,4,1,13,02,01,166,,04,38,051,36,05,44,115,33,13,56,032,37*76
$GPGSV,4,2,13,15,65,319,30,18,16,308,31,20,76,332,27,21,34,297,29*72
$GPGSV,4,3,13,24,41,205,25,28,15,066,08,29,00,235,,30,07,040,19*7E
$GPGSV,4,4,13,193,82,176,26*7E
$GSENS, 0.125, 0.046,-0.959
$GSENS, 0.111, 0.048,-0.965
$GSENS, 0.121, 0.046,-0.957
$GSENS, 0.136, 0.029,-0.967
$GSENS, 0.119, 0.056,-0.965
$GPRMC,064452.00,A,3540.30916,N,13921.78362,E,0.000,,221116,,,A*79
$GPGGA,064452.00,3540.30916,N,13921.78362,E,1,09,1.09,173.3,M,38.9,M,,*57
$GPGSA,A,3,20,15,13,05,193,24,21,18,30,,,,1.71,1.09,1.31*3B
$GPGSV,4,1,13,02,01,166,,04,38,051,36,05,44,115,33,13,56,032,37*76
$GPGSV,4,2,13,15,65,319,30,18,16,308,31,20,76,332,27,21,34,297,29*72
$GPGSV,4,3,13,24,41,205,25,28,15,066,08,29,00,235,,30,07,040,19*7E
$GPGSV,4,4,13,193,82,176,26*7E
$GSENS, 0.127, 0.039,-0.977
$GSENS, 0.127, 0.048,-0.961
$GSENS, 0.146, 0.039,-0.994
$GSENS, 0.130, 0.046,-0.967
$GSENS, 0.121, 0.060,-0.957
$GPRMC,064453.00,A,3540.30916,N,13921.78362,E,0.000,,221116,,,A*78
$GPGGA,064453.00,3540.30916,N,13921.78362,E,1,09,1.09,173.3,M,38.9,M,,*56
$GPGSV,4,1,13,02,01,166,,04,38,051,36,05,44,115,33,13,56,032,36*77
$GPGSV,4,2,13,15,65,320,30,18,16,308,30,20,76,332,27,21,34,297,29*79
$GPGSV,4,3,13,24,41,205,25,28,15,066,08,29,00,235,,30,07,040,19*7E
$GPGSV,4,4,13,193,82,176,26*7E
$GSENS, 0.115, 0.050,-0.963
$GSENS, 0.113, 0.056,-0.965
$GSENS, 0.119, 0.054,-0.969
$GSENS, 0.123, 0.041,-0.973
$GSENS, 0.117, 0.062,-0.957
$GPRMC,064453.00,A,3540.30916,N,13921.78362,E,0.000,,221116,,,A*78
$GPGGA,064453.00,3540.30916,N,13921.78362,E,1,09,1.09,173.3,M,38.9,M,,*56
$GPGSV,4,1,13,02,01,166,,04,38,051,36,05,44,115,33,13,56,032,36*77
$GPGSV,4,2,13,15,65,320,30,18,16,308,30,20,76,332,27,21,34,297,29*79
$GPGSV,4,3,13,24,41,205,25,28,15,066,08,29,00,235,,30,07,040,19*7E
$GPGSV,4,4,13,193,82,176,26*7E
$GSENS, 0.117, 0.056,-0.963
$GSENS, 0.127, 0.054,-0.957
$GSENS, 0.113, 0.060,-0.963
$GSENS, 0.128, 0.039,-0.973
$GSENS, 0.121, 0.046,-0.967
$GPRMC,064454.00,A,3540.30916,N,13921.78362,E,0.000,,221116,,,A*7F
$GPGGA,064454.00,3540.30916,N,13921.78362,E,1,08,1.34,173.3,M,38.9,M,,*5E
$GPGSV,4,1,13,02,01,166,,04,38,051,37,05,44,115,34,13,56,032,36*71
$GPGSV,4,2,13,15,65,320,30,18,16,308,30,20,76,332,27,21,34,297,29*79
$GPGSV,4,3,13,24,41,205,25,28,15,066,08,29,00,235,,30,07,040,17*70
$GPGSV,4,4,13,193,82,176,27*7F
$GSENS, 0.121, 0.046,-0.969
$GSENS, 0.119, 0.058,-0.959
$GSENS, 0.121, 0.050,-0.959
$GSENS, 0.121, 0.046,-0.971
$GSENS, 0.121, 0.056,-0.957
$GPRMC,064454.00,A,3540.30916,N,13921.78362,E,0.000,,221116,,,A*7F
$GPGGA,064454.00,3540.30916,N,13921.78362,E,1,08,1.34,173.3,M,38.9,M,,*5E
$GPGSV,4,1,13,02,01,166,,04,38,051,37,05,44,115,34,13,56,032,36*71
$GPGSV,4,2,13,15,65,320,30,18,16,308,30,20,76,332,27,21,34,297,29*79
$GPGSV,4,3,13,24,41,205,25,28,15,066,08,29,00,235,,30,07,040,17*70
$GPGSV,4,4,13,193,82,176,27*7F
$GSENS, 0.123, 0.050,-0.963
$GSENS, 0.117, 0.052,-0.965
$GSENS, 0.117, 0.052,-0.957
$GSENS, 0.115, 0.058,-0.965
$GSENS, 0.123, 0.039,-0.977
$GPRMC,064455.00,A,3540.30916,N,13921.78362,E,0.000,,221116,,,A*7E
$GPGGA,064455.00,3540.30916,N,13921.78362,E,1,09,1.09,173.3,M,38.9,M,,*50
$GPGSV,4,1,13,02,01,166,,04,38,051,36,05,44,115,34,13,56,032,36*70
$GPGSV,4,2,13,15,65,320,30,18,16,308,30,20,76,332,27,21,34,297,28*78
$GPGSV,4,3,13,24,41,205,25,28,15,066,08,29,00,235,,30,07,040,18*7F
$GPGSV,4,4,13,193,82,176,27*7F
$GSENS, 0.123, 0.039,-0.973
$GSENS, 0.128, 0.044,-0.963
$GSENS, 0.123, 0.048,-0.959
$GSENS, 0.119, 0.044,-0.969
$GSENS, 0.121, 0.044,-0.963
$GPRMC,064455.00,A,3540.30916,N,13921.78362,E,0.000,,221116,,,A*7E
$GPGGA,064455.00,3540.30916,N,13921.78362,E,1,09,1.09,173.3,M,38.9,M,,*50
$GPGSV,4,1,13,02,01,166,,04,38,051,36,05,44,115,34,13,56,032,36*70
$GPGSV,4,2,13,15,65,320,30,18,16,308,30,20,76,332,27,21,34,297,28*78
$GPGSV,4,3,13,24,41,205,25,28,15,066,08,29,00,235,,30,07,040,18*7F
$GPGSV,4,4,13,193,82,176,27*7F
$GSENS, 0.123, 0.048,-0.961
$GSENS, 0.125, 0.050,-0.971
$GSENS, 0.115, 0.058,-0.957
$GSENS, 0.123, 0.048,-0.961
$GSENS, 0.119, 0.060,-0.961
$GPRMC,064456.00,A,3540.30916,N,13921.78362,E,0.000,,221116,,,A*7D
$GPGGA,064456.00,3540.30916,N,13921.78362,E,1,09,1.10,173.3,M,38.9,M,,*5B
$GPGSA,A,3,20,15,13,05,193,24,21,18,30,,,,1.71,1.10,1.31*33
$GPGSV,4,1,13,02,01,166,,04,38,051,36,05,44,115,34,13,56,032,36*70
$GPGSV,4,2,13,15,65,320,30,18,16,308,31,20,76,332,28,21,34,297,29*77
$GPGSV,4,3,13,24,41,205,25,28,15,066,08,29,00,235,,30,07,040,19*7E
$GPGSV,4,4,13,193,82,176,26*7E
$GSENS, 0.125, 0.042,-0.975
$GSENS, 0.123, 0.042,-0.959
$GSENS, 0.123, 0.056,-0.967
$GSENS, 0.111, 0.062,-0.955
$GSENS, 0.128, 0.052,-0.957
$GPRMC,064456.00,A,3540.30916,N,13921.78362,E,0.000,,221116,,,A*7D
$GPGGA,064456.00,3540.30916,N,13921.78362,E,1,09,1.10,173.3,M,38.9,M,,*5B
$GPGSA,A,3,20,15,13,05,193,24,21,18,30,,,,1.71,1.10,1.31*33
$GPGSV,4,1,13,02,01,166,,04,38,051,36,05,44,115,34,13,56,032,36*70
$GPGSV,4,2,13,15,65,320,30,18,16,308,31,20,76,332,28,21,34,297,29*77
$GPGSV,4,3,13,24,41,205,25,28,15,066,08,29,00,235,,30,07,040,19*7E
$GPGSV,4,4,13,193,82,176,26*7E
$GSENS, 0.119, 0.052,-0.965
$GSENS, 0.121, 0.058,-0.963
$GSENS, 0.119, 0.062,-0.961
$GSENS, 0.123, 0.048,-0.971
$GSENS, 0.117, 0.056,-0.965
$GPRMC,064457.00,A,3540.30916,N,13921.78362,E,0.000,,221116,,,A*7C
$GPGGA,064457.00,3540.30916,N,13921.78362,E,1,09,1.10,173.3,M,38.9,M,,*5A
$GPGSV,4,1,13,02,01,166,,04,38,051,36,05,44,115,34,13,56,032,36*70
$GPGSV,4,2,13,15,65,320,30,18,16,308,30,20,76,332,27,21,34,297,29*79
$GPGSV,4,3,13,24,41,205,25,28,15,066,07,29,00,235,,30,07,040,19*71
$GPGSV,4,4,13,193,82,176,27*7F
$GSENS, 0.125, 0.050,-0.965
$GSENS, 0.119, 0.052,-0.961
$GSENS, 0.132, 0.035,-0.959
$GSENS, 0.134, 0.039,-0.965
$GSENS, 0.128, 0.037,-0.963
$GPRMC,064457.00,A,3540.30916,N,13921.78362,E,0.000,,221116,,,A*7C
$GPGGA,064457.00,3540.30916,N,13921.78362,E,1,09,1.10,173.3,M,38.9,M,,*5A
$GPGSV,4,1,13,02,01,166,,04,38,051,36,05,44,115,34,13,56,032,36*70
$GPGSV,4,2,13,15,65,320,30,18,16,308,30,20,76,332,27,21,34,297,29*79
$GPGSV,4,3,13,24,41,205,25,28,15,066,07,29,00,235,,30,07,040,19*71
$GPGSV,4,4,13,193,82,176,27*7F
$GSENS, 0.127, 0.041,-0.965
$GSENS, 0.128, 0.033,-0.965
$GSENS, 0.125, 0.048,-0.967
$GSENS, 0.125, 0.042,-0.961
$GSENS, 0.119, 0.048,-0.959
$GPRMC,064458.00,A,3540.30916,N,13921.78362,E,0.000,,221116,,,A*73
$GPGGA,064458.00,3540.30916,N,13921.78362,E,1,09,1.10,173.3,M,38.9,M,,*55
$GPGSV,4,1,13,02,01,166,,04,38,051,36,05,44,115,34,13,56,032,36*70
$GPGSV,4,2,13,15,65,320,29,18,16,308,30,20,76,332,27,21,34,297,29*71
$GPGSV,4,3,13,24,41,205,25,28,15,066,07,29,00,235,,30,07,040,19*71
$GPGSV,4,4,13,193,82,176,26*7E
$GSENS, 0.117, 0.054,-0.963
$GSENS, 0.125, 0.054,-0.959
$GSENS, 0.125, 0.052,-0.969
$GSENS, 0.119, 0.056,-0.965
$GSENS, 0.121, 0.056,-0.959
$GPRMC,064458.00,A,3540.30916,N,13921.78362,E,0.000,,221116,,,A*73
$GPGGA,064458.00,3540.30916,N,13921.78362,E,1,09,1.10,173.3,M,38.9,M,,*55
$GPGSV,4,1,13,02,01,166,,04,38,051,36,05,44,115,34,13,56,032,36*70
$GPGSV,4,2,13,15,65,320,29,18,16,308,30,20,76,332,27,21,34,297,29*71
$GPGSV,4,3,13,24,41,205,25,28,15,066,07,29,00,235,,30,07,040,19*71
$GPGSV,4,4,13,193,82,176,26*7E
$GSENS, 0.125, 0.046,-0.955
$GSENS, 0.119, 0.046,-0.961
$GSENS, 0.121, 0.044,-0.965
$GSENS, 0.121, 0.046,-0.959
$GSENS, 0.123, 0.054,-0.969
$GPRMC,064459.00,A,3540.30916,N,13921.78362,E,0.000,,221116,,,A*72
$GPGGA,064459.00,3540.30916,N,13921.78362,E,1,09,1.10,173.3,M,38.9,M,,*54
$GPGSV,4,1,13,02,01,166,,04,38,051,37,05,44,115,34,13,56,032,36*71
$GPGSV,4,2,13,15,65,320,30,18,16,308,30,20,76,332,26,21,34,297,29*78
$GPGSV,4,3,13,24,41,205,25,28,15,066,07,29,00,235,,30,07,040,19*71
$GPGSV,4,4,13,193,82,176,26*7E
$GSENS, 0.119, 0.046,-0.965
$GSENS, 0.125, 0.044,-0.959
$GSENS, 0.117, 0.056,-0.957
$GSENS, 0.117, 0.052,-0.967
$GSENS, 0.121, 0.052,-0.965
$GPRMC,064459.00,A,3540.30916,N,13921.78362,E,0.000,,221116,,,A*72
$GPGGA,064459.00,3540.30916,N,13921.78362,E,1,09,1.10,173.3,M,38.9,M,,*54
$GPGSV,4,1,13,02,01,166,,04,38,051,37,05,44,115,34,13,56,032,36*71
$GPGSV,4,2,13,15,65,320,30,18,16,308,30,20,76,332,26,21,34,297,29*78
$GPGSV,4,3,13,24,41,205,25,28,15,066,07,29,00,235,,30,07,040,19*71
$GPGSV,4,4,13,193,82,176,26*7E
$GSENS, 0.125, 0.042,-0.967
$GSENS, 0.121, 0.050,-0.963
$GSENS, 0.121, 0.048,-0.961
$GSENS, 0.119, 0.044,-0.965
$GSENS, 0.121, 0.050,-0.957
$GPRMC,064500.00,A,3540.30916,N,13921.78362,E,0.000,,221116,,,A*7F
$GPGGA,064500.00,3540.30916,N,13921.78362,E,1,09,1.10,173.3,M,38.9,M,,*59
$GPGSA,A,3,20,15,13,05,193,24,21,18,30,,,,1.71,1.10,1.31*33
$GPGSV,4,1,13,02,01,166,,04,38,051,36,05,44,115,34,13,56,032,36*70
$GPGSV,4,2,13,15,65,320,29,18,16,308,30,20,76,332,26,21,34,297,28*71
$GPGSV,4,3,13,24,41,205,26,28,15,066,07,29,00,235,,30,07,040,19*72
$GPGSV,4,4,13,193,82,176,26*7E
$GSENS, 0.123, 0.041,-0.963
$GSENS, 0.123, 0.046,-0.961
$GSENS, 0.115, 0.048,-0.965
$GSENS, 0.125, 0.048,-0.961
$GSENS, 0.121, 0.046,-0.959
$GPRMC,064500.00,A,3540.30916,N,13921.78362,E,0.000,,221116,,,A*7F
$GPGGA,064500.00,3540.30916,N,13921.78362,E,1,09,1.10,173.3,M,38.9,M,,*59
$GPGSA,A,3,20,15,13,05,193,24,21,18,30,,,,1.71,1.10,1.31*33
$GPGSV,4,1,13,02,01,166,,04,38,051,36,05,44,115,34,13,56,032,36*70
$GPGSV,4,2,13,15,65,320,29,18,16,308,30,20,76,332,26,21,34,297,28*71
$GPGSV,4,3,13,24,41,205,26,28,15,066,07,29,00,235,,30,07,040,19*72
$GPGSV,4,4,13,193,82,176,26*7E
$GSENS, 0.115, 0.054,-0.963
$GSENS, 0.117, 0.054,-0.965
$GSENS, 0.127, 0.064,-0.957
$GSENS, 0.121, 0.039,-0.961
$GSENS, 0.115, 0.039,-0.969
$GPRMC,064501.00,A,3540.30916,N,13921.78362,E,0.000,,221116,,,A*7E
$GPGGA,064501.00,3540.30916,N,13921.78362,E,1,09,1.10,173.3,M,38.9,M,,*58
$GPGSV,4,1,13,02,01,166,,04,38,051,36,05,44,115,35,13,56,032,36*71
$GPGSV,4,2,13,15,65,320,31,18,16,308,30,20,76,332,27,21,34,297,27*76
$GPGSV,4,3,13,24,41,205,26,28,15,066,07,29,00,235,,30,07,040,20*78
$GPGSV,4,4,13,193,82,176,26*7E
$GSENS, 0.121, 0.050,-0.959
$GSENS, 0.119, 0.042,-0.963
$GSENS, 0.119, 0.060,-0.965
$GSENS, 0.119, 0.050,-0.961
$GSENS, 0.125, 0.037,-0.967
$GPRMC,064501.00,A,3540.30916,N,13921.78362,E,0.000,,221116,,,A*7E
$GPGGA,064501.00,3540.30916,N,13921.78362,E,1,09,1.10,173.3,M,38.9,M,,*58
$GPGSV,4,1,13,02,01,166,,04,38,051,36,05,44,115,35,13,56,032,36*71
$GPGSV,4,2,13,15,65,320,31,18,16,308,30,20,76,332,27,21,34,297,27*76
$GPGSV,4,3,13,24,41,205,26,28,15,066,07,29,00,235,,30,07,040,20*78
$GPGSV,4,4,13,193,82,176,26*7E
$GSENS, 0.127, 0.037,-0.977
$GSENS, 0.127, 0.041,-0.955
$GSENS, 0.130, 0.066,-0.961
$GSENS, 0.130, 0.052,-0.965
$GSENS, 0.119, 0.048,-0.961
$GPRMC,064502.00,A,3540.30916,N,13921.78362,E,0.000,,221116,,,A*7D
$GPGGA,064502.00,3540.30916,N,13921.78362,E,1,09,1.10,173.3,M,38.9,M,,*5B
$GPGSV,4,1,13,02,01,166,,04,38,051,35,05,44,115,33,13,56,032,34*76
$GPGSV,4,2,13,15,65,320,26,18,16,308,29,20,76,332,26,21,34,297,26*78
$GPGSV,4,3,13,24,42,205,26,28,15,066,07,29,00,235,,30,07,040,19*71
$GPGSV,4,4,13,193,82,176,25*7D
$GSENS, 0.123, 0.042,-0.969
$GSENS, 0.123, 0.039,-0.955
$GSENS, 0.117, 0.060,-0.965
$GSENS, 0.121, 0.066,-0.959
$GSENS, 0.127, 0.054,-0.963
$GPRMC,064502.00,A,3540.30916,N,13921.78362,E,0.000,,221116,,,A*7D
$GPGGA,064502.00,3540.30916,N,13921.78362,E,1,09,1.10,173.3,M,38.9,M,,*5B
$GPGSV,4,1,13,02,01,166,,04,38,051,35,05,44,115,33,13,56,032,34*76
$GPGSV,4,2,13,15,65,320,26,18,16,308,29,20,76,332,26,21,34,297,26*78
$GPGSV,4,3,13,24,42,205,26,28,15,066,07,29,00,235,,30,07,040,19*71
$GPGSV,4,4,13,193,82,176,25*7D
$GSENS, 0.117, 0.044,-0.967
$GSENS, 0.123, 0.056,-0.963
$GSENS, 0.117, 0.050,-0.965
$GSENS, 0.119, 0.037,-0.969
$GSENS, 0.119, 0.048,-0.963
$GPRMC,064503.00,A,3540.30916,N,13921.78362,E,0.000,,221116,,,A*7C
$GPGGA,064503.00,3540.30916,N,13921.78362,E,1,09,1.10,173.3,M,38.9,M,,*5A
$GPGSV,4,1,13,02,01,166,,04,38,051,35,05,44,115,33,13,56,032,35*77
$GPGSV,4,2,13,15,65,320,29,18,16,308,29,20,76,332,26,21,34,297,25*74
$GPGSV,4,3,13,24,42,205,26,28,15,066,10,29,00,235,,30,07,040,18*76
$GPGSV,4,4,13,193,82,176,25*7D
$GSENS, 0.117, 0.054,-0.961
$GSENS, 0.123, 0.050,-0.961
$GSENS, 0.123, 0.054,-0.963
$GSENS, 0.117, 0.046,-0.961
$GSENS, 0.123, 0.050,-0.959
$GPRMC,064503.00,A,3540.30916,N,13921.78362,E,0.000,,221116,,,A*7C
$GPGGA,064503.00,3540.30916,N,13921.78362,E,1,09,1.10,173.3,M,38.9,M,,*5A
$GPGSV,4,1,13,02,01,166,,04,38,051,35,05,44,115,33,13,56,032,35*77
$GPGSV,4,2,13,15,65,320,29,18,16,308,29,20,76,332,26,21,34,297,25*74
$GPGSV,4,3,13,24,42,205,26,28,15,066,10,29,00,235,,30,07,040,18*76
$GPGSV,4,4,13,193,82,176,25*7D
$GSENS, 0.121, 0.056,-0.967
$GSENS, 0.121, 0.054,-0.961
$GSENS, 0.119, 0.042,-0.965
$GSENS, 0.119, 0.048,-0.961
$GSENS, 0.125, 0.052,-0.967
$GPRMC,064504.00,A,3540.30916,N,13921.78362,E,0.000,,221116,,,A*7B
$GPGGA,064504.00,3540.30916,N,13921.78362,E,1,09,1.10,173.3,M,38.9,M,,*5D
$GPGSA,A,3,20,15,13,05,193,24,21,18,30,,,,1.71,1.10,1.31*33
$GPGSV,4,1,13,02,01,166,,04,38,051,35,05,44,115,33,13,56,032,35*77
$GPGSV,4,2,13,15,65,320,30,18,16,308,28,20,76,332,26,21,34,297,26*7E
$GPGSV,4,3,13,24,42,205,25,28,15,066,10,29,00,235,,30,07,040,18*75
$GPGSV,4,4,13,193,82,176,25*7D
$GSENS, 0.115, 0.052,-0.963
$GSENS, 0.123, 0.042,-0.955
$GSENS, 0.123, 0.044,-0.959
$GSENS, 0.117, 0.062,-0.957
$GSENS, 0.121, 0.041,-0.969
$GPRMC,064504.00,A,3540.30916,N,13921.78362,E,0.000,,221116,,,A*7B
$GPGGA,064504.00,3540.30916,N,13921.78362,E,1,09,1.10,173.3,M,38.9,M,,*5D
$GPGSA,A,3,20,15,13,05,193,24,21,18,30,,,,1.71,1.10,1.31*33
$GPGSV,4,1,13,02,01,166,,04,38,051,35,05,44,115,33,13,56,032,35*77
$GPGSV,4,2,13,15,65,320,30,18,16,308,28,20,76,332,26,21,34,297,26*7E
$GPGSV,4,3,13,24,42,205,25,28,15,066,10,29,00,235,,30,07,040,18*75
$GPGSV,4,4,13,193,82,176,25*7D
$GSENS, 0.128, 0.046,-0.959
$GSENS, 0.123, 0.062,-0.957
$GSENS, 0.134, 0.042,-0.978
$GSENS, 0.138, 0.046,-0.969
$GSENS, 0.125, 0.056,-0.957
$GPRMC,064505.00,A,3540.30916,N,13921.78362,E,0.000,,221116,,,A*7A
$GPGGA,064505.00,3540.30916,N,13921.78362,E,1,09,1.10,173.3,M,38.9,M,,*5C
$GPGSV,4,1,13,02,01,166,,04,38,051,35,05,44,115,33,13,56,032,35*77
$GPGSV,4,2,13,15,65,320,31,18,16,308,28,20,76,332,27,21,34,297,27*7F
$GPGSV,4,3,13,24,42,205,24,28,15,066,10,29,00,235,,30,07,040,19*75
$GPGSV,4,4,13,193,82,176,24*7C
$GSENS, 0.115, 0.042,-0.967
$GSENS, 0.127, 0.048,-0.959
$GSENS, 0.125, 0.064,-0.961
$GSENS, 0.119, 0.044,-0.967
$GSENS, 0.127, 0.046,-0.959
$GPRMC,064505.00,A,3540.30916,N,13921.78362,E,0.000,,221116,,,A*7A
$GPGGA,064505.00,3540.30916,N,13921.78362,E,1,09,1.10,173.3,M,38.9,M,,*5C
$GPGSV,4,1,13,02,01,166,,04,38,051,35,05,44,115,33,13,56,032,35*77
$GPGSV,4,2,13,15,65,320,31,18,16,308,28,20,76,332,27,21,34,297,27*7F
$GPGSV,4,3,13,24,42,205,24,28,15,066,10,29,00,235,,30,07,040,19*75
$GPGSV,4,4,13,193,82,176,24*7C
$GSENS, 0.138, 0.033,-0.984
$GSENS, 0.123, 0.066,-0.965
$GSENS, 0.121, 0.052,-0.961
$GSENS, 0.119, 0.052,-0.959
$GSENS, 0.119, 0.052,-0.963
$GPRMC,064506.00,A,3540.30916,N,13921.78362,E,0.000,,221116,,,A*79
$GPGGA,064506.00,3540.30916,N,13921.78362,E,1,09,1.10,173.3,M,38.9,M,,*5F
$GPGSV,4,1,13,02,01,166,,04,38,051,36,05,44,115,34,13,56,032,35*73
$GPGSV,4,2,13,15,65,320,32,18,16,308,28,20,76,332,28,21,34,297,27*73
$GPGSV,4,3,13,24,42,205,25,28,15,066,11,29,00,235,,30,07,040,19*75
$GPGSV,4,4,13,193,82,176,25*7D
$GSENS, 0.121, 0.058,-0.965
$GSENS, 0.125, 0.041,-0.965
$GSENS, 0.113, 0.050,-0.959
$GSENS, 0.121, 0.050,-0.965
$GSENS, 0.125, 0.041,-0.955
$GPRMC,064506.00,A,3540.30916,N,13921.78362,E,0.000,,221116,,,A*79
$GPGGA,064506.00,3540.30916,N,13921.78362,E,1,09,1.10,173.3,M,38.9,M,,*5F
$GPGSV,4,1,13,02,01,166,,04,38,051,36,05,44,115,34,13,56,032,35*73
$GPGSV,4,2,13,15,65,320,32,18,16,308,28,20,76,332,28,21,34,297,27*73
$GPGSV,4,3,13,24,42,205,25,28,15,066,11,29,00,235,,30,07,040,19*75
$GPGSV,4,4,13,193,82,176,25*7D
$GSENS, 0.115, 0.058,-0.957
$GSENS, 0.125, 0.058,-0.963
$GSENS, 0.121, 0.039,-0.963
$GSENS, 0.121, 0.046,-0.965
$GSENS, 0.125, 0.048,-0.971
$GPRMC,064507.00,A,3540.30916,N,13921.78362,E,0.000,,221116,,,A*78
$GPGGA,064507.00,3540.30916,N,13921.78362,E,1,09,1.10,173.3,M,38.9,M,,*5E
$GPGSV,3,1,12,02,01,166,,04,38,051,35,05,44,115,34,13,56,032,37*74
$GPGSV,3,2,12,15,65,320,28,18,16,308,26,20,76,332,26,21,34,297,25*7C
$GPGSV,3,3,12,24,42,205,23,28,15,066,11,30,07,040,17,193,82,176,23*44
$GSENS, 0.119, 0.062,-0.963
$GSENS, 0.119, 0.046,-0.967
$GSENS, 0.121, 0.048,-0.961
$GSENS, 0.125, 0.064,-0.965
$GSENS, 0.123, 0.054,-0.961
$GPRMC,064507.00,A,3540.30916,N,13921.78362,E,0.000,,221116,,,A*78
$GPGGA,064507.00,3540.30916,N,13921.78362,E,1,09,1.10,173.3,M,38.9,M,,*5E
$GPGSV,3,1,12,02,01,166,,04,38,051,35,05,44,115,34,13,56,032,37*74
$GPGSV,3,2,12,15,65,320,28,18,16,308,26,20,76,332,26,21,34,297,25*7C
$GPGSV,3,3,12,24,42,205,23,28,15,066,11,30,07,040,17,193,82,176,23*44
$GSENS, 0.119, 0.056,-0.959
$GSENS, 0.128, 0.058,-0.963
$GSENS, 0.119, 0.046,-0.961
$GSENS, 0.125, 0.064,-0.963
$GSENS, 0.121, 0.054,-0.959
$GPRMC,064508.00,A,3540.30916,N,13921.78362,E,0.000,,221116,,,A*77
$GPGGA,064508.00,3540.30916,N,13921.78362,E,1,09,1.10,173.3,M,38.9,M,,*51
$GPGSA,A,3,20,15,13,05,193,24,21,18,30,,,,1.71,1.10,1.31*33
$GPGSV,3,1,12,02,01,166,,04,38,051,35,05,44,115,34,13,56,032,36*75
$GPGSV,3,2,12,15,65,320,32,18,16,308,27,20,76,332,27,21,34,297,24*76
$GPGSV,3,3,12,24,42,205,25,28,15,066,,30,07,040,17,193,82,176,23*42
$GSENS, 0.123, 0.060,-0.959
$GSENS, 0.121, 0.054,-0.961
$GSENS, 0.115, 0.058,-0.959
$GSENS, 0.127, 0.056,-0.961
$GSENS, 0.123, 0.042,-0.959
$GPRMC,064508.00,A,3540.30916,N,13921.78362,E,0.000,,221116,,,A*77
$GPGGA,064508.00,3540.30916,N,13921.78362,E,1,09,1.10,173.3,M,38.9,M,,*51
$GPGSA,A,3,20,15,13,05,193,24,21,18,30,,,,1.71,1.10,1.31*33
$GPGSV,3,1,12,02,01,166,,04,38,051,35,05,44,115,34,13,56,032,36*75
$GPGSV,3,2,12,15,65,320,32,18,16,308,27,20,76,332,27,21,34,297,24*76
$GPGSV,3,3,12,24,42,205,25,28,15,066,,30,07,040,17,193,82,176,23*42
$GSENS, 0.119, 0.052,-0.961
$GSENS, 0.121, 0.048,-0.967
$GSENS, 0.121, 0.044,-0.965
$GSENS, 0.121, 0.052,-0.963
$GSENS, 0.119, 0.060,-0.963
$GPRMC,064509.00,A,3540.30916,N,13921.78362,E,0.000,,221116,,,A*76
$GPGGA,064509.00,3540.30916,N,13921.78362,E,1,09,1.10,173.3,M,38.9,M,,*50
$GPGSV,3,1,12,02,01,166,,04,38,051,36,05,44,115,34,13,56,032,36*76
$GPGSV,3,2,12,15,65,320,31,18,16,308,27,20,76,332,27,21,34,297,24*75
$GPGSV,3,3,12,24,42,205,24,28,15,066,,30,07,040,18,193,82,176,23*4C
$GSENS, 0.123, 0.046,-0.967
$GSENS, 0.128, 0.044,-0.961
$GSENS, 0.125, 0.064,-0.965
$GSENS, 0.125, 0.066,-0.967
$GSENS, 0.123, 0.041,-0.969
$GPRMC,064509.00,A,3540.30916,N,13921.78362,E,0.000,,221116,,,A*76
$GPGGA,064509.00,3540.30916,N,13921.78362,E,1,09,1.10,173.3,M,38.9,M,,*50
$GPGSV,3,1,12,02,01,166,,04,38,051,36,05,44,115,34,13,56,032,36*76
$GPGSV,3,2,12,15,65,320,31,18,16,308,27,20,76,332,27,21,34,297,24*75
$GPGSV,3,3,12,24,42,205,24,28,15,066,,30,07,040,18,193,82,176,23*4C
$GSENS, 0.115, 0.066,-0.955
$GSENS, 0.111, 0.062,-0.959
$GSENS, 0.125, 0.044,-0.961
$GSENS, 0.115, 0.062,-0.967
$GSENS, 0.119, 0.058,-0.963
$GPRMC,064510.00,A,3540.30916,N,13921.78362,E,0.000,,221116,,,A*7E
$GPGGA,064510.00,3540.30916,N,13921.78362,E,1,09,1.10,173.3,M,38.9,M,,*58
$GPGSV,3,1,12,02,01,166,,04,38,051,36,05,44,115,34,13,56,032,36*76
$GPGSV,3,2,12,15,65,320,31,18,16,308,27,20,76,332,28,21,34,297,25*7B
$GPGSV,3,3,12,24,42,205,25,28,15,066,,30,07,040,18,193,82,176,24*4A
$GSENS, 0.132, 0.039,-0.965
$GSENS, 0.127, 0.048,-0.967
$GSENS, 0.128, 0.042,-0.963
$GSENS, 0.121, 0.058,-0.959
$GSENS, 0.128, 0.052,-0.963
$GPRMC,064510.00,A,3540.30916,N,13921.78362,E,0.000,,221116,,,A*7E
$GPGGA,064510.00,3540.30916,N,13921.78362,E,1,09,1.10,173.3,M,38.9,M,,*58
$GPGSV,3,1,12,02,01,166,,04,38,051,36,05,44,115,34,13,56,032,36*76
$GPGSV,3,2,12,15,65,320,31,18,16,308,27,20,76,332,28,21,34,297,25*7B
$GPGSV,3,3,12,24,42,205,25,28,15,066,,30,07,040,18,193,82,176,24*4A
$GSENS, 0.121, 0.058,-0.963
$GSENS, 0.123, 0.050,-0.967
$GSENS, 0.119, 0.050,-0.957
$GSENS, 0.470, 0.080,-1.418
$GSENS, 0.187, 0.084,-1.059
$GPRMC,064511.00,A,3540.30916,N,13921.78362,E,0.000,,221116,,,A*7F
$GPGGA,064511.00,3540.30916,N,13921.78362,E,1,09,1.10,173.3,M,38.9,M,,*59
$GPGSV,3,1,12,02,01,166,,04,38,051,35,05,44,115,34,13,56,032,36*75
$GPGSV,3,2,12,15,65,320,31,18,16,308,27,20,76,332,28,21,34,297,25*7B
$GPGSV,3,3,12,24,42,205,24,28,15,066,,30,07,040,19,193,82,176,24*4A
$GSENS, 0.154, 0.037,-0.978
$GSENS, 0.125, 0.050,-0.965
$GSENS, 0.127, 0.062,-0.967
$GSENS, 0.123, 0.064,-0.961
$GSENS, 0.127, 0.048,-0.965
$GPRMC,064511.00,A,3540.30916,N,13921.78362,E,0.000,,221116,,,A*7F
$GPGGA,064511.00,3540.30916,N,13921.78362,E,1,09,1.10,173.3,M,38.9,M,,*59
$GPGSV,3,1,12,02,01,166,,04,38,051,35,05,44,115,34,13,56,032,36*75
$GPGSV,3,2,12,15,65,320,31,18,16,308,27,20,76,332,28,21,34,297,25*7B
$GPGSV,3,3,12,24,42,205,24,28,15,066,,30,07,040,19,193,82,176,24*4A
$GSENS, 0.119, 0.050,-0.965
$GSENS, 0.119, 0.064,-0.965
$GSENS, 0.132, 0.046,-0.955
$GSENS, 0.123, 0.058,-0.967
$GSENS, 0.121, 0.052,-0.969
$GPRMC,064512.00,A,3540.30916,N,13921.78362,E,0.000,,221116,,,A*7C
$GPGGA,064512.00,3540.30916,N,13921.78362,E,1,09,1.10,173.3,M,38.9,M,,*5A
$GPGSA,A,3,20,15,13,05,193,24,21,18,30,,,,1.71,1.10,1.31*33
$GPGSV,3,1,12,02,01,166,,04,38,051,35,05,44,115,35,13,56,032,37*75
$GPGSV,3,2,12,15,65,320,31,18,16,308,25,20,76,332,26,21,34,297,23*71
$GPGSV,3,3,12,24,42,205,22,28,15,066,,30,07,040,19,193,82,176,23*4B
$GSENS, 0.121, 0.050,-0.963
$GSENS, 0.119, 0.052,-0.967
$GSENS, 0.127, 0.050,-0.963
$GSENS, 0.121, 0.042,-0.963
$GSENS, 0.123, 0.058,-0.963
$GPRMC,064512.00,A,3540.30916,N,13921.78362,E,0.000,,221116,,,A*7C
$GPGGA,064512.00,3540.30916,N,13921.78362,E,1,09,1.10,173.3,M,38.9,M,,*5A
$GPGSA,A,3,20,15,13,05,193,24,21,18,30,,,,1.71,1.10,1.31*33
$GPGSV,3,1,12,02,01,166,,04,38,051,35,05,44,115,35,13,56,032,37*75
$GPGSV,3,2,12,15,65,320,31,18,16,308,25,20,76,332,26,21,34,297,23*71
$GPGSV,3,3,12,24,42,205,22,28,15,066,,30,07,040,19,193,82,176,23*4B
$GSENS, 0.117, 0.058,-0.965
$GSENS, 0.123, 0.048,-0.957
$GSENS, 0.113, 0.062,-0.961
$GSENS, 0.125, 0.052,-0.967
$GSENS, 0.130, 0.046,-0.953
$GPRMC,064513.00,A,3540.30916,N,13921.78362,E,0.000,,221116,,,A*7D
$GPGGA,064513.00,3540.30916,N,13921.78362,E,1,09,1.10,173.3,M,38.9,M,,*5B
$GPGSV,3,1,12,02,01,166,,04,38,051,36,05,44,115,34,13,56,032,36*76
$GPGSV,3,2,12,15,65,320,31,18,16,308,25,20,76,332,27,21,34,297,25*76
$GPGSV,3,3,12,24,42,205,22,28,15,066,,30,07,040,18,193,82,176,23*4A
$GSENS, 0.121, 0.054,-0.959
$GSENS, 0.128, 0.058,-0.957
$GSENS, 0.119, 0.039,-0.967
$GSENS, 0.121, 0.056,-0.961
$GSENS, 0.175, 0.027,-0.990
$GPRMC,064513.00,A,3540.30916,N,13921.78362,E,0.000,,221116,,,A*7D
$GPGGA,064513.00,3540.30916,N,13921.78362,E,1,09,1.10,173.3,M,38.9,M,,*5B
$GPGSV,3,1,12,02,01,166,,04,38,051,36,05,44,115,34,13,56,032,36*76
$GPGSV,3,2,12,15,65,320,31,18,16,308,25,20,76,332,27,21,34,297,25*76
$GPGSV,3,3,12,24,42,205,22,28,15,066,,30,07,040,18,193,82,176,23*4A
$GSENS, 0.160, 0.025,-0.992
$GSENS, 0.109, 0.058,-0.955
$GSENS, 0.136, 0.064,-0.971
$GSENS, 0.150, 0.042,-0.955
$GSENS, 0.119, 0.052,-0.955
$GPRMC,064514.00,A,3540.30916,N,13921.78362,E,0.000,,221116,,,A*7A
$GPGGA,064514.00,3540.30916,N,13921.78362,E,1,09,1.10,173.3,M,38.9,M,,*5C
$GPGSV,3,1,12,02,01,166,,04,38,051,36,05,44,115,34,13,56,032,35*75
$GPGSV,3,2,12,15,65,320,31,18,16,308,25,20,76,332,27,21,34,297,26*75
$GPGSV,3,3,12,24,42,205,22,28,15,066,,30,07,040,17,193,82,176,23*45
$GSENS, 0.121, 0.056,-0.965
$GSENS, 0.119, 0.044,-0.971
$GSENS, 0.125, 0.048,-0.961
$GSENS, 0.125, 0.058,-0.959
$GSENS, 0.127, 0.046,-0.967
$GPRMC,064514.00,A,3540.30916,N,13921.78362,E,0.000,,221116,,,A*7A
$GPGGA,064514.00,3540.30916,N,13921.78362,E,1,09,1.10,173.3,M,38.9,M,,*5C
$GPGSV,3,1,12,02,01,166,,04,38,051,36,05,44,115,34,13,56,032,35*75
$GPGSV,3,2,12,15,65,320,31,18,16,308,25,20,76,332,27,21,34,297,26*75
$GPGSV,3,3,12,24,42,205,22,28,15,066,,30,07,040,17,193,82,176,23*45
$GSENS, 0.121, 0.037,-0.971
$GSENS, 0.121, 0.060,-0.963
$GSENS, 0.117, 0.058,-0.959
$GSENS, 0.134, 0.021,-0.975
$GSENS, 0.214, 0.136,-1.057
$GPRMC,064515.00,A,3540.30916,N,13921.78362,E,0.000,,221116,,,A*7B
$GPGGA,064515.00,3540.30916,N,13921.78362,E,1,09,1.10,173.3,M,38.9,M,,*5D
$GPGSV,3,1,12,02,01,166,,04,38,051,36,05,44,115,34,13,56,032,35*75
$GPGSV,3,2,12,15,65,320,30,18,16,308,25,20,76,332,27,21,34,297,25*77
$GPGSV,3,3,12,24,42,205,23,28,15,066,,30,07,040,18,193,82,176,25*4D
$GSENS, 0.138, 0.103,-0.996
$GSENS, 0.123, 0.042,-0.963
$GSENS, 0.109, 0.042,-0.969
$GSENS, 0.121, 0.064,-0.961
$GSENS, 0.128, 0.041,-0.965
$GPRMC,064515.00,A,3540.30916,N,13921.78362,E,0.000,,221116,,,A*7B
$GPGGA,064515.00,3540.30916,N,13921.78362,E,1,09,1.10,173.3,M,38.9,M,,*5D
$GPGSV,3,1,12,02,01,166,,04,38,051,36,05,44,115,34,13,56,032,35*75
$GPGSV,3,2,12,15,65,320,30,18,16,308,25,20,76,332,27,21,34,297,25*77
$GPGSV,3,3,12,24,42,205,23,28,15,066,,30,07,040,18,193,82,176,25*4D
$GSENS, 0.121, 0.054,-0.957
$GSENS, 0.119, 0.056,-0.963
$GSENS, 0.125, 0.058,-0.953
$GSENS, 0.123, 0.044,-0.967
$GSENS, 0.113, 0.060,-0.963
$GPRMC,064516.00,A,3540.30916,N,13921.78362,E,0.000,,221116,,,A*78
$GPGGA,064516.00,3540.30916,N,13921.78362,E,1,09,1.10,173.3,M,38.9,M,,*5E
$GPGSA,A,3,20,15,13,05,193,24,21,18,30,,,,1.71,1.10,1.31*33
$GPGSV,3,1,12,02,01,166,,04,38,051,36,05,44,115,33,13,56,032,35*72
$GPGSV,3,2,12,15,65,320,29,18,16,308,25,20,76,332,27,21,34,297,25*7F
$GPGSV,3,3,12,24,42,205,24,28,15,066,,30,07,040,18,193,82,176,25*4A
$GSENS, 0.125, 0.058,-0.961
$GSENS, 0.125, 0.052,-0.969
$GSENS, 0.132, 0.027,-0.965
$GSENS, 0.113, 0.060,-0.965
$GSENS, 0.123, 0.050,-0.967
$GPRMC,064516.00,A,3540.30916,N,13921.78362,E,0.000,,221116,,,A*78
$GPGGA,064516.00,3540.30916,N,13921.78362,E,1,09,1.10,173.3,M,38.9,M,,*5E
$GPGSA,A,3,20,15,13,05,193,24,21,18,30,,,,1.71,1.10,1.31*33
$GPGSV,3,1,12,02,01,166,,04,38,051,36,05,44,115,33,13,56,032,35*72
$GPGSV,3,2,12,15,65,320,29,18,16,308,25,20,76,332,27,21,34,297,25*7F
$GPGSV,3,3,12,24,42,205,24,28,15,066,,30,07,040,18,193,82,176,25*4A
$GSENS, 0.119, 0.050,-0.961
$GSENS, 0.119, 0.054,-0.957
$GSENS, 0.127, 0.052,-0.971
$GSENS, 0.115, 0.064,-0.963
$GSENS, 0.125, 0.044,-0.963
$GPRMC,064517.00,A,3540.30916,N,13921.78362,E,0.000,,221116,,,A*79
$GPGGA,064517.00,3540.30916,N,13921.78362,E,1,09,1.10,173.3,M,38.9,M,,*5F
$GPGSV,3,1,12,02,01,166,,04,38,051,36,05,44,115,34,13,56,032,35*75
$GPGSV,3,2,12,15,65,320,29,18,16,308,24,20,76,332,27,21,34,297,25*7E
$GPGSV,3,3,12,24,42,205,25,28,15,066,,30,07,040,17,193,82,176,25*44
$GSENS, 0.123, 0.044,-0.959
$GSENS, 0.121, 0.054,-0.961
$GSENS, 0.119, 0.052,-0.969
$GSENS, 0.121, 0.042,-0.963
$GSENS, 0.121, 0.048,-0.965
$GPRMC,064517.00,A,3540.30916,N,13921.78362,E,0.000,,221116,,,A*79
$GPGGA,064517.00,3540.30916,N,13921.78362,E,1,09,1.10,173.3,M,38.9,M,,*5F
$GPGSV,3,1,12,02,01,166,,04,38,051,36,05,44,115,34,13,56,032,35*75
$GPGSV,3,2,12,15,65,320,29,18,16,308,24,20,76,332,27,21,34,297,25*7E
$GPGSV,3,3,12,24,42,205,25,28,15,066,,30,07,040,17,193,82,176,25*44
$GSENS, 0.121, 0.060,-0.963
$GSENS, 0.121, 0.046,-0.967
$GSENS, 0.121, 0.048,-0.961
$GSENS, 0.121, 0.044,-0.963
$GSENS, 0.127, 0.037,-0.965
$GPRMC,064518.00,A,3540.30916,N,13921.78362,E,0.000,,221116,,,A*76
$GPGGA,064518.00,3540.30916,N,13921.78362,E,1,09,1.10,173.3,M,38.9,M,,*50
$GPGSV,3,1,12,02,01,166,,04,38,051,36,05,44,115,34,13,56,032,35*75
$GPGSV,3,2,12,15,65,320,29,18,16,308,24,20,76,332,27,21,34,297,25*7E
$GPGSV,3,3,12,24,42,205,25,28,15,066,,30,07,040,18,193,82,176,25*4B
$GSENS, 0.127, 0.041,-0.961
$GSENS, 0.128, 0.035,-0.965
$GSENS, 0.127, 0.042,-0.961
$GSENS, 0.130, 0.044,-0.965
$GSENS, 0.113, 0.050,-0.961
$GPRMC,064518.00,A,3540.30916,N,13921.78362,E,0.000,,221116,,,A*76
$GPGGA,064518.00,3540.30916,N,13921.78362,E,1,09,1.10,173.3,M,38.9,M,,*50
$GPGSV,3,1,12,02,01,166,,04,38,051,36,05,44,115,34,13,56,032,35*75
$GPGSV,3,2,12,15,65,320,29,18,16,308,24,20,76,332,27,21,34,297,25*7E
$GPGSV,3,3,12,24,42,205,25,28,15,066,,30,07,040,18,193,82,176,25*4B
$GSENS, 0.111, 0.054,-0.963
$GSENS, 0.121, 0.042,-0.959
$GSENS, 0.128, 0.046,-0.959
$GSENS, 0.119, 0.054,-0.963
$GSENS, 0.117, 0.048,-0.959
$GPRMC,064519.00,A,3540.30916,N,13921.78362,E,0.000,,221116,,,A*77
$GPGGA,064519.00,3540.30916,N,13921.78362,E,1,09,1.10,173.3,M,38.9,M,,*51
$GPGSV,3,1,12,02,01,166,,04,38,051,37,05,44,115,34,13,56,032,34*75
$GPGSV,3,2,12,15,65,320,29,18,16,308,24,20,76,332,27,21,34,297,25*7E
$GPGSV,3,3,12,24,42,205,24,28,15,066,,30,07,040,17,193,82,176,25*45
$GSENS, 0.125, 0.048,-0.955
$GSENS, 0.117, 0.052,-0.967
$GSENS, 0.117, 0.050,-0.957
$GSENS, 0.119, 0.050,-0.959
$GSENS, 0.121, 0.050,-0.963
$GPRMC,064519.00,A,3540.30916,N,13921.78362,E,0.000,,221116,,,A*77
$GPGGA,064519.00,3540.30916,N,13921.78362,E,1,09,1.10,173.3,M,38.9,M,,*51
$GPGSV,3,1,12,02,01,166,,04,38,051,37,05,44,115,34,13,56,032,34*75
$GPGSV,3,2,12,15,65,320,29,18,16,308,24,20,76,332,27,21,34,297,25*7E
$GPGSV,3,3,12,24,42,205,24,28,15,066,,30,07,040,17,193,82,176,25*45
$GSENS, 0.117, 0.054,-0.963
$GSENS, 0.119, 0.054,-0.959
$GSENS, 0.123, 0.050,-0.961
$GSENS, 0.115, 0.058,-0.961
$GSENS, 0.121, 0.042,-0.965
$GPRMC,064520.00,A,3540.30916,N,13921.78362,E,0.000,,221116,,,A*7D
$GPGGA,064520.00,3540.30916,N,13921.78362,E,1,09,1.10,173.3,M,38.9,M,,*5B
$GPGSA,A,3,20,15,13,05,193,24,21,18,30,,,,1.71,1.10,1.31*33
$GPGSV,3,1,12,02,01,166,,04,38,051,37,05,44,115,34,13,56,032,34*75
$GPGSV,3,2,12,15,65,320,29,18,16,308,25,20,76,332,27,21,34,297,26*7C
$GPGSV,3,3,12,24,42,205,24,28,15,066,,30,07,040,17,193,82,176,25*45
$GSENS, 0.123, 0.041,-0.961
$GSENS, 0.117, 0.052,-0.965
$GSENS, 0.127, 0.050,-0.965
$GSENS, 0.121, 0.056,-0.955
$GSENS, 0.115, 0.058,-0.963
$GPRMC,064520.00,A,3540.30916,N,13921.78362,E,0.000,,221116,,,A*7D
$GPGGA,064520.00,3540.30916,N,13921.78362,E,1,09,1.10,173.3,M,38.9,M,,*5B
$GPGSA,A,3,20,15,13,05,193,24,21,18,30,,,,1.71,1.10,1.31*33
$GPGSV,3,1,12,02,01,166,,04,38,051,37,05,44,115,34,13,56,032,34*75
$GPGSV,3,2,12,15,65,320,29,18,16,308,25,20,76,332,27,21,34,297,26*7C
$GPGSV,3,3,12,24,42,205,24,28,15,066,,30,07,040,17,193,82,176,25*45
$GSENS, 0.121, 0.056,-0.961
$GSENS, 0.115, 0.054,-0.963
$GSENS, 0.115, 0.042,-0.969
$GSENS, 0.119, 0.052,-0.965
$GSENS, 0.109, 0.052,-0.959
$GPRMC,064521.00,A,3540.30916,N,13921.78362,E,0.000,,221116,,,A*7C
$GPGGA,064521.00,3540.30916,N,13921.78362,E,1,09,1.10,173.3,M,38.9,M,,*5A
$GPGSV,3,1,12,02,01,166,,04,38,051,37,05,44,115,34,13,56,032,34*75
$GPGSV,3,2,12,15,65,320,29,18,16,308,25,20,76,332,27,21,34,297,26*7C
$GPGSV,3,3,12,24,42,205,23,28,15,066,,30,07,040,17,193,82,176,25*42
$GSENS, 0.121, 0.050,-0.963
$GSENS, 0.121, 0.058,-0.963
$GSENS, 0.119, 0.042,-0.961
$GSENS, 0.117, 0.046,-0.961
$GSENS, 0.123, 0.058,-0.961
$GPRMC,064521.00,A,3540.30916,N,13921.78362,E,0.000,,221116,,,A*7C
$GPGGA,064521.00,3540.30916,N,13921.78362,E,1,09,1.10,173.3,M,38.9,M,,*5A
$GPGSV,3,1,12,02,01,166,,04,38,051,37,05,44,115,34,13,56,032,34*75
$GPGSV,3,2,12,15,65,320,29,18,16,308,25,20,76,332,27,21,34,297,26*7C
$GPGSV,3,3,12,24,42,205,23,28,15,066,,30,07,040,17,193,82,176,25*42
$GSENS, 0.117, 0.054,-0.961
$GSENS, 0.123, 0.042,-0.963
$GSENS, 0.123, 0.048,-0.957
$GSENS, 0.113, 0.054,-0.965
$GSENS, 0.121, 0.046,-0.963
$GPRMC,064522.00,A,3540.30916,N,13921.78362,E,0.000,,221116,,,A*7F
$GPGGA,064522.00,3540.30916,N,13921.78362,E,1,09,1.10,173.3,M,38.9,M,,*59
$GPGSV,3,1,12,02,01,166,06,04,38,051,37,05,44,115,35,13,56,032,35*73
$GPGSV,3,2,12,15,65,320,29,18,16,308,24,20,76,332,27,21,34,297,26*7D
$GPGSV,3,3,12,24,42,205,24,28,15,066,,30,07,040,17,193,82,176,25*45
$GSENS, 0.123, 0.044,-0.959
$GSENS, 0.121, 0.054,-0.959
$GSENS, 0.117, 0.052,-0.959
$GSENS, 0.123, 0.042,-0.967
$GSENS, 0.121, 0.054,-0.961
$GPRMC,064522.00,A,3540.30916,N,13921.78362,E,0.000,,221116,,,A*7F
$GPGGA,064522.00,3540.30916,N,13921.78362,E,1,09,1.10,173.3,M,38.9,M,,*59
$GPGSV,3,1,12,02,01,166,06,04,38,051,37,05,44,115,35,13,56,032,35*73
$GPGSV,3,2,12,15,65,320,29,18,16,308,24,20,76,332,27,21,34,297,26*7D
$GPGSV,3,3,12,24,42,205,24,28,15,066,,30,07,040,17,193,82,176,25*45
$GSENS, 0.121, 0.054,-0.971
$GSENS, 0.119, 0.050,-0.961
$GSENS, 0.119, 0.052,-0.967
$GSENS, 0.117, 0.052,-0.959
$GSENS, 0.121, 0.050,-0.961
$GPRMC,064523.00,A,3540.30916,N,13921.78362,E,0.000,,221116,,,A*7E
$GPGGA,064523.00,3540.30916,N,13921.78362,E,1,09,1.10,173.3,M,38.9,M,,*58
$GPGSV,3,1,12,02,01,166,07,04,38,051,37,05,44,115,34,13,56,032,35*73
$GPGSV,3,2,12,15,65,320,29,18,16,308,23,20,76,332,27,21,34,297,26*7A
$GPGSV,3,3,12,24,42,205,22,28,15,066,,30,07,040,18,193,82,176,25*4C
$GSENS, 0.117, 0.052,-0.961
$GSENS, 0.121, 0.046,-0.965
$GSENS, 0.117, 0.046,-0.967
$GSENS, 0.119, 0.048,-0.955
$GSENS, 0.121, 0.052,-0.963
$GPRMC,064523.00,A,3540.30916,N,13921.78362,E,0.000,,221116,,,A*7E
$GPGGA,064523.00,3540.30916,N,13921.78362,E,1,09,1.10,173.3,M,38.9,M,,*58
$GPGSV,3,1,12,02,01,166,07,04,38,051,37,05,44,115,34,13,56,032,35*73
$GPGSV,3,2,12,15,65,320,29,18,16,308,23,20,76,332,27,21,34,297,26*7A
$GPGSV,3,3,12,24,42,205,22,28,15,066,,30,07,040,18,193,82,176,25*4C
$GSENS, 0.117, 0.050,-0.963
$GSENS, 0.125, 0.044,-0.961
$GSENS, 0.121, 0.048,-0.961
$GSENS, 0.113, 0.054,-0.965
$GSENS, 0.117, 0.048,-0.963
$GPRMC,064524.00,A,3540.30916,N,13921.78362,E,0.000,,221116,,,A*79
$GPGGA,064524.00,3540.30916,N,13921.78362,E,1,09,1.34,173.3,M,38.9,M,,*59
$GPGSA,A,3,20,15,13,05,193,24,21,18,30,,,,2.28,1.34,1.85*35
$GPGSV,3,1,12,02,01,166,07,04,38,051,36,05,44,115,33,13,56,032,34*74
$GPGSV,3,2,12,15,65,320,28,18,16,308,23,20,76,332,27,21,34,297,25*78
$GPGSV,3,3,12,24,42,205,22,28,15,066,,30,07,040,18,193,82,176,26*4F
$GSENS, 0.128, 0.052,-0.959
$GSENS, 0.119, 0.054,-0.963
$GSENS, 0.125, 0.042,-0.969
$GSENS, 0.123, 0.042,-0.961
$GSENS, 0.115, 0.054,-0.963
